stop_id,stop_name,similar_stop_id,similar_stop_name
1_01,絵鞆団地,1_01,絵鞆団地
2_01,絵鞆２丁目,2_01,絵鞆２丁目
2_02,絵鞆２丁目,2_01,絵鞆２丁目
3_01,絵鞆中央,3_01,絵鞆中央
3_02,絵鞆中央,3_01,絵鞆中央
4_01,絵鞆公園前,4_01,絵鞆公園前
5_01,公営住宅前,5_01,公営住宅前
11_01,絵鞆１丁目,11_01,絵鞆１丁目
11_02,絵鞆１丁目,11_01,絵鞆１丁目
12_01,緑丘,12_01,緑丘
12_02,緑丘,12_01,緑丘
13_01,祝津公園入口,13_01,祝津公園入口
13_02,祝津公園入口,13_01,祝津公園入口
14_01,祝津町２丁目,14_01,祝津町２丁目
14_02,祝津町２丁目,14_01,祝津町２丁目
15_01,室蘭築港,15_01,室蘭築港
15_02,室蘭築港,15_01,室蘭築港
16_01,ドック前,16_01,ドック前
16_02,ドック前,16_01,ドック前
17_01,楢崎造船前,17_01,楢崎造船前
17_02,楢崎造船前,17_01,楢崎造船前
21_01,養護老人ホームあいらん前,21_01,養護老人ホームあいらん前
21_02,養護老人ホームあいらん前,21_01,養護老人ホームあいらん前
22_01,港南町入口,22_01,港南町入口
22_02,港南町入口,22_01,港南町入口
23_01,港南町２丁目,23_01,港南町２丁目
23_02,港南町２丁目,23_01,港南町２丁目
31_32,清水丘高校前,31_32,清水丘高校前
32_01,増市通,32_01,増市通
33_01,桜ケ丘,33_01,桜ケ丘
33_02,桜ケ丘,33_01,桜ケ丘
41_01,みなと小学校前,41_01,みなと小学校前
41_02,みなと小学校前,41_01,みなと小学校前
42_01,港南町１丁目,42_01,港南町１丁目
42_02,港南町１丁目,42_01,港南町１丁目
51_01,港南町,51_01,港南町
51_02,港南町,51_01,港南町
52_01,小橋内,52_01,小橋内
52_02,小橋内,52_01,小橋内
53_01,小橋内１丁目,53_01,小橋内１丁目
53_02,小橋内１丁目,53_01,小橋内１丁目
61_01,通船前,61_01,通船前
61_02,通船前,61_01,通船前
71_01,中央埠頭入口,71_01,中央埠頭入口
71_02,中央埠頭入口,71_01,中央埠頭入口
81_03,室蘭観光協会前,81_03,室蘭観光協会前
81_04,室蘭観光協会前,81_03,室蘭観光協会前
81_05,室蘭観光協会前,81_03,室蘭観光協会前
81_06,室蘭観光協会前,81_03,室蘭観光協会前
82_02,室蘭駅前,82_02,室蘭駅前
82_04,室蘭駅前,82_02,室蘭駅前
83_01,室蘭駅前広場,83_01,室蘭駅前広場
2572_10,共栄,2572_10,共栄
2572_11,共栄,2572_10,共栄
1492_10,新冠農協前,1492_10,新冠農協前
101_01,中央町,101_01,中央町
101_02,中央町,101_01,中央町
101_03,中央町,101_01,中央町
111_01,小公園前,111_01,小公園前
112_01,市役所前,112_01,市役所前
112_02,市役所前,112_01,市役所前
113_01,市役所北,113_01,市役所北
114_01,市立病院前,114_01,市立病院前
114_02,市立病院前,114_01,市立病院前
115_01,千歳交差点,115_01,千歳交差点
121_01,市港湾部前,121_01,市港湾部前
121_02,市港湾部前,121_01,市港湾部前
122_01,室蘭フェリーターミナル,122_01,室蘭フェリーターミナル
123_01,入江臨海公園,123_01,入江臨海公園
123_02,入江臨海公園,123_01,入江臨海公園
2067_10,日高東別,2067_10,日高東別
2067_11,日高東別,2067_10,日高東別
2068_10,西端生活館,2068_10,西端生活館
2098_10,蓬栄,2098_10,蓬栄
2098_11,蓬栄,2098_10,蓬栄
141_01,ＮＨＫ前,141_01,ＮＨＫ前
141_02,ＮＨＫ前,141_01,ＮＨＫ前
141_05,ＮＨＫ前,141_01,ＮＨＫ前
142_01,日鋼記念病院前,142_01,日鋼記念病院前
142_02,日鋼記念病院前,142_01,日鋼記念病院前
151_01,母恋駅前,151_01,母恋駅前
151_02,母恋駅前,151_01,母恋駅前
151_03,母恋駅前,151_01,母恋駅前
161_01,北町中央,161_01,北町中央
161_02,北町中央,161_01,北町中央
162_01,交番前,162_01,交番前
162_02,交番前,162_01,交番前
163_01,南町２丁目,163_01,南町２丁目
163_02,南町２丁目,163_01,南町２丁目
164_01,宮前,164_01,宮前
164_02,宮前,164_01,宮前
165_01,南町４丁目,165_01,南町４丁目
165_02,南町４丁目,165_01,南町４丁目
166_01,地球岬団地,166_01,地球岬団地
170_01,ラッパ森,170_01,ラッパ森
170_02,ラッパ森,170_01,ラッパ森
171_01,御前水,171_01,御前水
171_02,御前水,171_01,御前水
171_05,御前水,171_01,御前水
172_01,御崎アパート前,172_01,御崎アパート前
172_02,御崎アパート前,172_01,御崎アパート前
173_01,御崎駅前,173_01,御崎駅前
173_02,御崎駅前,173_01,御崎駅前
174_01,鉄原前,174_01,鉄原前
174_02,鉄原前,174_01,鉄原前
175_01,トヨタ前,175_01,トヨタ前
175_02,トヨタ前,175_01,トヨタ前
176_01,大沢１丁目,176_01,大沢１丁目
176_02,大沢１丁目,176_01,大沢１丁目
177_01,輪西駅前,177_01,輪西駅前
177_02,輪西駅前,177_01,輪西駅前
178_01,日本製鉄前,178_01,日本製鉄前
178_02,日本製鉄前,178_01,日本製鉄前
178_05,日本製鉄前,178_01,日本製鉄前
179_01,輪西九条通,179_01,輪西九条通
179_02,輪西九条通,179_01,輪西九条通
181_01,日本製鉄球場前,181_01,日本製鉄球場前
181_02,日本製鉄球場前,181_01,日本製鉄球場前
182_01,末広,182_01,末広
182_02,末広,182_01,末広
183_01,潮見公園入口,183_01,潮見公園入口
183_02,潮見公園入口,183_01,潮見公園入口
184_01,市民会館前,184_01,市民会館前
184_02,市民会館前,184_01,市民会館前
185_01,弥生ショッピングセンター,185_01,弥生ショッピングセンター
185_02,弥生ショッピングセンター,185_01,弥生ショッピングセンター
186_01,高平通入口,186_01,高平通入口
187_02,本輪西３丁目,187_02,本輪西３丁目
188_01,本輪西４丁目,188_01,本輪西４丁目
188_02,本輪西４丁目,188_01,本輪西４丁目
189_01,大学会館前,189_01,大学会館前
192_01,東町５丁目,192_01,東町５丁目
192_02,東町５丁目,192_01,東町５丁目
192_04,東町５丁目,192_01,東町５丁目
193_01,工業団地,193_01,工業団地
193_02,工業団地,193_01,工業団地
194_02,東町４丁目,194_02,東町４丁目
200_01,室蘭警察署前,200_01,室蘭警察署前
200_02,室蘭警察署前,200_01,室蘭警察署前
201_01,汐見,201_01,汐見
201_02,汐見,201_01,汐見
201_05,汐見,201_01,汐見
211_02,東町ターミナル,211_02,東町ターミナル
211_03,東町ターミナル,211_02,東町ターミナル
211_05,東町ターミナル,211_02,東町ターミナル
211_15,東町ターミナル,211_02,東町ターミナル
211_16,東町ターミナル,211_02,東町ターミナル
211_32,東町ターミナル,211_02,東町ターミナル
221_01,東町中央,221_01,東町中央
221_02,東町中央,221_01,東町中央
231_01,東町２丁目,231_01,東町２丁目
231_02,東町２丁目,231_01,東町２丁目
231_10,東町２丁目,231_01,東町２丁目
241_01,太平橋,241_01,太平橋
241_02,太平橋,241_01,太平橋
241_03,太平橋,241_01,太平橋
241_04,太平橋,241_01,太平橋
251_01,中島町４丁目,251_01,中島町４丁目
251_02,中島町４丁目,251_01,中島町４丁目
261_01,東室蘭駅西口,261_01,東室蘭駅西口
261_02,東室蘭駅西口,261_01,東室蘭駅西口
262_02,東室蘭駅東口,262_02,東室蘭駅東口
262_17,東室蘭駅東口,262_02,東室蘭駅東口
271_01,体育館前,271_01,体育館前
271_02,体育館前,271_01,体育館前
281_01,大川原病院前,281_01,大川原病院前
281_02,大川原病院前,281_01,大川原病院前
282_01,寿町１丁目,282_01,寿町１丁目
282_02,寿町１丁目,282_01,寿町１丁目
291_01,宮の森４丁目,291_01,宮の森４丁目
291_02,宮の森４丁目,291_01,宮の森４丁目
291_03,宮の森４丁目,291_01,宮の森４丁目
291_04,宮の森４丁目,291_01,宮の森４丁目
301_01,宮の森３丁目,301_01,宮の森３丁目
301_02,宮の森３丁目,301_01,宮の森３丁目
302_01,高砂１丁目,302_01,高砂１丁目
302_02,高砂１丁目,302_01,高砂１丁目
303_01,緑ケ丘,303_01,緑ケ丘
303_02,緑ケ丘,303_01,緑ケ丘
304_01,ＪＲアパート前,304_01,ＪＲアパート前
304_02,ＪＲアパート前,304_01,ＪＲアパート前
311_01,中島公園前,311_01,中島公園前
311_02,中島公園前,311_01,中島公園前
321_01,工業高校前,321_01,工業高校前
321_02,工業高校前,321_01,工業高校前
322_01,高砂公園前,322_01,高砂公園前
322_02,高砂公園前,322_01,高砂公園前
323_01,高砂２丁目,323_01,高砂２丁目
323_02,高砂２丁目,323_01,高砂２丁目
331_01,寿町３丁目,331_01,寿町３丁目
331_02,寿町３丁目,331_01,寿町３丁目
332_01,寿町２丁目,332_01,寿町２丁目
332_02,寿町２丁目,332_01,寿町２丁目
333_01,日の出町１丁目,333_01,日の出町１丁目
333_02,日の出町１丁目,333_01,日の出町１丁目
334_01,日の出町２丁目,334_01,日の出町２丁目
334_02,日の出町２丁目,334_01,日の出町２丁目
341_01,鷲別,341_01,鷲別
341_02,鷲別,341_01,鷲別
341_03,鷲別,341_01,鷲別
341_04,鷲別,341_01,鷲別
351_01,鷲別駅前,351_01,鷲別駅前
351_02,鷲別駅前,351_01,鷲別駅前
361_01,高砂十字街,361_01,高砂十字街
361_02,高砂十字街,361_01,高砂十字街
371_01,高砂局前,371_01,高砂局前
371_02,高砂局前,371_01,高砂局前
381_01,高砂３丁目,381_01,高砂３丁目
381_02,高砂３丁目,381_01,高砂３丁目
382_01,高砂４丁目,382_01,高砂４丁目
382_02,高砂４丁目,382_01,高砂４丁目
383_01,東翔高校前,383_01,東翔高校前
383_02,東翔高校前,383_01,東翔高校前
384_01,高砂５丁目,384_01,高砂５丁目
384_02,高砂５丁目,384_01,高砂５丁目
391_01,工大,391_01,工大
391_02,工大,391_01,工大
401_01,工大研修所前,401_01,工大研修所前
402_01,室蘭ろう学校前,402_01,室蘭ろう学校前
403_01,水元団地中央,403_01,水元団地中央
404_01,うぐいす台団地入口,404_01,うぐいす台団地入口
411_01,鷲別中学校前,411_01,鷲別中学校前
411_02,鷲別中学校前,411_01,鷲別中学校前
412_01,鷲別小学校前,412_01,鷲別小学校前
412_02,鷲別小学校前,412_01,鷲別小学校前
413_01,東鷲別,413_01,東鷲別
413_02,東鷲別,413_01,東鷲別
414_01,はまなす団地,414_01,はまなす団地
414_02,はまなす団地,414_01,はまなす団地
415_01,栄町４丁目,415_01,栄町４丁目
415_02,栄町４丁目,415_01,栄町４丁目
416_01,西富岸,416_01,西富岸
416_02,西富岸,416_01,西富岸
421_01,富岸,421_01,富岸
421_02,富岸,421_01,富岸
422_01,道路事務所前,422_01,道路事務所前
422_02,道路事務所前,422_01,道路事務所前
423_01,あかしや団地,423_01,あかしや団地
423_02,あかしや団地,423_01,あかしや団地
424_01,自衛隊入口,424_01,自衛隊入口
424_02,自衛隊入口,424_01,自衛隊入口
425_01,幌別本町,425_01,幌別本町
425_02,幌別本町,425_01,幌別本町
431_01,上鷲別入口,431_01,上鷲別入口
431_02,上鷲別入口,431_01,上鷲別入口
441_01,旭ケ丘団地,441_01,旭ケ丘団地
441_02,旭ケ丘団地,441_01,旭ケ丘団地
451_01,若草小学校前,451_01,若草小学校前
451_02,若草小学校前,451_01,若草小学校前
452_01,若草１丁目,452_01,若草１丁目
452_02,若草１丁目,452_01,若草１丁目
453_01,若草２丁目,453_01,若草２丁目
453_02,若草２丁目,453_01,若草２丁目
454_01,公園入口,454_01,公園入口
454_02,公園入口,454_01,公園入口
461_01,若草入口,461_01,若草入口
461_02,若草入口,461_01,若草入口
462_01,若草中央,462_01,若草中央
462_02,若草中央,462_01,若草中央
463_01,緑ケ丘団地,463_01,緑ケ丘団地
463_02,緑ケ丘団地,463_01,緑ケ丘団地
464_01,若草４丁目,464_01,若草４丁目
464_02,若草４丁目,464_01,若草４丁目
465_01,千代の台団地,465_01,千代の台団地
465_02,千代の台団地,465_01,千代の台団地
466_01,若草３丁目,466_01,若草３丁目
466_02,若草３丁目,466_01,若草３丁目
467_01,新生町３丁目,467_01,新生町３丁目
467_02,新生町３丁目,467_01,新生町３丁目
468_01,新生町４丁目,468_01,新生町４丁目
468_02,新生町４丁目,468_01,新生町４丁目
471_01,新生町１丁目,471_01,新生町１丁目
471_02,新生町１丁目,471_01,新生町１丁目
472_01,新生町２丁目,472_01,新生町２丁目
472_02,新生町２丁目,472_01,新生町２丁目
473_01,新生町５丁目,473_01,新生町５丁目
473_02,新生町５丁目,473_01,新生町５丁目
474_01,富岸小学校前,474_01,富岸小学校前
474_02,富岸小学校前,474_01,富岸小学校前
475_01,富岸２丁目,475_01,富岸２丁目
475_02,富岸２丁目,475_01,富岸２丁目
476_01,亀田公園入口,476_01,亀田公園入口
476_02,亀田公園入口,476_01,亀田公園入口
481_01,汐平団地,481_01,汐平団地
481_02,汐平団地,481_01,汐平団地
491_01,若山町３丁目,491_01,若山町３丁目
491_02,若山町３丁目,491_01,若山町３丁目
501_01,若山営業所前,501_01,若山営業所前
501_02,若山営業所前,501_01,若山営業所前
502_01,総合体育館前,502_01,総合体育館前
502_02,総合体育館前,502_01,総合体育館前
503_01,若山町１丁目,503_01,若山町１丁目
503_02,若山町１丁目,503_01,若山町１丁目
504_01,桜木団地,504_01,桜木団地
504_02,桜木団地,504_01,桜木団地
505_01,桜木中央,505_01,桜木中央
505_02,桜木中央,505_01,桜木中央
506_01,緑町２丁目,506_01,緑町２丁目
506_02,緑町２丁目,506_01,緑町２丁目
507_01,桜木町１丁目,507_01,桜木町１丁目
507_02,桜木町１丁目,507_01,桜木町１丁目
508_01,新川町１丁目,508_01,新川町１丁目
508_02,新川町１丁目,508_01,新川町１丁目
511_01,幌別中央,511_01,幌別中央
511_02,幌別中央,511_01,幌別中央
521_01,幌別駅西口,521_01,幌別駅西口
521_02,幌別駅西口,521_01,幌別駅西口
531_01,幌別小学校前,531_01,幌別小学校前
531_02,幌別小学校前,531_01,幌別小学校前
541_01,労働福祉センター前,541_01,労働福祉センター前
541_02,労働福祉センター前,541_01,労働福祉センター前
542_01,千歳町４丁目,542_01,千歳町４丁目
542_02,千歳町４丁目,542_01,千歳町４丁目
551_01,千歳町６丁目,551_01,千歳町６丁目
551_02,千歳町６丁目,551_01,千歳町６丁目
552_01,千歳寮,552_01,千歳寮
552_02,千歳寮,552_01,千歳寮
2099_10,本桐,2099_10,本桐
2099_11,本桐,2099_10,本桐
570_01,岡志別公園前,570_01,岡志別公園前
570_02,岡志別公園前,570_01,岡志別公園前
571_01,市民プール前,571_01,市民プール前
581_01,中央町５丁目,581_01,中央町５丁目
581_02,中央町５丁目,581_01,中央町５丁目
601_01,社宅十字街,601_01,社宅十字街
601_02,社宅十字街,601_01,社宅十字街
620_01,石川町げんき館前,620_01,石川町げんき館前
621_01,幌別ホームストアー前,621_01,幌別ホームストアー前
621_02,幌別ホームストアー前,621_01,幌別ホームストアー前
622_01,市民会館前,622_01,市民会館前
622_02,市民会館前,622_01,市民会館前
641_01,西小学校前,641_01,西小学校前
641_02,西小学校前,641_01,西小学校前
642_01,明日中等前,642_01,明日中等前
642_02,明日中等前,642_01,明日中等前
643_01,資料館前,643_01,資料館前
643_02,資料館前,643_01,資料館前
647_01,しんた２１前,647_01,しんた２１前
647_02,しんた２１前,647_01,しんた２１前
651_01,中島町２丁目,651_01,中島町２丁目
651_02,中島町２丁目,651_01,中島町２丁目
661_01,中島町３丁目,661_01,中島町３丁目
661_02,中島町３丁目,661_01,中島町３丁目
661_04,中島町３丁目,661_01,中島町３丁目
661_05,中島町３丁目,661_01,中島町３丁目
681_01,東通,681_01,東通
681_02,東通,681_01,東通
681_03,東通,681_01,東通
681_04,東通,681_01,東通
682_01,製鉄記念室蘭病院,682_01,製鉄記念室蘭病院
691_01,知利別１丁目,691_01,知利別１丁目
691_02,知利別１丁目,691_01,知利別１丁目
1740_10,大通５丁目,1740_10,大通５丁目
1740_11,大通５丁目,1740_10,大通５丁目
711_01,知利別２丁目,711_01,知利別２丁目
711_02,知利別２丁目,711_01,知利別２丁目
721_01,知利別郵便局前,721_01,知利別郵便局前
721_02,知利別郵便局前,721_01,知利別郵便局前
722_01,知利別会館前,722_01,知利別会館前
722_02,知利別会館前,722_01,知利別会館前
723_01,天神町,723_01,天神町
723_02,天神町,723_01,天神町
724_01,清滝不動尊前,724_01,清滝不動尊前
724_02,清滝不動尊前,724_01,清滝不動尊前
725_01,変電所前,725_01,変電所前
725_02,変電所前,725_01,変電所前
726_01,水元団地,726_01,水元団地
726_02,水元団地,726_01,水元団地
730_01,中島町１丁目,730_01,中島町１丁目
730_02,中島町１丁目,730_01,中島町１丁目
731_01,仲通,731_01,仲通
731_02,仲通,731_01,仲通
731_03,仲通,731_01,仲通
731_04,仲通,731_01,仲通
741_01,八丁平入口,741_01,八丁平入口
741_02,八丁平入口,741_01,八丁平入口
742_01,八丁平中央,742_01,八丁平中央
742_02,八丁平中央,742_01,八丁平中央
751_01,八丁平１丁目,751_01,八丁平１丁目
752_01,南公園前,752_01,南公園前
752_02,南公園前,752_01,南公園前
753_01,八丁平５丁目,753_01,八丁平５丁目
754_02,八丁平１丁目,751_01,八丁平１丁目
755_01,展望台入口,755_01,展望台入口
756_01,ケアーハウス前,756_01,ケアーハウス前
761_01,１号公園入口,761_01,１号公園入口
761_02,１号公園入口,761_01,１号公園入口
762_01,３号通,762_01,３号通
762_02,３号通,762_01,３号通
763_01,八丁平４丁目,763_01,八丁平４丁目
763_02,八丁平４丁目,763_01,八丁平４丁目
764_01,大谷高校前,764_01,大谷高校前
764_02,大谷高校前,764_01,大谷高校前
765_01,室蘭養護学校前,765_01,室蘭養護学校前
771_01,中島新町,771_01,中島新町
771_02,中島新町,771_01,中島新町
781_01,中島入口,781_01,中島入口
781_02,中島入口,781_01,中島入口
781_03,中島入口,781_01,中島入口
791_01,高平町,791_01,高平町
791_02,高平町,791_01,高平町
792_01,南高平,792_01,南高平
792_02,南高平,792_01,南高平
811_01,港北町入口,811_01,港北町入口
811_02,港北町入口,811_01,港北町入口
811_03,港北町入口,811_01,港北町入口
821_01,港北町３丁目,821_01,港北町３丁目
821_02,港北町３丁目,821_01,港北町３丁目
822_01,蘭北小学校前,822_01,蘭北小学校前
822_02,蘭北小学校前,822_01,蘭北小学校前
823_01,港北町４丁目,823_01,港北町４丁目
823_02,港北町４丁目,823_01,港北町４丁目
824_01,港北町中央,824_01,港北町中央
824_02,港北町中央,824_01,港北町中央
826_01,港北町５丁目,826_01,港北町５丁目
826_02,港北町５丁目,826_01,港北町５丁目
828_01,八丁平西,828_01,八丁平西
828_02,八丁平西,828_01,八丁平西
831_01,港北町１丁目,831_01,港北町１丁目
831_02,港北町１丁目,831_01,港北町１丁目
841_01,見晴通,841_01,見晴通
841_02,見晴通,841_01,見晴通
842_01,鶯団地入口,842_01,鶯団地入口
842_02,鶯団地入口,842_01,鶯団地入口
843_01,中学校入口,843_01,中学校入口
843_02,中学校入口,843_01,中学校入口
844_01,蘭北団地,844_01,蘭北団地
844_02,蘭北団地,844_01,蘭北団地
845_01,柏木町,845_01,柏木町
845_02,柏木町,845_01,柏木町
846_01,柏木,846_01,柏木
846_32,柏木,846_01,柏木
851_01,春雨橋,851_01,春雨橋
851_02,春雨橋,851_01,春雨橋
851_03,春雨橋,851_01,春雨橋
861_01,伊能橋,861_01,伊能橋
861_02,伊能橋,861_01,伊能橋
862_01,栗林公園前,862_01,栗林公園前
862_02,栗林公園前,862_01,栗林公園前
863_01,紅葉橋,863_01,紅葉橋
863_02,紅葉橋,863_01,紅葉橋
864_01,すずかけ団地,864_01,すずかけ団地
864_02,すずかけ団地,864_01,すずかけ団地
865_01,すずかけ地蔵尊,865_01,すずかけ地蔵尊
865_02,すずかけ地蔵尊,865_01,すずかけ地蔵尊
871_01,ニュータウン入口,871_01,ニュータウン入口
871_02,ニュータウン入口,871_01,ニュータウン入口
872_01,すずかけニュータウン,872_01,すずかけニュータウン
872_32,すずかけニュータウン,872_01,すずかけニュータウン
881_01,香川入口,881_01,香川入口
882_01,香川神社前,882_01,香川神社前
883_01,香川町,883_01,香川町
884_01,浄水場前,884_01,浄水場前
891_01,本輪西２丁目,891_01,本輪西２丁目
891_02,本輪西２丁目,891_01,本輪西２丁目
901_01,本輪西駅前,901_01,本輪西駅前
901_02,本輪西駅前,901_01,本輪西駅前
911_01,幌萌町,911_01,幌萌町
911_02,幌萌町,911_01,幌萌町
912_01,ENEOS室蘭事業所前,912_01,ENEOS室蘭事業所前
912_02,ENEOS室蘭事業所前,912_01,ENEOS室蘭事業所前
921_01,陣屋,921_01,陣屋
921_02,陣屋,921_01,陣屋
1743_10,保健所前,1743_10,保健所前
1743_11,保健所前,1743_10,保健所前
1493_10,新冠温泉レコードの湯,1493_10,新冠温泉レコードの湯
2507_10,穂別緑ヶ丘団地前,2507_10,穂別緑ヶ丘団地前
941_01,西陣屋,941_01,西陣屋
941_02,西陣屋,941_01,西陣屋
942_01,崎守町,942_01,崎守町
942_02,崎守町,942_01,崎守町
943_01,白鳥台２丁目,943_01,白鳥台２丁目
943_02,白鳥台２丁目,943_01,白鳥台２丁目
944_01,白鳥台５丁目,944_01,白鳥台５丁目
944_02,白鳥台５丁目,944_01,白鳥台５丁目
945_01,白鳥台４丁目,945_01,白鳥台４丁目
945_02,白鳥台４丁目,945_01,白鳥台４丁目
946_01,雇用促進住宅入口,946_01,雇用促進住宅入口
946_02,雇用促進住宅入口,946_01,雇用促進住宅入口
951_01,北公園前,951_01,北公園前
951_02,北公園前,951_01,北公園前
961_01,白鳥台中央,961_01,白鳥台中央
962_02,市役所入口,962_02,市役所入口
962_03,市役所入口,962_02,市役所入口
971_01,中嶋神社前,971_01,中嶋神社前
971_02,中嶋神社前,971_01,中嶋神社前
981_01,中央町１丁目,981_01,中央町１丁目
981_02,中央町１丁目,981_01,中央町１丁目
982_01,白鳥台入口,982_01,白鳥台入口
982_02,白鳥台入口,982_01,白鳥台入口
983_01,幡守神社入口,983_01,幡守神社入口
983_02,幡守神社入口,983_01,幡守神社入口
984_01,石川町,984_01,石川町
984_02,石川町,984_01,石川町
990_01,みたら・水族館前,990_01,みたら・水族館前
990_02,みたら・水族館前,990_01,みたら・水族館前
991_01,エンルムマリーナ前,991_01,エンルムマリーナ前
1011_10,黄金,1011_10,黄金
1011_11,黄金,1011_10,黄金
1012_10,黄金神社,1012_10,黄金神社
1012_11,黄金神社,1012_10,黄金神社
1013_10,北黄金貝塚公園前,1013_10,北黄金貝塚公園前
1013_11,北黄金貝塚公園前,1013_10,北黄金貝塚公園前
1014_10,大谷地,1014_10,大谷地
1014_11,大谷地,1014_10,大谷地
1015_10,達南,1015_10,達南
1015_11,達南,1015_10,達南
1021_10,伊達緑丘高校前,1021_10,伊達緑丘高校前
1021_11,伊達緑丘高校前,1021_10,伊達緑丘高校前
1022_10,みどり団地,1022_10,みどり団地
1022_11,みどり団地,1022_10,みどり団地
1023_10,西８号,1023_10,西８号
1024_10,出雲,1024_10,出雲
1025_10,みどり会館入口,1025_10,みどり会館入口
1025_11,みどり会館入口,1025_10,みどり会館入口
1028_10,上稀府,1028_10,上稀府
1031_10,南稀府,1031_10,南稀府
1031_11,南稀府,1031_10,南稀府
1031_12,南稀府,1031_10,南稀府
1031_13,南稀府,1031_10,南稀府
1033_10,寒別発電所口,1033_10,寒別発電所口
1033_11,寒別発電所口,1033_10,寒別発電所口
1041_10,稀府学校前,1041_10,稀府学校前
1041_12,稀府学校前,1041_10,稀府学校前
1043_11,すすきの,1043_11,すすきの
1043_32,すすきの,1043_11,すすきの
1051_10,中稀府,1051_10,中稀府
1051_11,中稀府,1051_10,中稀府
1052_10,北稀府,1052_10,北稀府
1052_11,北稀府,1052_10,北稀府
1053_10,萩原,1053_10,萩原
1053_11,萩原,1053_10,萩原
1054_10,あさひが丘,1054_10,あさひが丘
1054_11,あさひが丘,1054_10,あさひが丘
1055_10,舟岡,1055_10,舟岡
1055_11,舟岡,1055_10,舟岡
1055_32,舟岡,1055_10,舟岡
1056_10,伊達営業所前,1056_10,伊達営業所前
1056_11,伊達営業所前,1056_10,伊達営業所前
1057_10,開拓記念館前,1057_10,開拓記念館前
1057_11,開拓記念館前,1057_10,開拓記念館前
1058_10,カルチャーセンターあけぼの前,1058_10,カルチャーセンターあけぼの前
1058_11,カルチャーセンターあけぼの前,1058_10,カルチャーセンターあけぼの前
1061_10,伊達警察署前,1061_10,伊達警察署前
1061_11,伊達警察署前,1061_10,伊達警察署前
1064_10,平取病院前,1064_10,平取病院前
1064_11,平取病院前,1064_10,平取病院前
1065_10,平取神社前,1065_10,平取神社前
1065_11,平取神社前,1065_10,平取神社前
1071_10,伊達網代町,1071_10,伊達網代町
1071_11,伊達網代町,1071_10,伊達網代町
1081_10,伊達市役所前,1081_10,伊達市役所前
1081_11,伊達市役所前,1081_10,伊達市役所前
1083_10,西一線,1083_10,西一線
1083_11,西一線,1083_10,西一線
1084_10,西一線第一,1084_10,西一線第一
1084_11,西一線第一,1084_10,西一線第一
1085_10,日高,1085_10,日高
1085_11,日高,1085_10,日高
1086_10,日高ターミナル,1086_10,日高ターミナル
1091_10,日赤前,1091_10,日赤前
1091_11,日赤前,1091_10,日赤前
1091_12,日赤前,1091_10,日赤前
1091_13,日赤前,1091_10,日赤前
1101_10,大町,1101_10,大町
1101_11,大町,1101_10,大町
1111_10,伊達山下町,1111_10,伊達山下町
1111_11,伊達山下町,1111_10,伊達山下町
1114_10,三石温泉,1114_10,三石温泉
1121_10,伊達駅通,1121_10,伊達駅通
1121_11,伊達駅通,1121_10,伊達駅通
1122_10,浜荻伏公住前,1122_10,浜荻伏公住前
1122_11,浜荻伏公住前,1122_10,浜荻伏公住前
1123_10,荻伏築港,1123_10,荻伏築港
1123_11,荻伏築港,1123_10,荻伏築港
1124_10,浜荻伏,1124_10,浜荻伏
1124_11,浜荻伏,1124_10,浜荻伏
1125_10,荻伏市街,1125_10,荻伏市街
1125_11,荻伏市街,1125_10,荻伏市街
1126_10,共栄,1126_10,共栄
1126_11,共栄,1126_10,共栄
1127_10,東栄,1127_10,東栄
1127_11,東栄,1127_10,東栄
1128_10,絵笛,1128_10,絵笛
1128_11,絵笛,1128_10,絵笛
1129_10,井寒台,1129_10,井寒台
1129_11,井寒台,1129_10,井寒台
1131_10,伊達駅前,1131_10,伊達駅前
1132_10,東井寒台,1132_10,東井寒台
1132_11,東井寒台,1132_10,東井寒台
1133_10,井寒台入口,1133_10,井寒台入口
1133_11,井寒台入口,1133_10,井寒台入口
1134_10,浦河森林公園,1134_10,浦河森林公園
1134_11,浦河森林公園,1134_10,浦河森林公園
1135_10,堺町西１丁目,1135_10,堺町西１丁目
1135_11,堺町西１丁目,1135_10,堺町西１丁目
1136_10,堺町,1136_10,堺町
1136_11,堺町,1136_10,堺町
1137_10,日高振興局前,1137_10,日高振興局前
1137_11,日高振興局前,1137_10,日高振興局前
1138_10,浦河町役場,1138_10,浦河町役場
1138_11,浦河町役場,1138_10,浦河町役場
1141_10,道営住宅前,1141_10,道営住宅前
1141_11,道営住宅前,1141_10,道営住宅前
1142_10,山下団地中央,1142_10,山下団地中央
1142_11,山下団地中央,1142_10,山下団地中央
1151_10,山下団地,1151_10,山下団地
1151_11,山下団地,1151_10,山下団地
1152_10,長和小学校前,1152_10,長和小学校前
1152_11,長和小学校前,1152_10,長和小学校前
1161_10,長和,1161_10,長和
1161_11,長和,1161_10,長和
1171_10,月光橋,1171_10,月光橋
1171_11,月光橋,1171_10,月光橋
1172_10,中長和,1172_10,中長和
1172_11,中長和,1172_10,中長和
1173_10,上長和,1173_10,上長和
1173_11,上長和,1173_10,上長和
1174_10,上長和休憩所入口,1174_10,上長和休憩所入口
1174_11,上長和休憩所入口,1174_10,上長和休憩所入口
1175_10,村界,1175_10,村界
1175_11,村界,1175_10,村界
1181_10,北の湖記念館前,1181_10,北の湖記念館前
1181_11,北の湖記念館前,1181_10,北の湖記念館前
1182_10,紫明苑通,1182_10,紫明苑通
1182_11,紫明苑通,1182_10,紫明苑通
1183_10,壮瞥役場前,1183_10,壮瞥役場前
1191_11,滝の町,1191_11,滝の町
1191_12,滝の町,1191_11,滝の町
1191_13,滝の町,1191_11,滝の町
1191_14,滝の町,1191_11,滝の町
1201_10,農協前,1201_10,農協前
1201_11,農協前,1201_10,農協前
1202_10,壮栄寺前,1202_10,壮栄寺前
1202_11,壮栄寺前,1202_10,壮栄寺前
1203_10,阿波国,1203_10,阿波国
1203_11,阿波国,1203_10,阿波国
1204_10,下久保内,1204_10,下久保内
1204_11,下久保内,1204_10,下久保内
1205_10,厚賀橋,1205_10,厚賀橋
1205_11,厚賀橋,1205_10,厚賀橋
1211_10,久保内,1211_10,久保内
1211_11,久保内,1211_10,久保内
1213_10,大狩部第二,1213_10,大狩部第二
1213_11,大狩部第二,1213_10,大狩部第二
1214_10,大狩部,1214_10,大狩部
1214_11,大狩部,1214_10,大狩部
1215_10,トド岩高原,1215_10,トド岩高原
1215_11,トド岩高原,1215_10,トド岩高原
1216_10,大節婦,1216_10,大節婦
1216_11,大節婦,1216_10,大節婦
1231_10,神社前,1231_10,神社前
1231_11,神社前,1231_10,神社前
1232_10,上久保内,1232_10,上久保内
1232_11,上久保内,1232_10,上久保内
1233_10,コンピラ前,1233_10,コンピラ前
1233_11,コンピラ前,1233_10,コンピラ前
1234_10,蟠渓,1234_10,蟠渓
1234_11,蟠渓,1234_10,蟠渓
1235_10,蟠渓温泉,1235_10,蟠渓温泉
1235_11,蟠渓温泉,1235_10,蟠渓温泉
1242_10,温泉入口,1242_10,温泉入口
1242_11,温泉入口,1242_10,温泉入口
1243_10,北湯沢温泉,1243_10,北湯沢温泉
1243_11,北湯沢温泉,1243_10,北湯沢温泉
1244_10,大滝セミナー前,1244_10,大滝セミナー前
1244_11,大滝セミナー前,1244_10,大滝セミナー前
1245_10,北湯沢温泉いやしの郷前,1245_10,北湯沢温泉いやしの郷前
1245_11,北湯沢温泉いやしの郷前,1245_10,北湯沢温泉いやしの郷前
1246_10,優徳,1246_10,優徳
1246_11,優徳,1246_10,優徳
1247_10,大滝徳舜別学校,1247_10,大滝徳舜別学校
1247_11,大滝徳舜別学校,1247_10,大滝徳舜別学校
1248_10,白絹の床,1248_10,白絹の床
1248_11,白絹の床,1248_10,白絹の床
1251_10,大成橋,1251_10,大成橋
1251_11,大成橋,1251_10,大成橋
1252_10,本郷集会所前,1252_10,本郷集会所前
1252_11,本郷集会所前,1252_10,本郷集会所前
1253_10,鉄徳橋,1253_10,鉄徳橋
1253_11,鉄徳橋,1253_10,鉄徳橋
1254_10,集落センター前,1254_10,集落センター前
1254_11,集落センター前,1254_10,集落センター前
1255_10,大滝,1255_10,大滝
1256_10,本町中央,1256_10,本町中央
1256_11,本町中央,1256_10,本町中央
1257_10,本町東団地,1257_10,本町東団地
1257_11,本町東団地,1257_10,本町東団地
1258_10,三階滝入口,1258_10,三階滝入口
1258_11,三階滝入口,1258_10,三階滝入口
1261_10,西長和,1261_10,西長和
1261_11,西長和,1261_10,西長和
1262_10,若生,1262_10,若生
1262_11,若生,1262_10,若生
1263_10,まなびの里公園前,1263_10,まなびの里公園前
1263_11,まなびの里公園前,1263_10,まなびの里公園前
1264_10,有珠駅前,1264_10,有珠駅前
1264_11,有珠駅前,1264_10,有珠駅前
1271_10,地蔵通,1271_10,地蔵通
1271_11,地蔵通,1271_10,地蔵通
1274_10,節婦,1274_10,節婦
1274_11,節婦,1274_10,節婦
1275_10,節婦第二,1275_10,節婦第二
1275_11,節婦第二,1275_10,節婦第二
1284_10,東節婦,1284_10,東節婦
1284_11,東節婦,1284_10,東節婦
1285_10,新冠森林公園前,1285_10,新冠森林公園前
1285_11,新冠森林公園前,1285_10,新冠森林公園前
1286_10,新冠本町,1286_10,新冠本町
1286_11,新冠本町,1286_10,新冠本町
1294_10,高江,1294_10,高江
1294_11,高江,1294_10,高江
1301_10,善光寺入口,1301_10,善光寺入口
1301_11,善光寺入口,1301_10,善光寺入口
1302_10,自然公園入口,1302_10,自然公園入口
1302_11,自然公園入口,1302_10,自然公園入口
1311_10,北工前,1311_10,北工前
1311_11,北工前,1311_10,北工前
1312_10,北入江,1312_10,北入江
1312_11,北入江,1312_10,北入江
1313_10,板谷川,1313_10,板谷川
1313_11,板谷川,1313_10,板谷川
1321_10,入江,1321_10,入江
1321_11,入江,1321_10,入江
1331_10,高砂広場,1331_10,高砂広場
1331_11,高砂広場,1331_10,高砂広場
1332_10,赤川橋,1332_10,赤川橋
1332_11,赤川橋,1332_10,赤川橋
1333_10,洞爺駅前,1333_10,洞爺駅前
1350_10,協会病院前,1350_10,協会病院前
1352_10,虻田高校前,1352_10,虻田高校前
1352_11,虻田高校前,1352_10,虻田高校前
1353_10,給食センター前,1353_10,給食センター前
1353_11,給食センター前,1353_10,給食センター前
1355_10,噴火口入口,1355_10,噴火口入口
1355_11,噴火口入口,1355_10,噴火口入口
1356_10,栄町,1356_10,栄町
1356_11,栄町,1356_10,栄町
1357_10,役場前,1357_10,役場前
1357_11,役場前,1357_10,役場前
1358_10,西山遊歩道,1358_10,西山遊歩道
1359_10,洞爺月浦温泉ポロモイ,1359_10,洞爺月浦温泉ポロモイ
1371_10,洞爺湖温泉,1371_10,洞爺湖温泉
1371_11,洞爺湖温泉,1371_10,洞爺湖温泉
1371_32,洞爺湖温泉,1371_10,洞爺湖温泉
1381_10,桜町,1381_10,桜町
1381_11,桜町,1381_10,桜町
1382_10,中央通,1382_10,中央通
1382_11,中央通,1382_10,中央通
1383_10,元町,1383_10,元町
1383_11,元町,1383_10,元町
1391_10,東町,1391_10,東町
1391_11,東町,1391_10,東町
1392_10,西湖畔,1392_10,西湖畔
1392_11,西湖畔,1392_10,西湖畔
1393_10,壮瞥団地,1393_10,壮瞥団地
1393_11,壮瞥団地,1393_10,壮瞥団地
1394_10,東丸山,1394_10,東丸山
1394_11,東丸山,1394_10,東丸山
1395_10,壮瞥温泉,1395_10,壮瞥温泉
1395_11,壮瞥温泉,1395_10,壮瞥温泉
1401_10,ユースホステル前,1401_10,ユースホステル前
1401_11,ユースホステル前,1401_10,ユースホステル前
1421_10,滝の上,1421_10,滝の上
1421_11,滝の上,1421_10,滝の上
1421_12,滝の上,1421_10,滝の上
1421_13,滝の上,1421_10,滝の上
1431_10,放水口,1431_10,放水口
1431_11,放水口,1431_10,放水口
1432_10,妙見社前,1432_10,妙見社前
1432_11,妙見社前,1432_10,妙見社前
1433_10,東湖畔第二,1433_10,東湖畔第二
1433_11,東湖畔第二,1433_10,東湖畔第二
1434_10,洞爺発電所前,1434_10,洞爺発電所前
1434_11,洞爺発電所前,1434_10,洞爺発電所前
1435_10,東湖畔,1435_10,東湖畔
1435_11,東湖畔,1435_10,東湖畔
1436_10,孵化場前,1436_10,孵化場前
1436_11,孵化場前,1436_10,孵化場前
1437_10,錦湾橋,1437_10,錦湾橋
1437_11,錦湾橋,1437_10,錦湾橋
1438_10,東仲洞爺,1438_10,東仲洞爺
1438_11,東仲洞爺,1438_10,東仲洞爺
1441_10,仲洞爺,1441_10,仲洞爺
1441_11,仲洞爺,1441_10,仲洞爺
1442_10,岩屋観音前,1442_10,岩屋観音前
1442_11,岩屋観音前,1442_10,岩屋観音前
1443_10,東岩屋,1443_10,東岩屋
1443_11,東岩屋,1443_10,東岩屋
1444_10,岩屋,1444_10,岩屋
1444_11,岩屋,1444_10,岩屋
1445_10,岩下橋,1445_10,岩下橋
1445_11,岩下橋,1445_10,岩下橋
1446_10,川東,1446_10,川東
1446_11,川東,1446_10,川東
1447_10,財田橋,1447_10,財田橋
1447_11,財田橋,1447_10,財田橋
1448_10,財田,1448_10,財田
1448_11,財田,1448_10,財田
1450_10,洞爺湖温泉病院,1450_10,洞爺湖温泉病院
1450_11,洞爺湖温泉病院,1450_10,洞爺湖温泉病院
1451_10,洞爺水の駅,1451_10,洞爺水の駅
1454_10,新冠診療所前,1454_10,新冠診療所前
1454_11,新冠診療所前,1454_10,新冠診療所前
1462_10,香川入口,1462_10,香川入口
1462_11,香川入口,1462_10,香川入口
1463_10,浮見堂前,1463_10,浮見堂前
1463_11,浮見堂前,1463_10,浮見堂前
1464_10,憩の家入口,1464_10,憩の家入口
1464_11,憩の家入口,1464_10,憩の家入口
1465_10,曙,1465_10,曙
1465_11,曙,1465_10,曙
1466_10,西曙,1466_10,西曙
1466_11,西曙,1466_10,西曙
1467_10,旭浦,1467_10,旭浦
1467_11,旭浦,1467_10,旭浦
1471_10,北月浦,1471_10,北月浦
1471_11,北月浦,1471_10,北月浦
1472_10,北大実験所前,1472_10,北大実験所前
1472_11,北大実験所前,1472_10,北大実験所前
1473_10,観音堂前,1473_10,観音堂前
1473_11,観音堂前,1473_10,観音堂前
1475_10,月浦,1475_10,月浦
1475_11,月浦,1475_10,月浦
1476_10,公営住宅前,1476_10,公営住宅前
1476_11,公営住宅前,1476_10,公営住宅前
1477_10,ふる里総合福祉会館前,1477_10,ふる里総合福祉会館前
1477_32,ふる里総合福祉会館前,1477_10,ふる里総合福祉会館前
1478_10,コミュニティーセンター前,1478_10,コミュニティーセンター前
1478_11,コミュニティーセンター前,1478_10,コミュニティーセンター前
1479_10,桜ヶ丘保育所,1479_10,桜ヶ丘保育所
1480_10,のぞみ団地,1480_10,のぞみ団地
1481_10,給水所,1481_10,給水所
1481_11,給水所,1481_10,給水所
1482_10,公園前,1482_10,公園前
1482_11,公園前,1482_10,公園前
1484_10,新冠,1484_10,新冠
1484_11,新冠,1484_10,新冠
1494_10,氷川神社前,1494_10,氷川神社前
1494_11,氷川神社前,1494_10,氷川神社前
1501_10,月浦入口,1501_10,月浦入口
1501_11,月浦入口,1501_10,月浦入口
1502_10,花和入口,1502_10,花和入口
1502_11,花和入口,1502_10,花和入口
1505_10,駒場,1505_10,駒場
1505_11,駒場,1505_10,駒場
1506_10,木場町,1506_10,木場町
1506_11,木場町,1506_10,木場町
1511_10,サイロ展望台,1511_10,サイロ展望台
1511_11,サイロ展望台,1511_10,サイロ展望台
1512_10,成香,1512_10,成香
1512_11,成香,1512_10,成香
1513_10,観湖台,1513_10,観湖台
1513_11,観湖台,1513_10,観湖台
1514_10,香川,1514_10,香川
1514_11,香川,1514_10,香川
1515_10,西大原,1515_10,西大原
1515_11,西大原,1515_10,西大原
1521_10,一の原,1521_10,一の原
1521_11,一の原,1521_10,一の原
1521_12,一の原,1521_10,一の原
1521_13,一の原,1521_10,一の原
1525_10,末広町,1525_10,末広町
1525_11,末広町,1525_10,末広町
1531_10,二の原,1531_10,二の原
1531_11,二の原,1531_10,二の原
1535_10,静内,1535_10,静内
1535_11,静内,1535_10,静内
1535_32,静内,1535_10,静内
1541_10,三の原,1541_10,三の原
1541_11,三の原,1541_10,三の原
1542_10,四の原,1542_10,四の原
1542_11,四の原,1542_10,四の原
1544_10,五の原,1544_10,五の原
1544_11,五の原,1544_10,五の原
1545_10,留寿都南町,1545_10,留寿都南町
1545_11,留寿都南町,1545_10,留寿都南町
1551_10,留寿都,1551_10,留寿都
1551_11,留寿都,1551_10,留寿都
1555_01,富浦,1555_01,富浦
1555_02,富浦,1555_01,富浦
1556_01,登別小学校前,1556_01,登別小学校前
1556_02,登別小学校前,1556_01,登別小学校前
1557_01,登別中学校前,1557_01,登別中学校前
1557_02,登別中学校前,1557_01,登別中学校前
1561_01,東小学校前,1561_01,東小学校前
1561_02,東小学校前,1561_01,東小学校前
1562_01,ソーダー工場前,1562_01,ソーダー工場前
1562_02,ソーダー工場前,1562_01,ソーダー工場前
1563_01,クリンクルセンター前,1563_01,クリンクルセンター前
1563_02,クリンクルセンター前,1563_01,クリンクルセンター前
1564_01,幸町２丁目,1564_01,幸町２丁目
1564_02,幸町２丁目,1564_01,幸町２丁目
1565_01,幸町４丁目,1565_01,幸町４丁目
1565_02,幸町４丁目,1565_01,幸町４丁目
1566_01,幸町３丁目,1566_01,幸町３丁目
1566_02,幸町３丁目,1566_01,幸町３丁目
1567_01,すずらん団地,1567_01,すずらん団地
1567_02,すずらん団地,1567_01,すずらん団地
1568_01,西富浦,1568_01,西富浦
1568_02,西富浦,1568_01,西富浦
1569_01,富浦駅前,1569_01,富浦駅前
1569_02,富浦駅前,1569_01,富浦駅前
1571_01,登別,1571_01,登別
1571_02,登別,1571_01,登別
1571_03,登別,1571_01,登別
1571_04,登別,1571_01,登別
1575_10,御幸町,1575_10,御幸町
1575_11,御幸町,1575_10,御幸町
1581_01,登別駅前,1581_01,登別駅前
1581_02,登別駅前,1581_01,登別駅前
1581_32,登別駅前,1581_01,登別駅前
1582_01,マリンパーク通り,1582_01,マリンパーク通り
1582_02,マリンパーク通り,1582_01,マリンパーク通り
1585_10,静内本町,1585_10,静内本町
1585_11,静内本町,1585_10,静内本町
1585_32,静内本町,1585_10,静内本町
1595_10,高校通,1595_10,高校通
1595_11,高校通,1595_10,高校通
1601_01,汐見坂,1601_01,汐見坂
1601_02,汐見坂,1601_01,汐見坂
1602_01,登別東インター入口,1602_01,登別東インター入口
1602_02,登別東インター入口,1602_01,登別東インター入口
1603_01,三愛病院登別伊達時代村前,1603_01,三愛病院登別伊達時代村前
1603_02,三愛病院登別伊達時代村前,1603_01,三愛病院登別伊達時代村前
1604_01,ユートピア牧場,1604_01,ユートピア牧場
1604_02,ユートピア牧場,1604_01,ユートピア牧場
1616_10,役場前,1616_10,役場前
1616_11,役場前,1616_10,役場前
1617_10,みゆき町６丁目,1617_10,みゆき町６丁目
1617_11,みゆき町６丁目,1617_10,みゆき町６丁目
1621_01,中登別,1621_01,中登別
1621_02,中登別,1621_01,中登別
1622_01,紅葉谷入口,1622_01,紅葉谷入口
1622_02,紅葉谷入口,1622_01,紅葉谷入口
1623_01,つつじばし,1623_01,つつじばし
1623_02,つつじばし,1623_01,つつじばし
1631_01,登別温泉,1631_01,登別温泉
1631_02,登別温泉,1631_01,登別温泉
1635_10,静内高校前,1635_10,静内高校前
1635_11,静内高校前,1635_10,静内高校前
1640_01,登別温泉中央,1640_01,登別温泉中央
1640_02,登別温泉中央,1640_01,登別温泉中央
1641_02,第一滝本前,1641_02,第一滝本前
1642_01,パークホテル前,1642_01,パークホテル前
1642_02,パークホテル前,1642_01,パークホテル前
1643_01,足湯入口,1643_01,足湯入口
1643_02,足湯入口,1643_01,足湯入口
1651_10,ポロシリ,1651_10,ポロシリ
1651_11,ポロシリ,1651_10,ポロシリ
1653_10,裁判所前,1653_10,裁判所前
1653_11,裁判所前,1653_10,裁判所前
1654_10,石井病院前,1654_10,石井病院前
1654_11,石井病院前,1654_10,石井病院前
1655_10,山手通,1655_10,山手通
1655_11,山手通,1655_10,山手通
1656_10,団地入口,1656_10,団地入口
1656_11,団地入口,1656_10,団地入口
1657_10,住宅前,1657_10,住宅前
1657_11,住宅前,1657_10,住宅前
1658_10,柏台,1658_10,柏台
1659_10,柏台中央,1659_10,柏台中央
1659_11,柏台中央,1659_10,柏台中央
1661_10,新登別,1661_10,新登別
1661_11,新登別,1661_10,新登別
1662_10,カルルス,1662_10,カルルス
1663_10,サンライバスキー場,1663_10,サンライバスキー場
1671_10,清原,1671_10,清原
1671_11,清原,1671_10,清原
1672_10,高静小学校前,1672_10,高静小学校前
1672_11,高静小学校前,1672_10,高静小学校前
1673_10,中野,1673_10,中野
1673_11,中野,1673_10,中野
1674_10,家畜センター前,1674_10,家畜センター前
1674_11,家畜センター前,1674_10,家畜センター前
1675_10,第三中学校前,1675_10,第三中学校前
1675_11,第三中学校前,1675_10,第三中学校前
1676_10,神森,1676_10,神森
1676_11,神森,1676_10,神森
1677_10,目名入口,1677_10,目名入口
1677_11,目名入口,1677_10,目名入口
1678_10,目名第一,1678_10,目名第一
1678_11,目名第一,1678_10,目名第一
1679_10,目名第二,1679_10,目名第二
1679_11,目名第二,1679_10,目名第二
1680_10,三間地先前,1680_10,三間地先前
1680_11,三間地先前,1680_10,三間地先前
1682_10,日の出,1682_10,日の出
1682_11,日の出,1682_10,日の出
1683_10,双葉,1683_10,双葉
1683_11,双葉,1683_10,双葉
1684_10,旧双葉小学校,1684_10,旧双葉小学校
1684_11,旧双葉小学校,1684_10,旧双葉小学校
1685_10,双葉学園前,1685_10,双葉学園前
1685_11,双葉学園前,1685_10,双葉学園前
1686_10,花丘入口,1686_10,花丘入口
1686_11,花丘入口,1686_10,花丘入口
1687_10,福里,1687_10,福里
1687_11,福里,1687_10,福里
1688_10,下福里,1688_10,下福里
1688_11,下福里,1688_10,下福里
1689_10,上尻別,1689_10,上尻別
1689_11,上尻別,1689_10,上尻別
1695_10,発電所下,1695_10,発電所下
1695_11,発電所下,1695_10,発電所下
1696_10,清水団地,1696_10,清水団地
1696_11,清水団地,1696_10,清水団地
1697_10,ふるさとの丘前,1697_10,ふるさとの丘前
1697_11,ふるさとの丘前,1697_10,ふるさとの丘前
1698_10,府観台,1698_10,府観台
1698_11,府観台,1698_10,府観台
1699_10,旭町,1699_10,旭町
1699_11,旭町,1699_10,旭町
1701_10,鈴川,1701_10,鈴川
1701_11,鈴川,1701_10,鈴川
1702_10,旧森林組合苗場前,1702_10,旧森林組合苗場前
1702_11,旧森林組合苗場前,1702_10,旧森林組合苗場前
1703_10,地蔵前,1703_10,地蔵前
1703_11,地蔵前,1703_10,地蔵前
1704_10,花キセンター,1704_10,花キセンター
1704_11,花キセンター,1704_10,花キセンター
1705_10,豊浦駅前,1705_10,豊浦駅前
1706_10,海岸町,1706_10,海岸町
1706_11,海岸町,1706_10,海岸町
1707_10,幸町,1707_10,幸町
1707_11,幸町,1707_10,幸町
1708_10,浜町,1708_10,浜町
1708_11,浜町,1708_10,浜町
1709_10,清水中央,1709_10,清水中央
1711_10,尻別,1711_10,尻別
1711_11,尻別,1711_10,尻別
1712_10,町民公園前,1712_10,町民公園前
1712_11,町民公園前,1712_10,町民公園前
1721_10,登川温泉,1721_10,登川温泉
1721_11,登川温泉,1721_10,登川温泉
1722_10,泉川,1722_10,泉川
1722_11,泉川,1722_10,泉川
1723_10,ルスツ高原,1723_10,ルスツ高原
1723_11,ルスツ高原,1723_10,ルスツ高原
1724_10,ルスツリゾートホテル前,1724_10,ルスツリゾートホテル前
1727_10,豊浦東雲町,1727_10,豊浦東雲町
1727_11,豊浦東雲町,1727_10,豊浦東雲町
1728_10,ふるさとドーム前,1728_10,ふるさとドーム前
1729_11,豊浦しおさい前,1729_11,豊浦しおさい前
1731_10,北町,1731_10,北町
1731_11,北町,1731_10,北町
1731_12,北町,1731_10,北町
1733_10,みなと公園,1733_10,みなと公園
1733_11,みなと公園,1733_10,みなと公園
1734_10,大通１丁目,1734_10,大通１丁目
1734_11,大通１丁目,1734_10,大通１丁目
1735_10,大通３丁目,1735_10,大通３丁目
1735_11,大通３丁目,1735_10,大通３丁目
1736_10,大通４丁目,1736_10,大通４丁目
1736_11,大通４丁目,1736_10,大通４丁目
1737_10,日赤前,1737_10,日赤前
1737_11,日赤前,1737_10,日赤前
1738_10,浦河高校前,1738_10,浦河高校前
1738_11,浦河高校前,1738_10,浦河高校前
1741_10,豊岡,1741_10,豊岡
1741_11,豊岡,1741_10,豊岡
1742_10,西豊岡,1742_10,西豊岡
1742_11,西豊岡,1742_10,西豊岡
1744_10,東町住宅前,1744_10,東町住宅前
1744_11,東町住宅前,1744_10,東町住宅前
1745_10,東町児童公園,1745_10,東町児童公園
1745_11,東町児童公園,1745_10,東町児童公園
1746_10,ちのみ団地,1746_10,ちのみ団地
1746_11,ちのみ団地,1746_10,ちのみ団地
1747_10,浦河老人ホーム前,1747_10,浦河老人ホーム前
1748_10,浦河ターミナル,1748_10,浦河ターミナル
1751_10,光,1751_10,光
1751_11,光,1751_10,光
1752_10,光集会所,1752_10,光集会所
1752_11,光集会所,1752_10,光集会所
1753_10,真狩公民館前,1753_10,真狩公民館前
1753_11,真狩公民館前,1753_10,真狩公民館前
1754_10,真狩,1754_10,真狩
1754_11,真狩,1754_10,真狩
1755_10,錦町,1755_10,錦町
1755_11,錦町,1755_10,錦町
1756_10,社,1756_10,社
1756_11,社,1756_10,社
1761_10,上社,1761_10,上社
1761_11,上社,1761_10,上社
1762_10,羊蹄自然公園入口,1762_10,羊蹄自然公園入口
1762_11,羊蹄自然公園入口,1762_10,羊蹄自然公園入口
1764_10,石割,1764_10,石割
1764_11,石割,1764_10,石割
1765_10,模範林,1765_10,模範林
1765_11,模範林,1765_10,模範林
1766_10,近藤農場前,1766_10,近藤農場前
1766_11,近藤農場前,1766_10,近藤農場前
1767_10,近藤学校前,1767_10,近藤学校前
1767_11,近藤学校前,1767_10,近藤学校前
1768_10,元町,1768_10,元町
1768_11,元町,1768_10,元町
1769_10,ニセコビュープラザ,1769_10,ニセコビュープラザ
1771_10,神社前,1771_10,神社前
1771_11,神社前,1771_10,神社前
1775_10,大門,1775_10,大門
1775_11,大門,1775_10,大門
1781_10,ニセコ本通,1781_10,ニセコ本通
1781_11,ニセコ本通,1781_10,ニセコ本通
1784_10,田原,1784_10,田原
1784_11,田原,1784_10,田原
1785_10,桜風園,1785_10,桜風園
1785_11,桜風園,1785_10,桜風園
1786_10,水門,1786_10,水門
1786_11,水門,1786_10,水門
1799_10,みゆき町２丁目,1799_10,みゆき町２丁目
1799_11,みゆき町２丁目,1799_10,みゆき町２丁目
1801_10,ニセコ役場前,1801_10,ニセコ役場前
1801_11,ニセコ役場前,1801_10,ニセコ役場前
1802_10,ニセコ高校前,1802_10,ニセコ高校前
1802_11,ニセコ高校前,1802_10,ニセコ高校前
1803_10,有島記念館前,1803_10,有島記念館前
1803_11,有島記念館前,1803_10,有島記念館前
1804_10,ニセコハイツ,1804_10,ニセコハイツ
1804_11,ニセコハイツ,1804_10,ニセコハイツ
1805_10,望羊団地,1805_10,望羊団地
1805_11,望羊団地,1805_10,望羊団地
1806_10,館山下,1806_10,館山下
1806_11,館山下,1806_10,館山下
1806_12,館山下,1806_10,館山下
1806_13,館山下,1806_10,館山下
1807_10,運動公園前,1807_10,運動公園前
1807_11,運動公園前,1807_10,運動公園前
1811_10,二号橋,1811_10,二号橋
1811_11,二号橋,1811_10,二号橋
1812_10,大曲,1812_10,大曲
1812_11,大曲,1812_10,大曲
1816_10,元舟岡,1816_10,元舟岡
1816_11,元舟岡,1816_10,元舟岡
1817_10,旭町公営住宅,1817_10,旭町公営住宅
1817_11,旭町公営住宅,1817_10,旭町公営住宅
1818_10,元町,1818_10,元町
1818_11,元町,1818_10,元町
1819_10,梅本町,1819_10,梅本町
1819_11,梅本町,1819_10,梅本町
1821_10,羊蹄登山口,1821_10,羊蹄登山口
1821_11,羊蹄登山口,1821_10,羊蹄登山口
1822_10,羊蹄旧登山口,1822_10,羊蹄旧登山口
1822_11,羊蹄旧登山口,1822_10,羊蹄旧登山口
1823_10,道栄紙業前,1823_10,道栄紙業前
1823_11,道栄紙業前,1823_10,道栄紙業前
1824_10,比羅夫北,1824_10,比羅夫北
1824_11,比羅夫北,1824_10,比羅夫北
1825_10,自動車学校,1825_10,自動車学校
1825_11,自動車学校,1825_10,自動車学校
1826_10,自衛隊正門前,1826_10,自衛隊正門前
1826_11,自衛隊正門前,1826_10,自衛隊正門前
1827_10,高砂,1827_10,高砂
1827_11,高砂,1827_10,高砂
1828_10,舟岡２号通,1828_10,舟岡２号通
1828_11,舟岡２号通,1828_10,舟岡２号通
1829_10,舟岡十字街,1829_10,舟岡十字街
1829_11,舟岡十字街,1829_10,舟岡十字街
1831_10,倶知安橋,1831_10,倶知安橋
1831_11,倶知安橋,1831_10,倶知安橋
1832_10,レルヒ公園前,1832_10,レルヒ公園前
1833_10,みらい前,1833_10,みらい前
1833_11,みらい前,1833_10,みらい前
1834_10,町立病院前,1834_10,町立病院前
1835_10,桜丘小学校,1835_10,桜丘小学校
1835_11,桜丘小学校,1835_10,桜丘小学校
1836_10,老人いこいの家,1836_10,老人いこいの家
1836_11,老人いこいの家,1836_10,老人いこいの家
1838_32,見晴公園前,1838_32,見晴公園前
1839_10,舟岡広場前,1839_10,舟岡広場前
1839_11,舟岡広場前,1839_10,舟岡広場前
1840_10,新千歳空港国際線ターミナル８６番,1840_10,新千歳空港国際線ターミナル８６番
1841_10,ひらふウェルカムセンター,1841_10,ひらふウェルカムセンター
1843_10,高静町１丁目,1843_10,高静町１丁目
1843_11,高静町１丁目,1843_10,高静町１丁目
1844_10,日高徳洲会病院,1844_10,日高徳洲会病院
1845_10,こうせい町２丁目,1845_10,こうせい町２丁目
1845_11,こうせい町２丁目,1845_10,こうせい町２丁目
1846_10,こうせい町３丁目,1846_10,こうせい町３丁目
1846_11,こうせい町３丁目,1846_10,こうせい町３丁目
1847_10,高砂町３丁目,1847_10,高砂町３丁目
1847_11,高砂町３丁目,1847_10,高砂町３丁目
1848_10,清水丘公園前,1848_10,清水丘公園前
1849_10,清水丘団地,1849_10,清水丘団地
1851_10,ひらふ十字街,1851_10,ひらふ十字街
1851_11,ひらふ十字街,1851_10,ひらふ十字街
1852_10,イオン静内店前,1852_10,イオン静内店前
1852_11,イオン静内店前,1852_10,イオン静内店前
1853_10,ヌッカ,1853_10,ヌッカ
1853_11,ヌッカ,1853_10,ヌッカ
1854_10,御園入口,1854_10,御園入口
1854_11,御園入口,1854_10,御園入口
1855_10,御園,1855_10,御園
1855_11,御園,1855_10,御園
1856_10,御園局前,1856_10,御園局前
1856_11,御園局前,1856_10,御園局前
1857_10,御園館,1857_10,御園館
1857_11,御園館,1857_10,御園館
1858_10,上御園,1858_10,上御園
1858_11,上御園,1858_10,上御園
1859_32,見晴公営住宅,1859_32,見晴公営住宅
1861_10,ミッドタウンニセコ,1861_10,ミッドタウンニセコ
1861_11,ミッドタウンニセコ,1861_10,ミッドタウンニセコ
1862_10,岩尾別会館前,1862_10,岩尾別会館前
1862_11,岩尾別会館前,1862_10,岩尾別会館前
1863_10,双子山入口,1863_10,双子山入口
1863_11,双子山入口,1863_10,双子山入口
1864_10,上御園第一,1864_10,上御園第一
1864_11,上御園第一,1864_10,上御園第一
1865_10,農屋入口,1865_10,農屋入口
1865_11,農屋入口,1865_10,農屋入口
1866_10,農屋中央,1866_10,農屋中央
1866_11,農屋中央,1866_10,農屋中央
1867_10,農屋,1867_10,農屋
1868_10,ひらふ山田,1868_10,ひらふ山田
1868_11,ひらふ山田,1868_10,ひらふ山田
1869_10,見晴団地前,1869_10,見晴団地前
1869_11,見晴団地前,1869_10,見晴団地前
1871_10,南５条,1871_10,南５条
1871_11,南５条,1871_10,南５条
1872_10,仲川医院前,1872_10,仲川医院前
1872_11,仲川医院前,1872_10,仲川医院前
1873_10,古川町,1873_10,古川町
1873_11,古川町,1873_10,古川町
1874_10,入舟町,1874_10,入舟町
1874_11,入舟町,1874_10,入舟町
1876_10,有勢内沢,1876_10,有勢内沢
1876_11,有勢内沢,1876_10,有勢内沢
1877_10,有勢内,1877_10,有勢内
1877_11,有勢内,1877_10,有勢内
1881_10,北十字街,1881_10,北十字街
1881_11,北十字街,1881_10,北十字街
1882_10,南十字街,1882_10,南十字街
1882_11,南十字街,1882_10,南十字街
1885_10,静内温泉入口,1885_10,静内温泉入口
1885_11,静内温泉入口,1885_10,静内温泉入口
1891_10,倶知安駅前,1891_10,倶知安駅前
1895_10,静内温泉,1895_10,静内温泉
1895_11,静内温泉,1895_10,静内温泉
1899_32,東小学校前,1899_32,東小学校前
1901_10,厚生病院前,1901_10,厚生病院前
1901_11,厚生病院前,1901_10,厚生病院前
1902_10,役場通,1902_10,役場通
1902_11,役場通,1902_10,役場通
1903_10,白樺団地,1903_10,白樺団地
1903_11,白樺団地,1903_10,白樺団地
1904_10,六郷,1904_10,六郷
1904_11,六郷,1904_10,六郷
1911_10,小学校入口,1911_10,小学校入口
1911_11,小学校入口,1911_10,小学校入口
1915_10,浜浦和,1915_10,浜浦和
1915_11,浜浦和,1915_10,浜浦和
1921_10,東小学校前,1921_10,東小学校前
1925_10,東静内,1925_10,東静内
1925_11,東静内,1925_10,東静内
1931_10,旧東陵中学校前,1931_10,旧東陵中学校前
1931_11,旧東陵中学校前,1931_10,旧東陵中学校前
1932_10,北２線,1932_10,北２線
1932_11,北２線,1932_10,北２線
1933_10,琴平入口,1933_10,琴平入口
1933_11,琴平入口,1933_10,琴平入口
1934_10,北４線,1934_10,北４線
1934_11,北４線,1934_10,北４線
1935_10,瑞穂,1935_10,瑞穂
1935_11,瑞穂,1935_10,瑞穂
1937_10,倶知安中学校前,1937_10,倶知安中学校前
1938_10,山田交差点,1938_10,山田交差点
1938_11,山田交差点,1938_10,山田交差点
1941_10,北６線,1941_10,北６線
1941_11,北６線,1941_10,北６線
1941_12,北６線,1941_10,北６線
1951_10,北７線,1951_10,北７線
1952_10,北９線,1952_10,北９線
1953_10,北１０線,1953_10,北１０線
1954_10,北１１線,1954_10,北１１線
1955_10,末広,1955_10,末広
1956_10,北１１線橋,1956_10,北１１線橋
1957_10,高見２,1957_10,高見２
1958_10,高見,1958_10,高見
1959_10,高見集会所,1959_10,高見集会所
1961_10,西５号,1961_10,西５号
1961_11,西５号,1961_10,西５号
1962_10,扶桑入口,1962_10,扶桑入口
1962_11,扶桑入口,1962_10,扶桑入口
1963_10,扶桑双股,1963_10,扶桑双股
1963_11,扶桑双股,1963_10,扶桑双股
1964_10,扶桑,1964_10,扶桑
1964_11,扶桑,1964_10,扶桑
1965_10,大和入口,1965_10,大和入口
1965_11,大和入口,1965_10,大和入口
1966_10,大和,1966_10,大和
1971_10,百年の森前,1971_10,百年の森前
1971_11,百年の森前,1971_10,百年の森前
1972_10,倶知安神社,1972_10,倶知安神社
1972_11,倶知安神社,1972_10,倶知安神社
1973_10,八幡,1973_10,八幡
1973_11,八幡,1973_10,八幡
1974_10,西２号,1974_10,西２号
1974_11,西２号,1974_10,西２号
1975_10,西１号,1975_10,西１号
1975_11,西１号,1975_10,西１号
1976_10,寒別零号,1976_10,寒別零号
1976_11,寒別零号,1976_10,寒別零号
1977_10,東１号,1977_10,東１号
1977_11,東１号,1977_10,東１号
1978_10,東２号,1978_10,東２号
1978_11,東２号,1978_10,東２号
1979_10,寒別,1979_10,寒別
1979_11,寒別,1979_10,寒別
1981_10,中野農場前,1981_10,中野農場前
1981_11,中野農場前,1981_10,中野農場前
1982_10,北岡,1982_10,北岡
1982_11,北岡,1982_10,北岡
1983_10,地蔵院前,1983_10,地蔵院前
1983_11,地蔵院前,1983_10,地蔵院前
1984_10,春日,1984_10,春日
1984_11,春日,1984_10,春日
1985_10,三区,1985_10,三区
1985_11,三区,1985_10,三区
1986_10,東春日,1986_10,東春日
1986_11,東春日,1986_10,東春日
1987_10,京極公民館前,1987_10,京極公民館前
1987_11,京極公民館前,1987_10,京極公民館前
1992_10,東京極,1992_10,東京極
1992_11,東京極,1992_10,東京極
1993_01,登別時代村前,1993_01,登別時代村前
1993_02,登別時代村前,1993_01,登別時代村前
1994_32,高校グランド,1994_32,高校グランド
1995_10,伊達開来高校前,1995_10,伊達開来高校前
1995_11,伊達開来高校前,1995_10,伊達開来高校前
1996_10,下竹原,1996_10,下竹原
1996_11,下竹原,1996_10,下竹原
1997_10,竹原町,1997_10,竹原町
1997_11,竹原町,1997_10,竹原町
1998_10,京極バスターミナル,1998_10,京極バスターミナル
2001_10,公営住宅前,2001_10,公営住宅前
2001_11,公営住宅前,2001_10,公営住宅前
2002_10,川上温泉,2002_10,川上温泉
2002_11,川上温泉,2002_10,川上温泉
2009_32,上末永,2009_32,上末永
2010_10,大町第二,2010_10,大町第二
2010_11,大町第二,2010_10,大町第二
2011_10,比羅岡入口,2011_10,比羅岡入口
2011_11,比羅岡入口,2011_10,比羅岡入口
2012_10,留産,2012_10,留産
2012_11,留産,2012_10,留産
2013_10,喜茂別町立クリニック,2013_10,喜茂別町立クリニック
2013_11,喜茂別町立クリニック,2013_10,喜茂別町立クリニック
2014_10,喜茂別役場前,2014_10,喜茂別役場前
2014_11,喜茂別役場前,2014_10,喜茂別役場前
2017_32,東関内,2017_32,東関内
2019_32,関内大橋,2019_32,関内大橋
2020_32,関内小学校前,2020_32,関内小学校前
2021_10,喜茂別,2021_10,喜茂別
2021_11,喜茂別,2021_10,喜茂別
2022_10,喜らめきの郷,2022_10,喜らめきの郷
2022_11,喜らめきの郷,2022_10,喜らめきの郷
2024_10,栄,2024_10,栄
2024_11,栄,2024_10,栄
2027_10,中山峠,2027_10,中山峠
2030_10,白糸の滝,2030_10,白糸の滝
2030_11,白糸の滝,2030_10,白糸の滝
2031_10,薄別,2031_10,薄別
2031_11,薄別,2031_10,薄別
2032_10,定山渓,2032_10,定山渓
2032_11,定山渓,2032_10,定山渓
2033_11,藤野３条８丁目,2033_11,藤野３条８丁目
2033_32,藤野３条８丁目,2033_11,藤野３条８丁目
2034_11,石山２条８丁目,2034_11,石山２条８丁目
2034_32,石山２条８丁目,2034_11,石山２条８丁目
2035_11,藻南公園,2035_11,藻南公園
2035_32,藻南公園,2035_11,藻南公園
2036_11,藻岩高校,2036_11,藻岩高校
2036_32,藻岩高校,2036_11,藻岩高校
2037_11,藻岩橋,2037_11,藻岩橋
2037_32,藻岩橋,2037_11,藻岩橋
2038_11,南２２条西１１丁目,2038_11,南２２条西１１丁目
2038_32,南２２条西１１丁目,2038_11,南２２条西１１丁目
2039_11,南７条西１１丁目,2039_11,南７条西１１丁目
2039_32,南７条西１１丁目,2039_11,南７条西１１丁目
2040_11,真駒内駅,2040_11,真駒内駅
2040_32,真駒内駅,2040_11,真駒内駅
2041_32,南３条,2041_32,南３条
2042_11,南１条,2042_11,南１条
2042_32,南１条,2042_11,南１条
2043_10,札幌駅前,2043_10,札幌駅前
2043_32,札幌駅前,2043_10,札幌駅前
2044_11,藤野３条２丁目,2044_11,藤野３条２丁目
2044_32,藤野３条２丁目,2044_11,藤野３条２丁目
2046_10,中末永町,2046_10,中末永町
2046_11,中末永町,2046_10,中末永町
2047_10,末永変電所前,2047_10,末永変電所前
2047_11,末永変電所前,2047_10,末永変電所前
2050_32,山本団地,2050_32,山本団地
2051_10,伊達市総合体育館前,2051_10,伊達市総合体育館前
2051_11,伊達市総合体育館前,2051_10,伊達市総合体育館前
2052_10,松ヶ枝,2052_10,松ヶ枝
2052_11,松ヶ枝,2052_10,松ヶ枝
2053_10,東静内市街,2053_10,東静内市街
2053_11,東静内市街,2053_10,東静内市街
2054_10,船入澗入口,2054_10,船入澗入口
2054_11,船入澗入口,2054_10,船入澗入口
2055_10,あさり浜,2055_10,あさり浜
2055_11,あさり浜,2055_10,あさり浜
2056_10,おこつ内,2056_10,おこつ内
2056_11,おこつ内,2056_10,おこつ内
2057_10,元静内,2057_10,元静内
2057_11,元静内,2057_10,元静内
2058_10,春立入口,2058_10,春立入口
2058_11,春立入口,2058_10,春立入口
2059_10,末永町,2059_10,末永町
2059_11,末永町,2059_10,末永町
2064_10,春立築港,2064_10,春立築港
2064_11,春立築港,2064_10,春立築港
2065_10,春立四区,2065_10,春立四区
2065_11,春立四区,2065_10,春立四区
2066_10,春立,2066_10,春立
2066_11,春立,2066_10,春立
2069_10,日赤入口,2069_10,日赤入口
2069_11,日赤入口,2069_10,日赤入口
2074_10,東別入口,2074_10,東別入口
2074_11,東別入口,2074_10,東別入口
2075_10,えいしん荘,2075_10,えいしん荘
2075_11,えいしん荘,2075_10,えいしん荘
2084_10,三石越海町,2084_10,三石越海町
2084_11,三石越海町,2084_10,三石越海町
2085_10,三石港町,2085_10,三石港町
2085_11,三石港町,2085_10,三石港町
2086_10,三石築港,2086_10,三石築港
2086_11,三石築港,2086_10,三石築港
2087_10,三石第三,2087_10,三石第三
2087_11,三石第三,2087_10,三石第三
2088_10,三石総合町民センター,2088_10,三石総合町民センター
2088_11,三石総合町民センター,2088_10,三石総合町民センター
2090_10,樺山北,2090_10,樺山北
2090_11,樺山北,2090_10,樺山北
2091_10,樺山小学校前,2091_10,樺山小学校前
2091_11,樺山小学校前,2091_10,樺山小学校前
2094_10,日高三石,2094_10,日高三石
2094_11,日高三石,2094_10,日高三石
2095_10,東蓬莱町,2095_10,東蓬莱町
2095_11,東蓬莱町,2095_10,東蓬莱町
2096_10,西浦里,2096_10,西浦里
2096_11,西浦里,2096_10,西浦里
2097_10,ケリ舞,2097_10,ケリ舞
2097_11,ケリ舞,2097_10,ケリ舞
2100_10,浜竹浦,2100_10,浜竹浦
2100_11,浜竹浦,2100_10,浜竹浦
2101_10,臨海温泉,2101_10,臨海温泉
2101_11,臨海温泉,2101_10,臨海温泉
2102_10,虎杖浜,2102_10,虎杖浜
2102_11,虎杖浜,2102_10,虎杖浜
2103_10,虎杖浜駅前,2103_10,虎杖浜駅前
2103_11,虎杖浜駅前,2103_10,虎杖浜駅前
2104_10,虎杖浜公民館前,2104_10,虎杖浜公民館前
2104_11,虎杖浜公民館前,2104_10,虎杖浜公民館前
2105_10,東虎杖浜,2105_10,東虎杖浜
2105_11,東虎杖浜,2105_10,東虎杖浜
2106_10,虎杖浜温泉,2106_10,虎杖浜温泉
2106_11,虎杖浜温泉,2106_10,虎杖浜温泉
2107_10,西竹浦,2107_10,西竹浦
2107_11,西竹浦,2107_10,西竹浦
2108_10,竹浦温泉,2108_10,竹浦温泉
2108_11,竹浦温泉,2108_10,竹浦温泉
2109_10,ケアハウス入口,2109_10,ケアハウス入口
2109_11,ケアハウス入口,2109_10,ケアハウス入口
2111_10,竹浦,2111_10,竹浦
2111_11,竹浦,2111_10,竹浦
2112_10,東竹浦,2112_10,東竹浦
2112_11,東竹浦,2112_10,東竹浦
2113_10,北吉原,2113_10,北吉原
2113_11,北吉原,2113_10,北吉原
2114_10,日本製紙前,2114_10,日本製紙前
2114_11,日本製紙前,2114_10,日本製紙前
2115_10,西萩野,2115_10,西萩野
2115_11,西萩野,2115_10,西萩野
2121_10,旭公住前,2121_10,旭公住前
2121_11,旭公住前,2121_10,旭公住前
2122_10,緑泉郷一区,2122_10,緑泉郷一区
2122_11,緑泉郷一区,2122_10,緑泉郷一区
2123_10,あけぼの団地,2123_10,あけぼの団地
2123_11,あけぼの団地,2123_10,あけぼの団地
2124_10,緑町,2124_10,緑町
2124_11,緑町,2124_10,緑町
2125_10,緑泉郷,2125_10,緑泉郷
2131_10,萩野,2131_10,萩野
2131_11,萩野,2131_10,萩野
2132_10,東萩野,2132_10,東萩野
2132_11,東萩野,2132_10,東萩野
2133_10,白老港前,2133_10,白老港前
2133_11,白老港前,2133_10,白老港前
2134_10,第二石山,2134_10,第二石山
2134_11,第二石山,2134_10,第二石山
2135_10,白老高砂町,2135_10,白老高砂町
2135_11,白老高砂町,2135_10,白老高砂町
2136_10,白老役場前,2136_10,白老役場前
2136_11,白老役場前,2136_10,白老役場前
2137_10,白老駅前,2137_10,白老駅前
2141_10,白老コタン前,2141_10,白老コタン前
2141_11,白老コタン前,2141_10,白老コタン前
2142_10,白老東高校前,2142_10,白老東高校前
2142_11,白老東高校前,2142_10,白老東高校前
2143_10,東白老,2143_10,東白老
2143_11,東白老,2143_10,東白老
2144_10,ヨコスト,2144_10,ヨコスト
2144_11,ヨコスト,2144_10,ヨコスト
2145_10,社台中央,2145_10,社台中央
2145_11,社台中央,2145_10,社台中央
2146_10,社台,2146_10,社台
2146_11,社台,2146_10,社台
2147_10,樽前入口,2147_10,樽前入口
2147_11,樽前入口,2147_10,樽前入口
2164_10,本桐入口,2164_10,本桐入口
2164_11,本桐入口,2164_10,本桐入口
2182_01,苫小牧駅前,2182_01,苫小牧駅前
2182_02,苫小牧駅前,2182_01,苫小牧駅前
2182_03,苫小牧駅前,2182_01,苫小牧駅前
2182_04,苫小牧駅前,2182_01,苫小牧駅前
2182_32,苫小牧駅前,2182_01,苫小牧駅前
2200_03,イオンモール苫小牧,2200_03,イオンモール苫小牧
2271_10,いすゞ北門,2271_10,いすゞ北門
2271_11,いすゞ北門,2271_10,いすゞ北門
2272_10,柏原,2272_10,柏原
2272_11,柏原,2272_10,柏原
2273_10,静川,2273_10,静川
2273_11,静川,2273_10,静川
2281_10,上厚真,2281_10,上厚真
2281_11,上厚真,2281_10,上厚真
2282_10,浜厚真,2282_10,浜厚真
2282_11,浜厚真,2282_10,浜厚真
2291_10,東浜厚真,2291_10,東浜厚真
2291_11,東浜厚真,2291_10,東浜厚真
2292_10,清住,2292_10,清住
2292_11,清住,2292_10,清住
2301_10,田浦第一,2301_10,田浦第一
2301_11,田浦第一,2301_10,田浦第一
2302_10,田浦第二,2302_10,田浦第二
2302_11,田浦第二,2302_10,田浦第二
2303_10,鵡川こがね,2303_10,鵡川こがね
2303_11,鵡川こがね,2303_10,鵡川こがね
2304_10,鵡川中学校前,2304_10,鵡川中学校前
2304_11,鵡川中学校前,2304_10,鵡川中学校前
2311_10,鵡川駅前,2311_10,鵡川駅前
2312_10,鵡川四季の館前,2312_10,鵡川四季の館前
2312_11,鵡川四季の館前,2312_10,鵡川四季の館前
2321_10,鵡川農協前,2321_10,鵡川農協前
2321_11,鵡川農協前,2321_10,鵡川農協前
2331_10,鵡川市街,2331_10,鵡川市街
2331_11,鵡川市街,2331_10,鵡川市街
2332_10,イモッペ地蔵堂前,2332_10,イモッペ地蔵堂前
2332_11,イモッペ地蔵堂前,2332_10,イモッペ地蔵堂前
2351_10,曙入口,2351_10,曙入口
2351_11,曙入口,2351_10,曙入口
2352_10,曙本村,2352_10,曙本村
2352_11,曙本村,2352_10,曙本村
2353_10,曙,2353_10,曙
2353_11,曙,2353_10,曙
2361_10,米原,2361_10,米原
2361_11,米原,2361_10,米原
2364_01,高速竹浦,2364_01,高速竹浦
2364_32,高速竹浦,2364_01,高速竹浦
2367_11,南郷１８丁目,2367_11,南郷１８丁目
2367_32,南郷１８丁目,2367_11,南郷１８丁目
2370_11,サッポロファクトリー前,2370_11,サッポロファクトリー前
2370_32,サッポロファクトリー前,2370_11,サッポロファクトリー前
2371_10,春日,2371_10,春日
2372_32,時計台前,2372_32,時計台前
2373_11,白石本通８丁目,2373_11,白石本通８丁目
2373_32,白石本通８丁目,2373_11,白石本通８丁目
2374_11,高速恵庭,2374_11,高速恵庭
2374_32,高速恵庭,2374_11,高速恵庭
2376_11,高速輪厚,2376_11,高速輪厚
2376_32,高速輪厚,2376_11,高速輪厚
2377_11,大谷地バスターミナル,2377_11,大谷地バスターミナル
2378_32,中央バス札幌ターミナル,2378_32,中央バス札幌ターミナル
2379_11,白石本通２丁目,2379_11,白石本通２丁目
2379_32,白石本通２丁目,2379_11,白石本通２丁目
2380_32,北２条西３丁目,2380_32,北２条西３丁目
2382_10,花岡,2382_10,花岡
2382_11,花岡,2382_10,花岡
2383_10,花岡一区,2383_10,花岡一区
2383_11,花岡一区,2383_10,花岡一区
2384_10,花岡二区,2384_10,花岡二区
2384_11,花岡二区,2384_10,花岡二区
2386_10,生田,2386_10,生田
2386_11,生田,2386_10,生田
2387_10,花岡東,2387_10,花岡東
2387_11,花岡東,2387_10,花岡東
2391_10,生田小学校,2391_10,生田小学校
2391_11,生田小学校,2391_10,生田小学校
2401_10,旭生橋,2401_10,旭生橋
2401_11,旭生橋,2401_10,旭生橋
2411_10,旭岡,2411_10,旭岡
2421_10,平取入口,2421_10,平取入口
2421_11,平取入口,2421_10,平取入口
2422_10,有明,2422_10,有明
2422_11,有明,2422_10,有明
2423_10,湯の沢,2423_10,湯の沢
2431_10,下仁和,2431_10,下仁和
2431_11,下仁和,2431_10,下仁和
2432_10,下仁和会館前,2432_10,下仁和会館前
2432_11,下仁和会館前,2432_10,下仁和会館前
2441_10,栄入口,2441_10,栄入口
2441_11,栄入口,2441_10,栄入口
2450_10,厚生病院前,2450_10,厚生病院前
2451_10,栄,2451_10,栄
2452_10,富川中学校前,2452_10,富川中学校前
2452_11,富川中学校前,2452_10,富川中学校前
2461_10,仁和神社前,2461_10,仁和神社前
2461_11,仁和神社前,2461_10,仁和神社前
2462_10,仁和,2462_10,仁和
2462_11,仁和,2462_10,仁和
2463_10,上仁和,2463_10,上仁和
2463_11,上仁和,2463_10,上仁和
2464_10,豊泉,2464_10,豊泉
2464_11,豊泉,2464_10,豊泉
2465_10,カッケン沢,2465_10,カッケン沢
2465_11,カッケン沢,2465_10,カッケン沢
2466_10,和泉小学校前,2466_10,和泉小学校前
2466_11,和泉小学校前,2466_10,和泉小学校前
2481_10,豊田入口,2481_10,豊田入口
2481_11,豊田入口,2481_10,豊田入口
2491_10,カイクマ,2491_10,カイクマ
2491_11,カイクマ,2491_10,カイクマ
2492_10,和泉上,2492_10,和泉上
2492_11,和泉上,2492_10,和泉上
2493_10,森林組合前,2493_10,森林組合前
2493_11,森林組合前,2493_10,森林組合前
2494_10,スポーツセンター前,2494_10,スポーツセンター前
2494_11,スポーツセンター前,2494_10,スポーツセンター前
2501_10,町民センター前,2501_10,町民センター前
2501_11,町民センター前,2501_10,町民センター前
2502_10,穂別中央,2502_10,穂別中央
2502_11,穂別中央,2502_10,穂別中央
2503_10,穂別診療所入口,2503_10,穂別診療所入口
2503_11,穂別診療所入口,2503_10,穂別診療所入口
2504_10,森林事務所前,2504_10,森林事務所前
2504_11,森林事務所前,2504_10,森林事務所前
2505_10,穂別出張所前,2505_10,穂別出張所前
2506_10,穂別小学校前,2506_10,穂別小学校前
2511_10,宮戸学校前,2511_10,宮戸学校前
2511_11,宮戸学校前,2511_10,宮戸学校前
2512_10,汐見入口,2512_10,汐見入口
2512_11,汐見入口,2512_10,汐見入口
2513_10,柏山,2513_10,柏山
2513_11,柏山,2513_10,柏山
2514_10,日胆国境,2514_10,日胆国境
2514_11,日胆国境,2514_10,日胆国境
2521_10,門別競馬場前,2521_10,門別競馬場前
2521_11,門別競馬場前,2521_10,門別競馬場前
2522_10,軽種馬トレーニングセンター前,2522_10,軽種馬トレーニングセンター前
2522_11,軽種馬トレーニングセンター前,2522_10,軽種馬トレーニングセンター前
2523_10,富川西,2523_10,富川西
2523_11,富川西,2523_10,富川西
2530_10,富川南,2530_10,富川南
2530_11,富川南,2530_10,富川南
2531_10,富川大町,2531_10,富川大町
2531_11,富川大町,2531_10,富川大町
2541_10,富川,2541_10,富川
2541_11,富川,2541_10,富川
2542_10,団地入口,2542_10,団地入口
2542_11,団地入口,2542_10,団地入口
2543_10,富川旭町,2543_10,富川旭町
2543_11,富川旭町,2543_10,富川旭町
2544_10,富川高校前,2544_10,富川高校前
2550_10,富川北,2550_10,富川北
2550_11,富川北,2550_10,富川北
2551_10,富川市街,2551_10,富川市街
2551_11,富川市街,2551_10,富川市街
2563_10,平賀,2563_10,平賀
2563_11,平賀,2563_10,平賀
2564_10,平賀中央,2564_10,平賀中央
2564_11,平賀中央,2564_10,平賀中央
2565_10,上平賀,2565_10,上平賀
2565_11,上平賀,2565_10,上平賀
2571_10,荷菜摘,2571_10,荷菜摘
2571_11,荷菜摘,2571_10,荷菜摘
2573_10,紫雲古津,2573_10,紫雲古津
2573_11,紫雲古津,2573_10,紫雲古津
2581_10,紫雲古津学校前,2581_10,紫雲古津学校前
2581_11,紫雲古津学校前,2581_10,紫雲古津学校前
2582_10,去場,2582_10,去場
2582_11,去場,2582_10,去場
2583_10,米村,2583_10,米村
2583_11,米村,2583_10,米村
2584_10,酪進,2584_10,酪進
2584_11,酪進,2584_10,酪進
2585_10,荷菜,2585_10,荷菜
2585_11,荷菜,2585_10,荷菜
2586_10,旭団地前,2586_10,旭団地前
2586_11,旭団地前,2586_10,旭団地前
2587_10,平取中学校前,2587_10,平取中学校前
2587_11,平取中学校前,2587_10,平取中学校前
2588_10,平取役場前,2588_10,平取役場前
2588_11,平取役場前,2588_10,平取役場前
2589_10,平取,2589_10,平取
2589_11,平取,2589_10,平取
2591_10,小平,2591_10,小平
2591_11,小平,2591_10,小平
2592_10,苗圃前,2592_10,苗圃前
2592_11,苗圃前,2592_10,苗圃前
2593_10,二風谷堰堤,2593_10,二風谷堰堤
2593_11,二風谷堰堤,2593_10,二風谷堰堤
2594_10,下二風谷,2594_10,下二風谷
2594_11,下二風谷,2594_10,下二風谷
2595_10,二号線,2595_10,二号線
2595_11,二号線,2595_10,二号線
2596_10,二風谷小学校前,2596_10,二風谷小学校前
2596_11,二風谷小学校前,2596_10,二風谷小学校前
2597_10,資料館前,2597_10,資料館前
2597_11,資料館前,2597_10,資料館前
2598_10,上二風谷,2598_10,上二風谷
2598_11,上二風谷,2598_10,上二風谷
2599_10,小平中央,2599_10,小平中央
2599_11,小平中央,2599_10,小平中央
2601_10,平取温泉,2601_10,平取温泉
2611_10,看々中央,2611_10,看々中央
2611_11,看々中央,2611_10,看々中央
2612_10,ペナコリ,2612_10,ペナコリ
2612_11,ペナコリ,2612_10,ペナコリ
2613_10,下荷負,2613_10,下荷負
2613_11,下荷負,2613_10,下荷負
2614_10,ペナコリ入口,2614_10,ペナコリ入口
2614_11,ペナコリ入口,2614_10,ペナコリ入口
2621_10,荷負,2621_10,荷負
2621_11,荷負,2621_10,荷負
2621_12,荷負,2621_10,荷負
2621_13,荷負,2621_10,荷負
2630_10,貫気別,2630_10,貫気別
2630_11,貫気別,2630_10,貫気別
2631_10,ポピポイ入口,2631_10,ポピポイ入口
2631_11,ポピポイ入口,2631_10,ポピポイ入口
2632_10,スケレベ,2632_10,スケレベ
2632_11,スケレベ,2632_10,スケレベ
2633_10,中荷負,2633_10,中荷負
2633_11,中荷負,2633_10,中荷負
2634_10,本村中央,2634_10,本村中央
2634_11,本村中央,2634_10,本村中央
2635_10,本村,2635_10,本村
2635_11,本村,2635_10,本村
2636_10,貫気別入口,2636_10,貫気別入口
2636_11,貫気別入口,2636_10,貫気別入口
2637_10,住宅前,2637_10,住宅前
2637_11,住宅前,2637_10,住宅前
2638_10,局前,2638_10,局前
2638_11,局前,2638_10,局前
2639_10,農協前,2639_10,農協前
2639_11,農協前,2639_10,農協前
2661_10,長知内橋,2661_10,長知内橋
2661_11,長知内橋,2661_10,長知内橋
2662_10,三間橋前,2662_10,三間橋前
2662_11,三間橋前,2662_10,三間橋前
2663_10,共同作業所前,2663_10,共同作業所前
2663_11,共同作業所前,2663_10,共同作業所前
2664_10,長知内,2664_10,長知内
2664_11,長知内,2664_10,長知内
2665_10,藤内沢,2665_10,藤内沢
2665_11,藤内沢,2665_10,藤内沢
2666_10,新幌毛志,2666_10,新幌毛志
2666_11,新幌毛志,2666_10,新幌毛志
2667_10,幌毛志,2667_10,幌毛志
2667_11,幌毛志,2667_10,幌毛志
2705_10,農協振内支所前,2705_10,農協振内支所前
2705_11,農協振内支所前,2705_10,農協振内支所前
2711_10,幌毛志中央,2711_10,幌毛志中央
2711_11,幌毛志中央,2711_10,幌毛志中央
2712_10,下振内,2712_10,下振内
2712_11,下振内,2712_10,下振内
2713_10,展望坂,2713_10,展望坂
2713_11,展望坂,2713_10,展望坂
2714_10,正願寺,2714_10,正願寺
2714_11,正願寺,2714_10,正願寺
2715_10,振内案内所,2715_10,振内案内所
2717_10,振内営林署前,2717_10,振内営林署前
2717_11,振内営林署前,2717_10,振内営林署前
2718_10,イケウリ入口,2718_10,イケウリ入口
2718_11,イケウリ入口,2718_10,イケウリ入口
2719_10,鹿鳴林道,2719_10,鹿鳴林道
2719_11,鹿鳴林道,2719_10,鹿鳴林道
2721_10,仁世宇,2721_10,仁世宇
2721_11,仁世宇,2721_10,仁世宇
2722_10,岩知志,2722_10,岩知志
2722_11,岩知志,2722_10,岩知志
2723_10,タイセン,2723_10,タイセン
2723_11,タイセン,2723_10,タイセン
2724_10,中岩知志,2724_10,中岩知志
2724_11,中岩知志,2724_10,中岩知志
2725_10,敷舎内,2725_10,敷舎内
2725_11,敷舎内,2725_10,敷舎内
2726_10,上岩知志,2726_10,上岩知志
2726_11,上岩知志,2726_10,上岩知志
2731_10,新日東,2731_10,新日東
2731_11,新日東,2731_10,新日東
2733_10,岩内ダム,2733_10,岩内ダム
2733_11,岩内ダム,2733_10,岩内ダム
2734_10,下岩内,2734_10,下岩内
2734_11,下岩内,2734_10,下岩内
2737_10,中三岩,2737_10,中三岩
2737_11,中三岩,2737_10,中三岩
2739_10,三岡橋,2739_10,三岡橋
2739_11,三岡橋,2739_10,三岡橋
2741_10,門別警察署前,2741_10,門別警察署前
2741_11,門別警察署前,2741_10,門別警察署前
2742_10,富川元町,2742_10,富川元町
2742_11,富川元町,2742_10,富川元町
2743_10,富川東,2743_10,富川東
2743_11,富川東,2743_10,富川東
2744_10,門別町民センター前,2744_10,門別町民センター前
2744_11,門別町民センター前,2744_10,門別町民センター前
2745_10,学園農場前,2745_10,学園農場前
2745_11,学園農場前,2745_10,学園農場前
2746_10,門別自然公園,2746_10,門別自然公園
2746_11,門別自然公園,2746_10,門別自然公園
2747_10,門別病院前,2747_10,門別病院前
2747_11,門別病院前,2747_10,門別病院前
2761_10,門別,2761_10,門別
2761_11,門別,2761_10,門別
2771_10,門別本町,2771_10,門別本町
2771_11,門別本町,2771_10,門別本町
2781_10,門別緑町,2781_10,門別緑町
2781_11,門別緑町,2781_10,門別緑町
2881_10,門別中学校前,2881_10,門別中学校前
2881_11,門別中学校前,2881_10,門別中学校前
2882_10,旭町,2882_10,旭町
2882_11,旭町,2882_10,旭町
2891_10,豊郷,2891_10,豊郷
2891_11,豊郷,2891_10,豊郷
2911_10,清畠橋,2911_10,清畠橋
2911_11,清畠橋,2911_10,清畠橋
2931_10,清畠,2931_10,清畠
2931_11,清畠,2931_10,清畠
2932_10,山賀張,2932_10,山賀張
2932_11,山賀張,2932_10,山賀張
2941_10,賀張,2941_10,賀張
2941_11,賀張,2941_10,賀張
2942_10,厚賀,2942_10,厚賀
2942_11,厚賀,2942_10,厚賀
2943_10,厚賀港,2943_10,厚賀港
2943_11,厚賀港,2943_10,厚賀港
2961_10,厚賀第一,2961_10,厚賀第一
2961_11,厚賀第一,2961_10,厚賀第一
2962_01,緑町３丁目,2962_01,緑町３丁目
2962_02,緑町３丁目,2962_01,緑町３丁目
3601_10,長都駅東口,3601_10,長都駅東口
3602_10,アークス前,3602_10,アークス前
3602_11,アークス前,3602_10,アークス前
3603_10,勇舞７丁目,3603_10,勇舞７丁目
3603_11,勇舞７丁目,3603_10,勇舞７丁目
3604_10,勇舞公園前,3604_10,勇舞公園前
3604_11,勇舞公園前,3604_10,勇舞公園前
3605_10,勇舞中学校前,3605_10,勇舞中学校前
3605_11,勇舞中学校前,3605_10,勇舞中学校前
3606_10,勇舞２丁目,3606_10,勇舞２丁目
3606_11,勇舞２丁目,3606_10,勇舞２丁目
3607_10,アリスこども園前,3607_10,アリスこども園前
3607_11,アリスこども園前,3607_10,アリスこども園前
3608_10,北陽高校前,3608_10,北陽高校前
3608_11,北陽高校前,3608_10,北陽高校前
3609_10,北陽３丁目,3609_10,北陽３丁目
3609_11,北陽３丁目,3609_10,北陽３丁目
3610_10,北光６丁目,3610_10,北光６丁目
3610_11,北光６丁目,3610_10,北光６丁目
3611_10,ホーマック富士店前,3611_10,ホーマック富士店前
3611_11,ホーマック富士店前,3611_10,ホーマック富士店前
3612_10,信濃４丁目,3612_10,信濃４丁目
3612_11,信濃４丁目,3612_10,信濃４丁目
3613_10,矢尾外科胃腸科前,3613_10,矢尾外科胃腸科前
3613_11,矢尾外科胃腸科前,3613_10,矢尾外科胃腸科前
3614_10,新富３丁目,3614_10,新富３丁目
3614_11,新富３丁目,3614_10,新富３丁目
3615_10,北栄２丁目,3615_10,北栄２丁目
3615_11,北栄２丁目,3615_10,北栄２丁目
3616_10,イオン千歳店前,3616_10,イオン千歳店前
3616_11,イオン千歳店前,3616_10,イオン千歳店前
3617_10,千歳駅前,3617_10,千歳駅前
3617_12,千歳駅前,3617_10,千歳駅前
3618_10,もりもと本店前,3618_10,もりもと本店前
3618_11,もりもと本店前,3618_10,もりもと本店前
3619_10,仲の橋通,3619_10,仲の橋通
3619_11,仲の橋通,3619_10,仲の橋通
3620_10,市役所前,3620_10,市役所前
3620_11,市役所前,3620_10,市役所前
3621_10,朝日町４丁目,3621_10,朝日町４丁目
3621_11,朝日町４丁目,3621_10,朝日町４丁目
3622_10,朝日町７丁目,3622_10,朝日町７丁目
3622_11,朝日町７丁目,3622_10,朝日町７丁目
3623_10,南千歳駅,3623_10,南千歳駅
3623_11,南千歳駅,3623_10,南千歳駅
3624_10,エアカーゴ前,3624_10,エアカーゴ前
3624_11,エアカーゴ前,3624_10,エアカーゴ前
3625_10,新千歳空港国内線２８番,3625_10,新千歳空港国内線２８番
3626_10,新千歳空港国内線１番,3626_10,新千歳空港国内線１番
4000_01,アイビープラザ前,4000_01,アイビープラザ前
4000_02,アイビープラザ前,4000_01,アイビープラザ前
4000_03,アイビープラザ前,4000_01,アイビープラザ前
4000_04,アイビープラザ前,4000_01,アイビープラザ前
4001_03,青葉１丁目,4001_03,青葉１丁目
4001_04,青葉１丁目,4001_03,青葉１丁目
4002_03,明野小学校,4002_03,明野小学校
4002_04,明野小学校,4002_03,明野小学校
4003_03,明野新町１丁目,4003_03,明野新町１丁目
4003_04,明野新町１丁目,4003_03,明野新町１丁目
4004_03,明野新町４丁目,4004_03,明野新町４丁目
4004_04,明野新町４丁目,4004_03,明野新町４丁目
4005_03,明野中学校,4005_03,明野中学校
4005_04,明野中学校,4005_03,明野中学校
4006_03,明野元町１丁目,4006_03,明野元町１丁目
4006_04,明野元町１丁目,4006_03,明野元町１丁目
4007_03,明野元町２丁目,4007_03,明野元町２丁目
4007_04,明野元町２丁目,4007_03,明野元町２丁目
4008_03,明野郵便局,4008_03,明野郵便局
4008_04,明野郵便局,4008_03,明野郵便局
4011_03,有明２丁目,4011_03,有明２丁目
4011_04,有明２丁目,4011_03,有明２丁目
4012_04,アルテン前,4012_04,アルテン前
4013_03,泉野小学校前,4013_03,泉野小学校前
4013_04,泉野小学校前,4013_03,泉野小学校前
4014_03,一本松,4014_03,一本松
4014_04,一本松,4014_03,一本松
4015_03,糸井駅北,4015_03,糸井駅北
4015_04,糸井駅北,4015_03,糸井駅北
4016_03,糸井駅通,4016_03,糸井駅通
4016_04,糸井駅通,4016_03,糸井駅通
4017_03,糸井駅前,4017_03,糸井駅前
4017_04,糸井駅前,4017_03,糸井駅前
4018_01,糸井神社前,4018_01,糸井神社前
4018_02,糸井神社前,4018_01,糸井神社前
4019_01,植苗駅通,4019_01,植苗駅通
4019_03,植苗駅通,4019_01,植苗駅通
4019_04,植苗駅通,4019_01,植苗駅通
4020_03,植苗小中学校通,4020_03,植苗小中学校通
4020_04,植苗小中学校通,4020_03,植苗小中学校通
4021_01,うぐいす団地前,4021_01,うぐいす団地前
4021_02,うぐいす団地前,4021_01,うぐいす団地前
4022_01,有珠の沢４丁目,4022_01,有珠の沢４丁目
4022_02,有珠の沢４丁目,4022_01,有珠の沢４丁目
4023_01,有珠の沢５丁目,4023_01,有珠の沢５丁目
4023_02,有珠の沢５丁目,4023_01,有珠の沢５丁目
4024_01,有珠の沢６丁目,4024_01,有珠の沢６丁目
4024_02,有珠の沢６丁目,4024_01,有珠の沢６丁目
4025_01,有珠の沢７丁目,4025_01,有珠の沢７丁目
4026_01,有珠の沢会館北,4026_01,有珠の沢会館北
4026_02,有珠の沢会館北,4026_01,有珠の沢会館北
4027_02,有珠の沢会館前,4027_02,有珠の沢会館前
4028_01,有珠の沢橋,4028_01,有珠の沢橋
4028_02,有珠の沢橋,4028_01,有珠の沢橋
4029_03,ウトナイ湖,4029_03,ウトナイ湖
4029_04,ウトナイ湖,4029_03,ウトナイ湖
4031_03,ウトナイ団地,4031_03,ウトナイ団地
4031_04,ウトナイ団地,4031_03,ウトナイ団地
4032_01,ウトナイ団地中央,4032_01,ウトナイ団地中央
4032_02,ウトナイ団地中央,4032_01,ウトナイ団地中央
4032_03,ウトナイ団地中央,4032_01,ウトナイ団地中央
4032_04,ウトナイ団地中央,4032_01,ウトナイ団地中央
4033_01,ウトナイ団地南,4033_01,ウトナイ団地南
4033_02,ウトナイ団地南,4033_01,ウトナイ団地南
4034_01,ウトナイ中央橋,4034_01,ウトナイ中央橋
4034_02,ウトナイ中央橋,4034_01,ウトナイ中央橋
4035_03,ウトナイ南２条通,4035_03,ウトナイ南２条通
4035_04,ウトナイ南２条通,4035_03,ウトナイ南２条通
4036_02,永福１丁目,4036_02,永福１丁目
4037_03,駅北口,4037_03,駅北口
4037_04,駅北口,4037_03,駅北口
4038_01,駅通,4038_01,駅通
4038_02,駅通,4038_01,駅通
4039_02,駅通十字街,4039_02,駅通十字街
4039_03,駅通十字街,4039_02,駅通十字街
4039_04,駅通十字街,4039_02,駅通十字街
4040_01,駅通中央,4040_01,駅通中央
4040_02,駅通中央,4040_01,駅通中央
4040_05,駅通中央,4040_01,駅通中央
4041_01,恵比須神社前,4041_01,恵比須神社前
4041_02,恵比須神社前,4041_01,恵比須神社前
4042_03,王子エンジニアリング,4042_03,王子エンジニアリング
4042_04,王子エンジニアリング,4042_03,王子エンジニアリング
4043_03,王子サーモン前,4043_03,王子サーモン前
4043_04,王子サーモン前,4043_03,王子サーモン前
4044_01,王子総合病院前,4044_01,王子総合病院前
4044_02,王子総合病院前,4044_01,王子総合病院前
4044_03,王子総合病院前,4044_01,王子総合病院前
4044_04,王子総合病院前,4044_01,王子総合病院前
4045_03,大町２丁目,4045_03,大町２丁目
4045_04,大町２丁目,4045_03,大町２丁目
4046_03,音羽１丁目,4046_03,音羽１丁目
4046_04,音羽１丁目,4046_03,音羽１丁目
4048_03,表町５丁目,4048_03,表町５丁目
4048_04,表町５丁目,4048_03,表町５丁目
4049_01,ぷらっとみなと市場前,4049_01,ぷらっとみなと市場前
4049_02,ぷらっとみなと市場前,4049_01,ぷらっとみなと市場前
4050_03,開発局北,4050_03,開発局北
4050_04,開発局北,4050_03,開発局北
4051_03,柏木４丁目,4051_03,柏木４丁目
4051_04,柏木４丁目,4051_03,柏木４丁目
4052_03,柏木５丁目,4052_03,柏木５丁目
4052_04,柏木５丁目,4052_03,柏木５丁目
4053_04,柏原西,4053_04,柏原西
4054_01,春日２丁目,4054_01,春日２丁目
4054_02,春日２丁目,4054_01,春日２丁目
4055_04,（株）苫東,4055_04,（株）苫東
4056_03,川沿１丁目,4056_03,川沿１丁目
4056_04,川沿１丁目,4056_03,川沿１丁目
4057_03,川沿２丁目,4057_03,川沿２丁目
4057_04,川沿２丁目,4057_03,川沿２丁目
4058_03,川沿３丁目,4058_03,川沿３丁目
4058_04,川沿３丁目,4058_03,川沿３丁目
4059_01,かわぞえ跨線橋,4059_01,かわぞえ跨線橋
4059_02,かわぞえ跨線橋,4059_01,かわぞえ跨線橋
4060_03,川沿体育館,4060_03,川沿体育館
4060_04,川沿体育館,4060_03,川沿体育館
4062_03,喜早眼科前,4062_03,喜早眼科前
4062_04,喜早眼科前,4062_03,喜早眼科前
4063_03,植苗,4063_03,植苗
4063_04,植苗,4063_03,植苗
4065_03,北錦岡,4065_03,北錦岡
4066_03,キテネッツ館前,4066_03,キテネッツ館前
4066_04,キテネッツ館前,4066_03,キテネッツ館前
4067_01,木場町１丁目,4067_01,木場町１丁目
4067_02,木場町１丁目,4067_01,木場町１丁目
4068_01,木場町３丁目,4068_01,木場町３丁目
4068_02,木場町３丁目,4068_01,木場町３丁目
4069_01,木場町西通,4069_01,木場町西通
4069_02,木場町西通,4069_01,木場町西通
4070_01,錦西営業所,4070_01,錦西営業所
4070_03,錦西営業所,4070_01,錦西営業所
4071_01,錦西ニュータウン入口,4071_01,錦西ニュータウン入口
4071_02,錦西ニュータウン入口,4071_01,錦西ニュータウン入口
4072_02,グリーンヒル団地,4072_02,グリーンヒル団地
4073_01,グリーンヒル団地入口,4073_01,グリーンヒル団地入口
4073_02,グリーンヒル団地入口,4073_01,グリーンヒル団地入口
4074_03,啓北２丁目,4074_03,啓北２丁目
4074_04,啓北２丁目,4074_03,啓北２丁目
4075_02,啓北中学校前,4075_02,啓北中学校前
4075_03,啓北中学校前,4075_02,啓北中学校前
4075_04,啓北中学校前,4075_02,啓北中学校前
4076_02,啓北町,4076_02,啓北町
4076_03,啓北町,4076_02,啓北町
4076_04,啓北町,4076_02,啓北町
4077_03,啓北橋,4077_03,啓北橋
4077_04,啓北橋,4077_03,啓北橋
4078_01,啓明中学校,4078_01,啓明中学校
4078_02,啓明中学校,4078_01,啓明中学校
4079_03,小糸井町,4079_03,小糸井町
4079_04,小糸井町,4079_03,小糸井町
4080_03,糸井川,4080_03,糸井川
4080_04,糸井川,4080_03,糸井川
4081_03,公園通,4081_03,公園通
4081_04,公園通,4081_03,公園通
4083_01,工業高校,4083_01,工業高校
4083_02,工業高校,4083_01,工業高校
4085_01,工業高専前,4085_01,工業高専前
4085_02,工業高専前,4085_01,工業高専前
4086_01,工業高専南,4086_01,工業高専南
4086_02,工業高専南,4086_01,工業高専南
4087_03,高専通,4087_03,高専通
4087_04,高専通,4087_03,高専通
4088_01,公団住宅前,4088_01,公団住宅前
4088_02,公団住宅前,4088_01,公団住宅前
4089_01,苫小牧営業所,4089_01,苫小牧営業所
4089_05,苫小牧営業所,4089_01,苫小牧営業所
4089_06,苫小牧営業所,4089_01,苫小牧営業所
4089_32,苫小牧営業所,4089_01,苫小牧営業所
4090_03,港北化学グループ前,4090_03,港北化学グループ前
4090_04,港北化学グループ前,4090_03,港北化学グループ前
4091_03,光洋中学校前,4091_03,光洋中学校前
4091_04,光洋中学校前,4091_03,光洋中学校前
4092_03,光洋町,4092_03,光洋町
4092_04,光洋町,4092_03,光洋町
4093_03,駒沢高校前,4093_03,駒沢高校前
4093_04,駒沢高校前,4093_03,駒沢高校前
4094_03,北洋大学,4094_03,北洋大学
4094_04,北洋大学,4094_03,北洋大学
4095_01,雇用促進住宅,4095_01,雇用促進住宅
4095_02,雇用促進住宅,4095_01,雇用促進住宅
4096_03,幸町２丁目,4096_03,幸町２丁目
4096_04,幸町２丁目,4096_03,幸町２丁目
4097_01,桜木３丁目,4097_01,桜木３丁目
4097_02,桜木３丁目,4097_01,桜木３丁目
4097_03,桜木３丁目,4097_01,桜木３丁目
4097_04,桜木３丁目,4097_01,桜木３丁目
4098_01,桜木４丁目,4098_01,桜木４丁目
4098_02,桜木４丁目,4098_01,桜木４丁目
4098_03,桜木４丁目,4098_01,桜木４丁目
4098_04,桜木４丁目,4098_01,桜木４丁目
4100_03,三光５丁目,4100_03,三光５丁目
4100_04,三光５丁目,4100_03,三光５丁目
4101_03,三条橋,4101_03,三条橋
4101_04,三条橋,4101_03,三条橋
4102_03,汐見３丁目,4102_03,汐見３丁目
4102_04,汐見３丁目,4102_03,汐見３丁目
4103_01,支笏湖通,4103_01,支笏湖通
4103_02,支笏湖通,4103_01,支笏湖通
4104_03,士幌農協前,4104_03,士幌農協前
4104_04,士幌農協前,4104_03,士幌農協前
4105_01,市役所前,4105_01,市役所前
4105_02,市役所前,4105_01,市役所前
4105_03,市役所前,4105_01,市役所前
4105_04,市役所前,4105_01,市役所前
4106_02,職訓センター通,4106_02,職訓センター通
4106_03,職訓センター通,4106_02,職訓センター通
4106_04,職訓センター通,4106_02,職訓センター通
4107_01,職訓センター前,4107_01,職訓センター前
4107_02,職訓センター前,4107_01,職訓センター前
4108_03,しらかば１丁目,4108_03,しらかば１丁目
4108_04,しらかば１丁目,4108_03,しらかば１丁目
4109_03,しらかば２丁目,4109_03,しらかば２丁目
4109_04,しらかば２丁目,4109_03,しらかば２丁目
4110_03,しらかば３丁目,4110_03,しらかば３丁目
4110_04,しらかば３丁目,4110_03,しらかば３丁目
4111_03,市立病院通,4111_03,市立病院通
4111_04,市立病院通,4111_03,市立病院通
4112_01,苫小牧市立病院前,4112_01,苫小牧市立病院前
4112_02,苫小牧市立病院前,4112_01,苫小牧市立病院前
4114_03,新開３丁目,4114_03,新開３丁目
4114_04,新開３丁目,4114_03,新開３丁目
4117_01,新富１丁目,4117_01,新富１丁目
4117_02,新富１丁目,4117_01,新富１丁目
4117_03,新富１丁目,4117_01,新富１丁目
4117_04,新富１丁目,4117_01,新富１丁目
4118_01,新富２丁目,4118_01,新富２丁目
4118_02,新富２丁目,4118_01,新富２丁目
4118_03,新富２丁目,4118_01,新富２丁目
4118_04,新富２丁目,4118_01,新富２丁目
4119_01,新明４丁目,4119_01,新明４丁目
4119_02,新明４丁目,4119_01,新明４丁目
4119_03,新明４丁目,4119_01,新明４丁目
4119_04,新明４丁目,4119_01,新明４丁目
4119_06,新明４丁目,4119_01,新明４丁目
4120_03,末広１丁目,4120_03,末広１丁目
4120_04,末広１丁目,4120_03,末広１丁目
4121_03,スケートセンター,4121_03,スケートセンター
4121_04,スケートセンター,4121_03,スケートセンター
4122_03,スケートセンター北,4122_03,スケートセンター北
4122_04,スケートセンター北,4122_03,スケートセンター北
4123_03,すずらん公園,4123_03,すずらん公園
4123_04,すずらん公園,4123_03,すずらん公園
4124_03,澄川３丁目,4124_03,澄川３丁目
4124_04,澄川３丁目,4124_03,澄川３丁目
4125_03,澄川５丁目,4125_03,澄川５丁目
4125_04,澄川５丁目,4125_03,澄川５丁目
4126_01,澄川７丁目,4126_01,澄川７丁目
4126_02,澄川７丁目,4126_01,澄川７丁目
4126_03,澄川７丁目,4126_01,澄川７丁目
4126_04,澄川７丁目,4126_01,澄川７丁目
4127_03,澄川小学校,4127_03,澄川小学校
4127_04,澄川小学校,4127_03,澄川小学校
4128_03,住吉１丁目,4128_03,住吉１丁目
4128_04,住吉１丁目,4128_03,住吉１丁目
4129_01,住吉住宅街,4129_01,住吉住宅街
4129_02,住吉住宅街,4129_01,住吉住宅街
4130_03,住吉双葉中央,4130_03,住吉双葉中央
4130_04,住吉双葉中央,4130_03,住吉双葉中央
4131_03,青雲２丁目,4131_03,青雲２丁目
4131_04,青雲２丁目,4131_03,青雲２丁目
4132_01,総合運動公園,4132_01,総合運動公園
4132_02,総合運動公園,4132_01,総合運動公園
4133_03,総合経済高校,4133_03,総合経済高校
4133_04,総合経済高校,4133_03,総合経済高校
4134_03,総合体育館前,4134_03,総合体育館前
4134_04,総合体育館前,4134_03,総合体育館前
4135_02,操車場前,4135_02,操車場前
4135_03,操車場前,4135_02,操車場前
4135_04,操車場前,4135_02,操車場前
4136_03,大成２丁目,4136_03,大成２丁目
4136_04,大成２丁目,4136_03,大成２丁目
4137_03,大成小学校前,4137_03,大成小学校前
4137_04,大成小学校前,4137_03,大成小学校前
4138_03,高砂１丁目,4138_03,高砂１丁目
4138_04,高砂１丁目,4138_03,高砂１丁目
4139_03,拓勇,4139_03,拓勇
4139_04,拓勇,4139_03,拓勇
4140_03,拓勇小学校前,4140_03,拓勇小学校前
4140_04,拓勇小学校前,4140_03,拓勇小学校前
4141_03,拓勇西,4141_03,拓勇西
4141_04,拓勇西,4141_03,拓勇西
4142_03,拓勇東,4142_03,拓勇東
4142_04,拓勇東,4142_03,拓勇東
4143_03,拓勇南,4143_03,拓勇南
4143_04,拓勇南,4143_03,拓勇南
4152_04,テクノセンター,4152_04,テクノセンター
4153_03,道職員住宅前,4153_03,道職員住宅前
4153_04,道職員住宅前,4153_03,道職員住宅前
4154_03,灯台前,4154_03,灯台前
4154_04,灯台前,4154_03,灯台前
4155_03,ときわ１丁目,4155_03,ときわ１丁目
4155_04,ときわ１丁目,4155_03,ときわ１丁目
4156_03,ときわ２丁目,4156_03,ときわ２丁目
4156_04,ときわ２丁目,4156_03,ときわ２丁目
4157_03,ときわ４丁目,4157_03,ときわ４丁目
4157_04,ときわ４丁目,4157_03,ときわ４丁目
4158_01,ときわ６丁目,4158_01,ときわ６丁目
4158_02,ときわ６丁目,4158_01,ときわ６丁目
4158_03,ときわ６丁目,4158_01,ときわ６丁目
4158_04,ときわ６丁目,4158_01,ときわ６丁目
4160_01,苫信明野支店前,4160_01,苫信明野支店前
4160_02,苫信明野支店前,4160_01,苫信明野支店前
4161_03,苫信川沿支店前,4161_03,苫信川沿支店前
4161_04,苫信川沿支店前,4161_03,苫信川沿支店前
4162_01,苫信光洋支店前,4162_01,苫信光洋支店前
4162_02,苫信光洋支店前,4162_01,苫信光洋支店前
4162_03,苫信光洋支店前,4162_01,苫信光洋支店前
4162_04,苫信光洋支店前,4162_01,苫信光洋支店前
4163_03,幸町１丁目,4163_03,幸町１丁目
4163_04,幸町１丁目,4163_03,幸町１丁目
4164_03,苫信西支店前,4164_03,苫信西支店前
4164_04,苫信西支店前,4164_03,苫信西支店前
4165_01,新生公園,4165_01,新生公園
4165_02,新生公園,4165_01,新生公園
4166_03,苫信本店前,4166_03,苫信本店前
4166_04,苫信本店前,4166_03,苫信本店前
4167_03,苫信美園支店前,4167_03,苫信美園支店前
4167_04,苫信美園支店前,4167_03,苫信美園支店前
4168_03,豊川３丁目,4168_03,豊川３丁目
4168_04,豊川３丁目,4168_03,豊川３丁目
4168_05,豊川３丁目,4168_03,豊川３丁目
4168_06,豊川３丁目,4168_03,豊川３丁目
4168_07,豊川３丁目,4168_03,豊川３丁目
4169_03,豊川４丁目,4169_03,豊川４丁目
4169_04,豊川４丁目,4169_03,豊川４丁目
4170_03,豊川小学校前,4170_03,豊川小学校前
4170_04,豊川小学校前,4170_03,豊川小学校前
4171_03,中糸井,4171_03,中糸井
4171_04,中糸井,4171_03,中糸井
4172_03,西糸井,4172_03,西糸井
4172_04,西糸井,4172_03,西糸井
4173_03,西インター入口,4173_03,西インター入口
4173_04,西インター入口,4173_03,西インター入口
4174_03,錦大沼入口,4174_03,錦大沼入口
4174_04,錦大沼入口,4174_03,錦大沼入口
4175_01,錦大沼前,4175_01,錦大沼前
4175_02,錦大沼前,4175_01,錦大沼前
4176_03,錦岡四郡,4176_03,錦岡四郡
4176_04,錦岡四郡,4176_03,錦岡四郡
4177_03,錦岡駅前,4177_03,錦岡駅前
4177_04,錦岡駅前,4177_03,錦岡駅前
4178_02,錦岡西,4178_02,錦岡西
4178_03,錦岡西,4178_02,錦岡西
4178_04,錦岡西,4178_02,錦岡西
4179_03,錦岡橋,4179_03,錦岡橋
4179_04,錦岡橋,4179_03,錦岡橋
4180_03,錦岡踏切,4180_03,錦岡踏切
4180_04,錦岡踏切,4180_03,錦岡踏切
4181_01,錦岡郵便局前,4181_01,錦岡郵便局前
4181_02,錦岡郵便局前,4181_01,錦岡郵便局前
4181_03,錦岡郵便局前,4181_01,錦岡郵便局前
4181_04,錦岡郵便局前,4181_01,錦岡郵便局前
4182_01,西高校前,4182_01,西高校前
4182_02,西高校前,4182_01,西高校前
4184_03,錦多峰橋,4184_03,錦多峰橋
4184_04,錦多峰橋,4184_03,錦多峰橋
4185_03,西埠頭通,4185_03,西埠頭通
4185_04,西埠頭通,4185_03,西埠頭通
4186_03,日軽金東,4186_03,日軽金東
4186_04,日軽金東,4186_03,日軽金東
4187_03,日軽金前,4187_03,日軽金前
4187_04,日軽金前,4187_03,日軽金前
4188_03,日新３丁目,4188_03,日新３丁目
4188_04,日新３丁目,4188_03,日新３丁目
4188_05,日新３丁目,4188_03,日新３丁目
4188_06,日新３丁目,4188_03,日新３丁目
4188_07,日新３丁目,4188_03,日新３丁目
4188_08,日新３丁目,4188_03,日新３丁目
4189_03,日新４丁目,4189_03,日新４丁目
4189_04,日新４丁目,4189_03,日新４丁目
4190_03,日新６丁目,4190_03,日新６丁目
4190_04,日新６丁目,4190_03,日新６丁目
4191_03,日新温水プール,4191_03,日新温水プール
4191_04,日新温水プール,4191_03,日新温水プール
4191_05,日新温水プール,4191_03,日新温水プール
4191_06,日新温水プール,4191_03,日新温水プール
4191_07,日新温水プール,4191_03,日新温水プール
4192_03,日新小学校前,4192_03,日新小学校前
4192_04,日新小学校前,4192_03,日新小学校前
4193_01,日新メディカルタウン前,4193_01,日新メディカルタウン前
4193_02,日新メディカルタウン前,4193_01,日新メディカルタウン前
4193_03,日新メディカルタウン前,4193_01,日新メディカルタウン前
4193_04,日新メディカルタウン前,4193_01,日新メディカルタウン前
4194_01,沼ノ端アンダーパス,4194_01,沼ノ端アンダーパス
4194_02,沼ノ端アンダーパス,4194_01,沼ノ端アンダーパス
4195_01,沼ノ端駅北口,4195_01,沼ノ端駅北口
4195_03,沼ノ端駅北口,4195_01,沼ノ端駅北口
4196_01,沼ノ端駅通,4196_01,沼ノ端駅通
4196_02,沼ノ端駅通,4196_01,沼ノ端駅通
4197_01,沼ノ端駅前,4197_01,沼ノ端駅前
4197_02,沼ノ端駅前,4197_01,沼ノ端駅前
4198_01,沼ノ端企業団地前,4198_01,沼ノ端企業団地前
4198_02,沼ノ端企業団地前,4198_01,沼ノ端企業団地前
4199_01,沼ノ端北,4199_01,沼ノ端北
4199_02,沼ノ端北,4199_01,沼ノ端北
4199_03,沼ノ端北,4199_01,沼ノ端北
4199_04,沼ノ端北,4199_01,沼ノ端北
4200_03,沼ノ端コミセン,4200_03,沼ノ端コミセン
4200_04,沼ノ端コミセン,4200_03,沼ノ端コミセン
4201_03,沼ノ端小学校前,4201_03,沼ノ端小学校前
4201_04,沼ノ端小学校前,4201_03,沼ノ端小学校前
4202_03,ダイナックス沼ノ端アイスアリーナ,4202_03,ダイナックス沼ノ端アイスアリーナ
4202_04,ダイナックス沼ノ端アイスアリーナ,4202_03,ダイナックス沼ノ端アイスアリーナ
4203_01,沼ノ端中学校通,4203_01,沼ノ端中学校通
4203_02,沼ノ端中学校通,4203_01,沼ノ端中学校通
4204_03,沼ノ端鉄北通,4204_03,沼ノ端鉄北通
4204_04,沼ノ端鉄北通,4204_03,沼ノ端鉄北通
4205_03,沼ノ端西,4205_03,沼ノ端西
4205_04,沼ノ端西,4205_03,沼ノ端西
4206_01,沼ノ端南,4206_01,沼ノ端南
4206_02,沼ノ端南,4206_01,沼ノ端南
4207_03,ネイチャーセンター入口,4207_03,ネイチャーセンター入口
4207_04,ネイチャーセンター入口,4207_03,ネイチャーセンター入口
4208_03,のぞみコミセン,4208_03,のぞみコミセン
4208_04,のぞみコミセン,4208_03,のぞみコミセン
4209_03,白鳥湖,4209_03,白鳥湖
4209_04,白鳥湖,4209_03,白鳥湖
4210_03,花園２丁目,4210_03,花園２丁目
4210_04,花園２丁目,4210_03,花園２丁目
4211_01,はまなす２丁目,4211_01,はまなす２丁目
4212_01,はまなす団地,4212_01,はまなす団地
4212_02,はまなす団地,4212_01,はまなす団地
4213_01,晴海町西,4213_01,晴海町西
4213_02,晴海町西,4213_01,晴海町西
4213_03,晴海町西,4213_01,晴海町西
4213_04,晴海町西,4213_01,晴海町西
4214_01,はんの木公園,4214_01,はんの木公園
4214_02,はんの木公園,4214_01,はんの木公園
4215_03,東高校,4215_03,東高校
4215_04,東高校,4215_03,東高校
4218_03,東錦岡,4218_03,東錦岡
4218_04,東錦岡,4218_03,東錦岡
4219_03,日高自動車道入口,4219_03,日高自動車道入口
4219_04,日高自動車道入口,4219_03,日高自動車道入口
4220_03,日の出１丁目,4220_03,日の出１丁目
4220_04,日の出１丁目,4220_03,日の出１丁目
4221_03,日の出２丁目,4221_03,日の出２丁目
4221_04,日の出２丁目,4221_03,日の出２丁目
4222_01,美々川福祉園前,4222_01,美々川福祉園前
4222_02,美々川福祉園前,4222_01,美々川福祉園前
4222_03,美々川福祉園前,4222_01,美々川福祉園前
4223_03,日吉体育館前,4223_03,日吉体育館前
4223_04,日吉体育館前,4223_03,日吉体育館前
4224_01,ファーム入口,4224_01,ファーム入口
4224_02,ファーム入口,4224_01,ファーム入口
4225_03,フェリーターミナル,4225_03,フェリーターミナル
4226_03,双葉１丁目,4226_03,双葉１丁目
4226_04,双葉１丁目,4226_03,双葉１丁目
4227_03,双葉交番前,4227_03,双葉交番前
4227_04,双葉交番前,4227_03,双葉交番前
4229_03,船見１丁目,4229_03,船見１丁目
4229_04,船見１丁目,4229_03,船見１丁目
4230_03,船見２丁目,4230_03,船見２丁目
4230_04,船見２丁目,4230_03,船見２丁目
4231_01,表町,4231_01,表町
4231_02,表町,4231_01,表町
4232_01,出光カルチャーパーク,4232_01,出光カルチャーパーク
4232_02,出光カルチャーパーク,4232_01,出光カルチャーパーク
4232_03,出光カルチャーパーク,4232_01,出光カルチャーパーク
4232_04,出光カルチャーパーク,4232_01,出光カルチャーパーク
4234_01,豊陵公園,4234_01,豊陵公園
4234_02,豊陵公園,4234_01,豊陵公園
4235_03,北栄３丁目,4235_03,北栄３丁目
4235_04,北栄３丁目,4235_03,北栄３丁目
4236_03,北星小学校前,4236_03,北星小学校前
4236_04,北星小学校前,4236_03,北星小学校前
4237_01,保健センター,4237_01,保健センター
4237_02,保健センター,4237_01,保健センター
4238_03,星が丘団地,4238_03,星が丘団地
4238_04,星が丘団地,4238_03,星が丘団地
4239_03,北光１丁目,4239_03,北光１丁目
4240_03,北光３丁目,4240_03,北光３丁目
4241_01,北光小学校前,4241_01,北光小学校前
4241_02,北光小学校前,4241_01,北光小学校前
4241_03,北光小学校前,4241_01,北光小学校前
4241_04,北光小学校前,4241_01,北光小学校前
4242_01,北光通,4242_01,北光通
4242_02,北光通,4242_01,北光通
4242_03,北光通,4242_01,北光通
4242_04,北光通,4242_01,北光通
4243_03,美園４丁目,4243_03,美園４丁目
4243_04,美園４丁目,4243_03,美園４丁目
4244_03,美園小学校前,4244_03,美園小学校前
4244_04,美園小学校前,4244_03,美園小学校前
4245_03,三星工場前,4245_03,三星工場前
4245_04,三星工場前,4245_03,三星工場前
4246_03,緑跨線橋,4246_03,緑跨線橋
4246_04,緑跨線橋,4246_03,緑跨線橋
4247_01,緑小学校前,4247_01,緑小学校前
4247_02,緑小学校前,4247_01,緑小学校前
4247_03,緑小学校前,4247_01,緑小学校前
4247_04,緑小学校前,4247_01,緑小学校前
4248_03,緑町２丁目,4248_03,緑町２丁目
4248_04,緑町２丁目,4248_03,緑町２丁目
4249_01,緑町郵便局前,4249_01,緑町郵便局前
4249_02,緑町郵便局前,4249_01,緑町郵便局前
4249_03,緑町郵便局前,4249_01,緑町郵便局前
4249_04,緑町郵便局前,4249_01,緑町郵便局前
4250_03,港跨線橋,4250_03,港跨線橋
4250_04,港跨線橋,4250_03,港跨線橋
4251_03,港町１丁目,4251_03,港町１丁目
4251_04,港町１丁目,4251_03,港町１丁目
4252_01,港町２丁目,4252_01,港町２丁目
4252_02,港町２丁目,4252_01,港町２丁目
4253_01,南高校,4253_01,南高校
4253_02,南高校,4253_01,南高校
4253_03,南高校,4253_01,南高校
4253_04,南高校,4253_01,南高校
4254_03,南高校北,4254_03,南高校北
4254_04,南高校北,4254_03,南高校北
4256_03,美原１丁目,4256_03,美原１丁目
4256_04,美原１丁目,4256_03,美原１丁目
4257_01,宮の森入口,4257_01,宮の森入口
4257_02,宮の森入口,4257_01,宮の森入口
4258_01,宮の森団地,4258_01,宮の森団地
4258_32,宮の森団地,4258_01,宮の森団地
4259_01,宮の森団地南,4259_01,宮の森団地南
4259_02,宮の森団地南,4259_01,宮の森団地南
4260_04,見山１丁目,4260_04,見山１丁目
4261_03,宮前１丁目,4261_03,宮前１丁目
4261_04,宮前１丁目,4261_03,宮前１丁目
4262_01,宮前４丁目,4262_01,宮前４丁目
4262_02,宮前４丁目,4262_01,宮前４丁目
4262_03,宮前４丁目,4262_01,宮前４丁目
4262_04,宮前４丁目,4262_01,宮前４丁目
4264_03,明徳２丁目,4264_03,明徳２丁目
4264_04,明徳２丁目,4264_03,明徳２丁目
4265_03,明徳４丁目,4265_03,明徳４丁目
4265_04,明徳４丁目,4265_03,明徳４丁目
4266_03,明徳公住前,4266_03,明徳公住前
4266_04,明徳公住前,4266_03,明徳公住前
4267_03,明徳橋,4267_03,明徳橋
4267_04,明徳橋,4267_03,明徳橋
4268_03,もえぎ町２丁目,4268_03,もえぎ町２丁目
4268_04,もえぎ町２丁目,4268_03,もえぎ町２丁目
4269_03,木工団地前,4269_03,木工団地前
4269_04,木工団地前,4269_03,木工団地前
4270_01,元中野２丁目,4270_01,元中野２丁目
4270_02,元中野２丁目,4270_01,元中野２丁目
4271_01,元中野４丁目,4271_01,元中野４丁目
4271_02,元中野４丁目,4271_01,元中野４丁目
4272_03,元町１丁目,4272_03,元町１丁目
4272_04,元町１丁目,4272_03,元町１丁目
4273_03,元町２丁目,4273_03,元町２丁目
4273_04,元町２丁目,4273_03,元町２丁目
4274_03,元町３丁目,4274_03,元町３丁目
4274_04,元町３丁目,4274_03,元町３丁目
4275_03,矢代ゲートボールセンター,4275_03,矢代ゲートボールセンター
4275_04,矢代ゲートボールセンター,4275_03,矢代ゲートボールセンター
4276_03,柳町１丁目,4276_03,柳町１丁目
4276_04,柳町１丁目,4276_03,柳町１丁目
4277_03,柳町４丁目,4277_03,柳町４丁目
4277_04,柳町４丁目,4277_03,柳町４丁目
4278_03,山手１丁目,4278_03,山手１丁目
4278_04,山手１丁目,4278_03,山手１丁目
4279_03,山手中央,4279_03,山手中央
4279_04,山手中央,4279_03,山手中央
4280_01,山なみ分校前,4280_01,山なみ分校前
4280_02,山なみ分校前,4280_01,山なみ分校前
4281_03,弥生２丁目,4281_03,弥生２丁目
4281_04,弥生２丁目,4281_03,弥生２丁目
4282_02,勇払駅前,4282_02,勇払駅前
4283_01,勇払公住前,4283_01,勇払公住前
4283_02,勇払公住前,4283_01,勇払公住前
4284_03,勇払出張所,4284_03,勇払出張所
4284_04,勇払出張所,4284_03,勇払出張所
4285_04,勇払正門,4285_04,勇払正門
4286_03,勇払中央,4286_03,勇払中央
4286_04,勇払中央,4286_03,勇払中央
4287_03,勇払東,4287_03,勇払東
4288_03,勇払マリーナ入口,4288_03,勇払マリーナ入口
4288_04,勇払マリーナ入口,4288_03,勇払マリーナ入口
4290_01,ゆたか公園前,4290_01,ゆたか公園前
4290_02,ゆたか公園前,4290_01,ゆたか公園前
4291_03,凌雲公園通,4291_03,凌雲公園通
4291_04,凌雲公園通,4291_03,凌雲公園通
4292_03,凌雲中学校通,4292_03,凌雲中学校通
4292_04,凌雲中学校通,4292_03,凌雲中学校通
4293_03,臨海東通,4293_03,臨海東通
4293_04,臨海東通,4293_03,臨海東通
4294_04,老人ホーム前,4294_04,老人ホーム前
4306_10,新千歳空港国際線ターミナル８６番のりば,4306_10,新千歳空港国際線ターミナル８６番のりば
4307_10,新千歳空港国内線ターミナル２９番のりば,4307_10,新千歳空港国内線ターミナル２９番のりば
4308_10,新千歳空港国内線２番のりば,4308_10,新千歳空港国内線２番のりば
4354_03,キラキラ公園前,4354_03,キラキラ公園前
4354_04,キラキラ公園前,4354_03,キラキラ公園前
4355_03,スマイルタウン前,4355_03,スマイルタウン前
4355_04,スマイルタウン前,4355_03,スマイルタウン前
4356_01,沼ノ端跨線橋,4356_01,沼ノ端跨線橋
4356_02,沼ノ端跨線橋,4356_01,沼ノ端跨線橋
5010_10,穂別診療所前,5010_10,穂別診療所前
2126_10,ウポポイ前,2126_10,ウポポイ前
