stop_id,stop_name,similar_stop_id,similar_stop_name
S0131000001,wO,S0131000001,wO
S013100000100000,wO,S0131000001,wO
S0131000002,QU,S0131000002,QU
S013100000200000,QU,S0131000002,QU
S0131000003,RU,S0131000003,RU
S013100000300000,RU,S0131000003,RU
S0131000004,sa@O,S0131000004,sa@O
S013100000400000,sa@O,S0131000004,sa@O
S013100000400001,sa@O,S0131000004,sa@O
S0131000005,WT,S0131000005,WT
S013100000500000,WT,S0131000005,WT
S0131000006,WR,S0131000006,WR
S013100000600000,WR,S0131000006,WR
S0131000007,WP,S0131000007,WP
S013100000700000,WP,S0131000007,WP
S0131000008,Z^[,S0131000008,Z^[
S013100000800000,Z^[,S0131000008,Z^[
S0131000009,W,S0131000009,W
S013100000900000,W,S0131000009,W
S0131000010,vgPQ,S0131000010,vgPQ
S013100001000000,vgPQ,S0131000010,vgPQ
S0131000011,vgPP,S0131000011,vgPP
S013100001100000,vgPP,S0131000011,vgPP
S0131000012,PO,S0131000012,PO
S013100001200000,PO,S0131000012,PO
S0131000013,X,S0131000013,X
S013100001300000,X,S0131000013,X
S0131000014,,S0131000014,
S013100001400000,,S0131000014,
S0131000015,qb,S0131000015,qb
S013100001500000,qb,S0131000015,qb
S0131000016,,S0131000016,
S013100001600000,,S0131000016,
S0131000017,q,S0131000017,q
S013100001700000,q,S0131000017,q
S0131000018,T,S0131000018,T
S013100001800000,T,S0131000018,T
S0131000019,S,S0131000019,S
S013100001900000,S,S0131000019,S
S0131000020,R,S0131000020,R
S013100002000000,R,S0131000020,R
S0131000021,Q,S0131000021,Q
S013100002100000,Q,S0131000021,Q
S0131000022,qbPP,S0131000022,qbPP
S013100002200000,qbPP,S0131000022,qbPP
S0131000023,qbPQ,S0131000023,qbPQ
S013100002300000,qbPQ,S0131000023,qbPQ
S0131000024,qbPR,S0131000024,qbPR
S013100002400000,qbPR,S0131000024,qbPR
S0131000025,qbPS,S0131000025,qbPS
S013100002500000,qbPS,S0131000025,qbPS
S0131000026,qbPT,S0131000026,qbPT
S013100002600000,qbPT,S0131000026,qbPT
S0131000027,qbPU,S0131000027,qbPU
S013100002700000,qbPU,S0131000027,qbPU
S0131000028,qbPV,S0131000028,qbPV
S013100002800000,qbPV,S0131000028,qbPV
S0131000029,[R,S0131000029,[R
S013100002900000,[R,S0131000029,[R
S0131000030,[S,S0131000030,[S
S013100003000000,[S,S0131000030,[S
S0131000031,[T,S0131000031,[T
S013100003100000,[T,S0131000031,[T
S0131000032,[wZ,S0131000032,[wZ
S013100003200000,[wZ,S0131000032,[wZ
S0131000033,[V,S0131000033,[V
S013100003300000,[V,S0131000033,[V
S0131000034,[,S0131000034,[
S013100003400000,[,S0131000034,[
S0131000035,[W,S0131000035,[W
S013100003500000,[W,S0131000035,[W
S0131000036,[X,S0131000036,[X
S013100003600000,[X,S0131000036,[X
S0131000037,[PO,S0131000037,[PO
S013100003700000,[PO,S0131000037,[PO
S0131000038,[PP,S0131000038,[PP
S013100003800000,[PP,S0131000038,[PP
S0131000039,[PQ,S0131000039,[PQ
S013100003900000,[PQ,S0131000039,[PQ
S0131000040,[PR,S0131000040,[PR
S013100004000000,[PR,S0131000040,[PR
S0131000041,[PS,S0131000041,[PS
S013100004100000,[PS,S0131000041,[PS
S0131000042,[PT,S0131000042,[PT
S013100004200000,[PT,S0131000042,[PT
S0131000043,[PU,S0131000043,[PU
S013100004300000,[PU,S0131000043,[PU
S0131000044,P,S0131000044,P
S013100004400000,P,S0131000044,P
S0131000045,Q,S0131000045,Q
S013100004500000,Q,S0131000045,Q
S0131000046,R,S0131000046,R
S013100004600000,R,S0131000046,R
S0131000047,S,S0131000047,S
S013100004700000,S,S0131000047,S
S0131000048,T,S0131000048,T
S013100004800000,T,S0131000048,T
S0131000049,U,S0131000049,U
S013100004900000,U,S0131000049,U
S0131000050,[O,S0131000050,[O
S013100005000000,[O,S0131000050,[O
S0131000051,W,S0131000051,W
S013100005100000,W,S0131000051,W
S0131000052,X,S0131000052,X
S013100005200000,X,S0131000052,X
S0131000053,PO,S0131000053,PO
S013100005300000,PO,S0131000053,PO
S0131000054,PP,S0131000054,PP
S013100005400000,PP,S0131000054,PP
S0131000055,PQ,S0131000055,PQ
S013100005500000,PQ,S0131000055,PQ
S0131000056,PR,S0131000056,PR
S013100005600000,PR,S0131000056,PR
S0131000057,PS,S0131000057,PS
S013100005700000,PS,S0131000057,PS
S0131000058,PT,S0131000058,PT
S013100005800000,PT,S0131000058,PT
S0131000059,PU,S0131000059,PU
S013100005900000,PU,S0131000059,PU
S0131000060,}O,S0131000060,}O
S013100006000000,}O,S0131000060,}O
S0131000061,Z^[vUO,S0131000061,Z^[vUO
S013100006100000,Z^[vUO,S0131000061,Z^[vUO
S0131000062,w,S0131000062,w
S013100006200000,w,S0131000062,w
S0131000063,Еa@O,S0131000063,Еa@O
S013100006300000,Еa@O,S0131000063,Еa@O
S0131000064,sO,S0131000064,sO
S013100006400000,sO,S0131000064,sO
S0131000065,S,S0131000065,S
S013100006500000,S,S0131000065,S
S0131000066,a@O,S0131000066,a@O
S013100006600000,a@O,S0131000066,a@O
S0131000067,΋uPT,S0131000067,΋uPT
S013100006700000,΋uPT,S0131000067,΋uPT
S0131000068,΋uPU,S0131000068,΋uPU
S013100006800000,΋uPU,S0131000068,΋uPU
S0131000069,΋uPV,S0131000069,΋uPV
S013100006900000,΋uPV,S0131000069,΋uPV
S0131000070,΋uPW,S0131000070,΋uPW
S013100007000000,΋uPW,S0131000070,΋uPW
S0131000071,P,S0131000071,P
S013100007100000,P,S0131000071,P
S0131000072,Q,S0131000072,Q
S013100007200000,Q,S0131000072,Q
S0131000073,R,S0131000073,R
S013100007300000,R,S0131000073,R
S0131000074,S,S0131000074,S
S013100007400000,S,S0131000074,S
S0131000075,T,S0131000075,T
S013100007500000,T,S0131000075,T
S0131000076,U,S0131000076,U
S013100007600000,U,S0131000076,U
S0131000077,V,S0131000077,V
S013100007700000,V,S0131000077,V
S0131000078,W,S0131000078,W
S013100007800000,W,S0131000078,W
S0131000079,X,S0131000079,X
S013100007900000,X,S0131000079,X
S0131000080,PO,S0131000080,PO
S013100008000000,PO,S0131000080,PO
S0131000081,㖼PP,S0131000081,㖼PP
S013100008100000,㖼PP,S0131000081,㖼PP
S0131000082,㖼PQ,S0131000082,㖼PQ
S013100008200000,㖼PQ,S0131000082,㖼PQ
S0131000083,㖼PR,S0131000083,㖼PR
S013100008300000,㖼PR,S0131000083,㖼PR
S0131000084,㖼PS,S0131000084,㖼PS
S013100008400000,㖼PS,S0131000084,㖼PS
S0131000085,㖼PT,S0131000085,㖼PT
S013100008500000,㖼PT,S0131000085,㖼PT
S0131000086,㖼PU,S0131000086,㖼PU
S013100008600000,㖼PU,S0131000086,㖼PU
S0131000087,㖼PV,S0131000087,㖼PV
S013100008700000,㖼PV,S0131000087,㖼PV
S0131000088,㖼PW,S0131000088,㖼PW
S013100008800000,㖼PW,S0131000088,㖼PW
S0131000089,㖼PX,S0131000089,㖼PX
S013100008900000,㖼PX,S0131000089,㖼PX
S0131000090,㖼QO,S0131000090,㖼QO
S013100009000000,㖼QO,S0131000090,㖼QO
S0131000091,QP,S0131000091,QP
S013100009100000,QP,S0131000091,QP
S0131000092,QQ,S0131000092,QQ
S013100009200000,QQ,S0131000092,QQ
S0131000093,ZOm쒬n,S0131000093,ZOm쒬n
S013100009300000,ZOm쒬n,S0131000093,ZOm쒬n
S0131000094,XO,S0131000094,XO
S013100009400000,XO,S0131000094,XO
S0131000095,MO,S0131000095,MO
S013100009500000,MO,S0131000095,MO
S0131000096,t[hZ^[O,S0131000096,t[hZ^[O
S013100009600000,t[hZ^[O,S0131000096,t[hZ^[O
S0131000097,oX^[~i,S0131000097,oX^[~i
S013100009700000,oX^[~i,S0131000097,oX^[~i
S0131000098,ʓX,S0131000098,ʓX
S013100009800000,ʓX,S0131000098,ʓX
S0131000099,cPU,S0131000099,cPU
S013100009900000,cPU,S0131000099,cPU
S0131000100,cPV,S0131000100,cPV
S013100010000000,cPV,S0131000100,cPV
S0131000101,샖ucn,S0131000101,샖ucn
S013100010100000,샖ucn,S0131000101,샖ucn
S0131000102,QTm쒬n,S0131000102,QTm쒬n
S013100010200000,QTm쒬n,S0131000102,QTm쒬n
S0131000103,QU,S0131000103,QU
S013100010300000,QU,S0131000103,QU
S0131000104,QW,S0131000104,QW
S013100010400000,QW,S0131000104,QW
S0131000105,RO,S0131000105,RO
S013100010500000,RO,S0131000105,RO
S0131000106,̋,S0131000106,̋
S013100010600000,̋,S0131000106,̋
S0131000107,ّOm쒬n,S0131000107,ّOm쒬n
S013100010700000,ّOm쒬n,S0131000107,ّOm쒬n
S0131000108,RS,S0131000108,RS
S013100010800000,RS,S0131000108,RS
S0131000109,RU,S0131000109,RU
S013100010900000,RU,S0131000109,RU
S0131000110,RV,S0131000110,RV
S013100011000000,RV,S0131000110,RV
S0131000111,RW,S0131000111,RW
S013100011100000,RW,S0131000111,RW
S0131000112,K,S0131000112,K
S013100011200000,K,S0131000112,K
S0131000113,SO,S0131000113,SO
S013100011300000,SO,S0131000113,SO
S0131000114,fÏOm쒬n,S0131000114,fÏOm쒬n
S013100011400000,fÏOm쒬n,S0131000114,fÏOm쒬n
S0131000115,̋,S0131000115,̋
S013100011500000,̋,S0131000115,̋
S0131000116,s҂̑,S0131000116,s҂̑
S013100011600000,s҂̑,S0131000116,s҂̑
S0131000117,,S0131000117,
S013100011700000,,S0131000117,
S0131000118,ht@[O,S0131000118,ht@[O
S013100011800000,ht@[O,S0131000118,ht@[O
S0131000119,㋻,S0131000119,㋻
S013100011900000,㋻,S0131000119,㋻
S0131000120,wZOm㋻n,S0131000120,wZOm㋻n
S013100012000000,wZOm㋻n,S0131000120,wZOm㋻n
S0131000121,hЂȂZO,S0131000121,hЂȂZO
S013100012100000,hЂȂZO,S0131000121,hЂȂZO
S0131000122,㐼qO,S0131000122,㐼qO
S013100012200000,㐼qO,S0131000122,㐼qO
S0131000123,PUUԒn,S0131000123,PUUԒn
S013100012300000,PUUԒn,S0131000123,PUUԒn
S0131000124,gqO,S0131000124,gqO
S013100012400000,gqO,S0131000124,gqO
S0131000125,er,S0131000125,er
S013100012500000,er,S0131000125,er
S0131000126,qO,S0131000126,qO
S013100012600000,qO,S0131000126,qO
S0131000127,EHq,S0131000127,EHq
S013100012700000,EHq,S0131000127,EHq
S0131000128,,S0131000128,
S013100012800000,,S0131000128,
S0131000129,wZOmn,S0131000129,wZOmn
S013100012900000,wZOmn,S0131000129,wZOmn
S0131000130,wZOmn,S0131000130,wZOmn
S013100013000000,wZOmn,S0131000130,wZOmn
S0131000131,O,S0131000131,O
S013100013100000,O,S0131000131,O
S0131000132,FqO,S0131000132,FqO
S013100013200000,FqO,S0131000132,FqO
S0131000133,ZS,S0131000133,ZS
S013100013300000,ZS,S0131000133,ZS
S0131000134,qO,S0131000134,qO
S013100013400000,qO,S0131000134,qO
S0131000135,cqO,S0131000135,cqO
S013100013500000,cqO,S0131000135,cqO
S0131000136,,S0131000136,
S013100013600000,,S0131000136,
S0131000137,,S0131000137,
S013100013700000,,S0131000137,
S0131000138,ǌk,S0131000138,ǌk
S013100013800000,ǌk,S0131000138,ǌk
S0131000139,O,S0131000139,O
S013100013900000,O,S0131000139,O
S0131000140,FÏwZ,S0131000140,FÏwZ
S013100014000000,FÏwZ,S0131000140,FÏwZ
S0131000141,FÎsX,S0131000141,FÎsX
S013100014100000,FÎsX,S0131000141,FÎsX
S0131000142,FÂP,S0131000142,FÂP
S013100014200000,FÂP,S0131000142,FÂP
S0131000143,cqmn,S0131000143,cqmn
S013100014300000,cqmn,S0131000143,cqmn
S0131000144,k勴,S0131000144,k勴
S013100014400000,k勴,S0131000144,k勴
S0131000145,͌qO,S0131000145,͌qO
S013100014500000,͌qO,S0131000145,͌qO
S0131000146,k,S0131000146,k
S013100014600000,k,S0131000146,k
S0131000147,cXL[Omn,S0131000147,cXL[Omn
S013100014700000,cXL[Omn,S0131000147,cXL[Omn
S0131000148,V,S0131000148,V
S013100014800000,V,S0131000148,V
S0131000149,K,S0131000149,K
S013100014900000,K,S0131000149,K
S0131000150,,S0131000150,
S013100015000000,,S0131000150,
S0131000151,moX,S0131000151,moX
S013100015100000,moX,S0131000151,moX
S0131000152,SR,S0131000152,SR
S013100015200000,SR,S0131000152,SR
S0131000153,SkP,S0131000153,SkP
S013100015300000,SkP,S0131000153,SkP
S0131000154,RP,S0131000154,RP
S013100015400000,RP,S0131000154,RP
S0131000155,񓌏wZO,S0131000155,񓌏wZO
S013100015500000,񓌏wZO,S0131000155,񓌏wZO
S0131000156,RV,S0131000156,RV
S013100015600000,RV,S0131000156,RV
S0131000157,,S0131000157,
S013100015700000,,S0131000157,
S0131000158,WX,S0131000158,WX
S013100015800000,WX,S0131000158,WX
S0131000159,Z^[,S0131000159,Z^[
S013100015900000,Z^[,S0131000159,Z^[
S0131000160,YƍZO,S0131000160,YƍZO
S013100016000000,YƍZO,S0131000160,YƍZO
S0131000161,SkS,S0131000161,SkS
S013100016100000,SkS,S0131000161,SkS
S0131000162,یZ^[,S0131000162,یZ^[
S013100016200000,یZ^[,S0131000162,یZ^[
S0131000163,ʖkT,S0131000163,ʖkT
S013100016300000,ʖkT,S0131000163,ʖkT
S0131000164,ʖkV,S0131000164,ʖkV
S013100016400000,ʖkV,S0131000164,ʖkV
S0131000165,klcnO,S0131000165,klcnO
S013100016500000,klcnO,S0131000165,klcnO
S0131000166,iCZ^[,S0131000166,iCZ^[
S013100016600000,iCZ^[,S0131000166,iCZ^[
S0131000167,iX,S0131000167,iX
S013100016700000,iX,S0131000167,iX
S0131000168,Ts[𗬊ّO,S0131000168,Ts[𗬊ّO
S013100016800000,Ts[𗬊ّO,S0131000168,Ts[𗬊ّO
S0131000169,N̐X,S0131000169,N̐X
S013100016900000,N̐X,S0131000169,N̐X
S0131000170,[XzXeO,S0131000170,[XzXeO
S013100017000000,[XzXeO,S0131000170,[XzXeO
S0131000171,ie̐XO,S0131000171,ie̐XO
S013100017100000,ie̐XO,S0131000171,ie̐XO
S0131000172,sVXL[,S0131000172,sVXL[
S013100017200000,sVXL[,S0131000172,sVXL[
S0131000173,UPO,S0131000173,UPO
S013100017300000,UPO,S0131000173,UPO
S0131000174,SX֋ǑO,S0131000174,SX֋ǑO
S013100017400000,SX֋ǑO,S0131000174,SX֋ǑO
S0131000175,ϓdO,S0131000175,ϓdO
S013100017500000,ϓdO,S0131000175,ϓdO
S0131000176,PV,S0131000176,PV
S013100017600000,PV,S0131000176,PV
S0131000177,񍂍ZO,S0131000177,񍂍ZO
S013100017700000,񍂍ZO,S0131000177,񍂍ZO
S0131000178,PW,S0131000178,PW
S013100017800000,PW,S0131000178,PW
S0131000179,PX,S0131000179,PX
S013100017900000,PX,S0131000179,PX
S0131000180,QO,S0131000180,QO
S013100018000000,QO,S0131000180,QO
S0131000181,QP,S0131000181,QP
S013100018100000,QP,S0131000181,QP
S0131000182,QQ,S0131000182,QQ
S013100018200000,QQ,S0131000182,QQ
S0131000183,QQV,S0131000183,QQV
S013100018300000,QQV,S0131000183,QQV
S0131000184,QR,S0131000184,QR
S013100018400000,QR,S0131000184,QR
S0131000185,QS,S0131000185,QS
S013100018500000,QS,S0131000185,QS
S0131000186,QTmsn,S0131000186,QTmsn
S013100018600000,QTmsn,S0131000186,QTmsn
S0131000187,AwO,S0131000187,AwO
S013100018700000,AwO,S0131000187,AwO
S0131000188,a@OmAn,S0131000188,a@OmAn
S013100018800000,a@OmAn,S0131000188,a@OmAn
S0131000189,R,S0131000189,R
S013100018900000,R,S0131000189,R
S0131000190,ZOmsn,S0131000190,ZOmsn
S013100019000000,ZOmsn,S0131000190,ZOmsn
S0131000191,AɑO,S0131000191,AɑO
S013100019100000,AɑO,S0131000191,AɑO
S0131000192,wZOmAn,S0131000192,wZOmAn
S013100019200000,wZOmAn,S0131000192,wZOmAn
S0131000193,̉w,S0131000193,̉w
S013100019300000,̉w,S0131000193,̉w
S0131000194,CIXO,S0131000194,CIXO
S013100019400000,CIXO,S0131000194,CIXO
S013100019400001,CIXO,S0131000194,CIXO
S0131000195,PU,S0131000195,PU
S013100019500000,PU,S0131000195,PU
S013100019500001,PU,S0131000195,PU
S0131000196,PT,S0131000196,PT
S013100019600000,PT,S0131000196,PT
S013100019600001,PT,S0131000196,PT
S0131000197,UP,S0131000197,UP
S013100019700000,UP,S0131000197,UP
S0131000198,SP,S0131000198,SP
S013100019800000,SP,S0131000198,SP
S0131000199,SkQ,S0131000199,SkQ
S013100019900000,SkQ,S0131000199,SkQ
S0131000200,QkS,S0131000200,QkS
S013100020000000,QkS,S0131000200,QkS
S0131000201,swO,S0131000201,swO
S013100020100000,swO,S0131000201,swO
S0131000202,wZO,S0131000202,wZO
S013100020200000,wZO,S0131000202,wZO
S0131000203,ʖkS,S0131000203,ʖkS
S013100020300000,ʖkS,S0131000203,ʖkS
S0131000204,ʖkQ,S0131000204,ʖkQ
S013100020400000,ʖkQ,S0131000204,ʖkQ
