{"type": "FeatureCollection", "features": [{"type": "Feature", "geometry": {"type": "Point", "coordinates": [143.53232380952352, 44.0679966666667]}, "properties": {"similar_stop_name": "１条通北７丁目", "similar_stop_id": "518_01"}}, {"type": "Feature", "geometry": {"type": "Point", "coordinates": [143.89522285714298, 43.8061]}, "properties": {"similar_stop_name": "２条通", "similar_stop_id": "508_01"}}, {"type": "Feature", "geometry": {"type": "Point", "coordinates": [143.530459047619, 44.05876916666665]}, "properties": {"similar_stop_name": "２条通北２丁目", "similar_stop_id": "522_01"}}, {"type": "Feature", "geometry": {"type": "Point", "coordinates": [143.531281904762, 44.06008916666665]}, "properties": {"similar_stop_name": "２条通北３丁目", "similar_stop_id": "524_01"}}, {"type": "Feature", "geometry": {"type": "Point", "coordinates": [143.532704761905, 44.06244333333335]}, "properties": {"similar_stop_name": "２条通北５丁目", "similar_stop_id": "526_01"}}, {"type": "Feature", "geometry": {"type": "Point", "coordinates": [143.533280952381, 44.06467916666665]}, "properties": {"similar_stop_name": "２条通北６丁目", "similar_stop_id": "528_01"}}, {"type": "Feature", "geometry": {"type": "Point", "coordinates": [143.8861333333335, 43.7998625]}, "properties": {"similar_stop_name": "４条通", "similar_stop_id": "510_01"}}, {"type": "Feature", "geometry": {"type": "Point", "coordinates": [143.892594285714, 43.805565]}, "properties": {"similar_stop_name": "４条西２丁目", "similar_stop_id": "530_01"}}, {"type": "Feature", "geometry": {"type": "Point", "coordinates": [143.89062965192534, 43.80345037183857]}, "properties": {"similar_stop_name": "４条西４丁目", "similar_stop_id": "532_01"}}, {"type": "Feature", "geometry": {"type": "Point", "coordinates": [143.89684, 43.809825000000004]}, "properties": {"similar_stop_name": "４条東４丁目", "similar_stop_id": "534_01"}}, {"type": "Feature", "geometry": {"type": "Point", "coordinates": [143.363473333333, 44.33259833333335]}, "properties": {"similar_stop_name": "７丁目会館", "similar_stop_id": "548_01"}}, {"type": "Feature", "geometry": {"type": "Point", "coordinates": [143.8851742857145, 43.81122]}, "properties": {"similar_stop_name": "ＮＨＫ", "similar_stop_id": "556_01"}}, {"type": "Feature", "geometry": {"type": "Point", "coordinates": [143.7553, 43.797170833333354]}, "properties": {"similar_stop_name": "相内", "similar_stop_id": "1000_01"}}, {"type": "Feature", "geometry": {"type": "Point", "coordinates": [143.749133333333, 43.79603583333335]}, "properties": {"similar_stop_name": "相内小学校", "similar_stop_id": "1001_01"}}, {"type": "Feature", "geometry": {"type": "Point", "coordinates": [143.76627142857149, 43.80013833333335]}, "properties": {"similar_stop_name": "相内神社", "similar_stop_id": "1004_01"}}, {"type": "Feature", "geometry": {"type": "Point", "coordinates": [143.8874714285715, 43.8231325]}, "properties": {"similar_stop_name": "アカシヤ団地入口", "similar_stop_id": "1012_01"}}, {"type": "Feature", "geometry": {"type": "Point", "coordinates": [143.4943409523805, 44.24640666666675]}, "properties": {"similar_stop_name": "秋平", "similar_stop_id": "1016_01"}}, {"type": "Feature", "geometry": {"type": "Point", "coordinates": [143.90605714285698, 43.8059075]}, "properties": {"similar_stop_name": "アクロス北見", "similar_stop_id": "6218_01"}}, {"type": "Feature", "geometry": {"type": "Point", "coordinates": [143.60612857142848, 43.78141]}, "properties": {"similar_stop_name": "旭１号線", "similar_stop_id": "2820_01"}}, {"type": "Feature", "geometry": {"type": "Point", "coordinates": [143.59750857142848, 43.7818475]}, "properties": {"similar_stop_name": "旭２号線", "similar_stop_id": "202_01"}}, {"type": "Feature", "geometry": {"type": "Point", "coordinates": [143.60174, 43.7822975]}, "properties": {"similar_stop_name": "旭２区", "similar_stop_id": "1022_01"}}, {"type": "Feature", "geometry": {"type": "Point", "coordinates": [143.592088571429, 43.77998000000005]}, "properties": {"similar_stop_name": "旭３号線", "similar_stop_id": "203_01"}}, {"type": "Feature", "geometry": {"type": "Point", "coordinates": [143.62995999999998, 43.78270250000005]}, "properties": {"similar_stop_name": "旭東町", "similar_stop_id": "1028_01"}}, {"type": "Feature", "geometry": {"type": "Point", "coordinates": [143.91176000000002, 43.8117525]}, "properties": {"similar_stop_name": "朝日町中央", "similar_stop_id": "1032_01"}}, {"type": "Feature", "geometry": {"type": "Point", "coordinates": [143.6170028571425, 43.778535]}, "properties": {"similar_stop_name": "旭南団地入口", "similar_stop_id": "8130_01"}}, {"type": "Feature", "geometry": {"type": "Point", "coordinates": [143.53973013809548, 43.65539431]}, "properties": {"similar_stop_name": "安住２２号線", "similar_stop_id": "9222_01"}}, {"type": "Feature", "geometry": {"type": "Point", "coordinates": [143.5342668142855, 43.65191506]}, "properties": {"similar_stop_name": "安住２３号線", "similar_stop_id": "9523_01"}}, {"type": "Feature", "geometry": {"type": "Point", "coordinates": [143.52332857142852, 43.64640166666665]}, "properties": {"similar_stop_name": "安住２５号線", "similar_stop_id": "225_01"}}, {"type": "Feature", "geometry": {"type": "Point", "coordinates": [143.516576, 43.644142883333345]}, "properties": {"similar_stop_name": "安住２６号線", "similar_stop_id": "9326_01"}}, {"type": "Feature", "geometry": {"type": "Point", "coordinates": [143.52899047619047, 43.6490866666667]}, "properties": {"similar_stop_name": "安住会館", "similar_stop_id": "1034_01"}}, {"type": "Feature", "geometry": {"type": "Point", "coordinates": [144.0734419047625, 43.86402333333335]}, "properties": {"similar_stop_name": "安海宅前", "similar_stop_id": "1036_01"}}, {"type": "Feature", "geometry": {"type": "Point", "coordinates": [143.87516, 43.8092975]}, "properties": {"similar_stop_name": "イオン北見店", "similar_stop_id": "3012_01"}}, {"type": "Feature", "geometry": {"type": "Point", "coordinates": [143.533904761905, 43.92240083333335]}, "properties": {"similar_stop_name": "生田原", "similar_stop_id": "1202_01"}}, {"type": "Feature", "geometry": {"type": "Point", "coordinates": [143.535123809524, 43.912504999999996]}, "properties": {"similar_stop_name": "生田原小学校", "similar_stop_id": "1204_01"}}, {"type": "Feature", "geometry": {"type": "Point", "coordinates": [143.90477714285748, 43.80417000000005]}, "properties": {"similar_stop_name": "泉第１公園入口", "similar_stop_id": "1208_01"}}, {"type": "Feature", "geometry": {"type": "Point", "coordinates": [143.5290809523815, 43.8993675]}, "properties": {"similar_stop_name": "伊吹会館", "similar_stop_id": "1212_01"}}, {"type": "Feature", "geometry": {"type": "Point", "coordinates": [143.536428571429, 44.054825]}, "properties": {"similar_stop_name": "いわね大橋", "similar_stop_id": "1214_01"}}, {"type": "Feature", "geometry": {"type": "Point", "coordinates": [143.533357142857, 44.05084]}, "properties": {"similar_stop_name": "いわね団地", "similar_stop_id": "1216_01"}}, {"type": "Feature", "geometry": {"type": "Point", "coordinates": [143.8293, 43.8064]}, "properties": {"similar_stop_name": "運転免許試験場", "similar_stop_id": "2242_01"}}, {"type": "Feature", "geometry": {"type": "Point", "coordinates": [143.90109428571452, 43.817907500000004]}, "properties": {"similar_stop_name": "運動公園", "similar_stop_id": "1402_01"}}, {"type": "Feature", "geometry": {"type": "Point", "coordinates": [143.8629523809525, 43.7983708333333]}, "properties": {"similar_stop_name": "運輸支局入口", "similar_stop_id": "8125_01"}}, {"type": "Feature", "geometry": {"type": "Point", "coordinates": [143.517261904762, 44.044587500000006]}, "properties": {"similar_stop_name": "えんがる温水プール", "similar_stop_id": "1136_01"}}, {"type": "Feature", "geometry": {"type": "Point", "coordinates": [143.526895238095, 44.06551916666665]}, "properties": {"similar_stop_name": "遠軽中学校", "similar_stop_id": "1606_01"}}, {"type": "Feature", "geometry": {"type": "Point", "coordinates": [143.5168761904755, 44.0479425]}, "properties": {"similar_stop_name": "遠軽福路１丁目", "similar_stop_id": "1691_01"}}, {"type": "Feature", "geometry": {"type": "Point", "coordinates": [143.52409405238097, 44.06104657]}, "properties": {"similar_stop_name": "遠軽郵便局", "similar_stop_id": "6844_01"}}, {"type": "Feature", "geometry": {"type": "Point", "coordinates": [143.846610669518, 43.823052868833344]}, "properties": {"similar_stop_name": "大谷宅前", "similar_stop_id": "1800_01"}}, {"type": "Feature", "geometry": {"type": "Point", "coordinates": [143.5858028571425, 43.7777675]}, "properties": {"similar_stop_name": "大富４号線", "similar_stop_id": "204_01"}}, {"type": "Feature", "geometry": {"type": "Point", "coordinates": [143.5795732142855, 43.775601699999996]}, "properties": {"similar_stop_name": "大富５号線", "similar_stop_id": "9205_01"}}, {"type": "Feature", "geometry": {"type": "Point", "coordinates": [143.5731800000005, 43.77341]}, "properties": {"similar_stop_name": "大富６号線", "similar_stop_id": "206_01"}}, {"type": "Feature", "geometry": {"type": "Point", "coordinates": [143.56669071428598, 43.771873070000055]}, "properties": {"similar_stop_name": "大富７号線", "similar_stop_id": "9207_01"}}, {"type": "Feature", "geometry": {"type": "Point", "coordinates": [143.55999418571452, 43.77030084000005]}, "properties": {"similar_stop_name": "大富８号線", "similar_stop_id": "9208_01"}}, {"type": "Feature", "geometry": {"type": "Point", "coordinates": [143.900361904762, 43.87776333333335]}, "properties": {"similar_stop_name": "大曲", "similar_stop_id": "1808_01"}}, {"type": "Feature", "geometry": {"type": "Point", "coordinates": [143.9080657142855, 43.816357499999995]}, "properties": {"similar_stop_name": "大町", "similar_stop_id": "1810_01"}}, {"type": "Feature", "geometry": {"type": "Point", "coordinates": [143.905102857143, 43.814169166666645]}, "properties": {"similar_stop_name": "大町郵便局", "similar_stop_id": "1812_01"}}, {"type": "Feature", "geometry": {"type": "Point", "coordinates": [143.5893, 43.67696]}, "properties": {"similar_stop_name": "置戸", "similar_stop_id": "1814_01"}}, {"type": "Feature", "geometry": {"type": "Point", "coordinates": [143.59210000000002, 43.678825]}, "properties": {"similar_stop_name": "置戸卸売市場", "similar_stop_id": "544_01"}}, {"type": "Feature", "geometry": {"type": "Point", "coordinates": [143.57288571428552, 43.669250000000005]}, "properties": {"similar_stop_name": "置戸中学校入口", "similar_stop_id": "1818_01"}}, {"type": "Feature", "geometry": {"type": "Point", "coordinates": [143.5861239809525, 43.67579371333335]}, "properties": {"similar_stop_name": "置戸町役場", "similar_stop_id": "9805_01"}}, {"type": "Feature", "geometry": {"type": "Point", "coordinates": [143.9287, 43.86367]}, "properties": {"similar_stop_name": "オホーツク海病院", "similar_stop_id": "8303_01"}}, {"type": "Feature", "geometry": {"type": "Point", "coordinates": [143.3694714285715, 44.32905083333335]}, "properties": {"similar_stop_name": "オホーツクタワー入口", "similar_stop_id": "1820_01"}}, {"type": "Feature", "geometry": {"type": "Point", "coordinates": [143.9893666666665, 43.887841666666645]}, "properties": {"similar_stop_name": "オホーツクドライブイン", "similar_stop_id": "4862_01"}}, {"type": "Feature", "geometry": {"type": "Point", "coordinates": [143.4088857142855, 44.30778833333335]}, "properties": {"similar_stop_name": "オホーツク紋別空港", "similar_stop_id": "1671_01"}}, {"type": "Feature", "geometry": {"type": "Point", "coordinates": [143.386566666667, 44.3199233333333]}, "properties": {"similar_stop_name": "オホーツク流氷公園", "similar_stop_id": "1692_01"}}, {"type": "Feature", "geometry": {"type": "Point", "coordinates": [143.8386371428575, 43.8069775]}, "properties": {"similar_stop_name": "卸町１丁目", "similar_stop_id": "1830_01"}}, {"type": "Feature", "geometry": {"type": "Point", "coordinates": [143.8326, 43.80544]}, "properties": {"similar_stop_name": "卸売団地", "similar_stop_id": "1826_01"}}, {"type": "Feature", "geometry": {"type": "Point", "coordinates": [143.508602857143, 43.758525]}, "properties": {"similar_stop_name": "温根湯", "similar_stop_id": "1834_01"}}, {"type": "Feature", "geometry": {"type": "Point", "coordinates": [143.5064514285715, 43.757155]}, "properties": {"similar_stop_name": "おんねゆ診療所", "similar_stop_id": "1393_01"}}, {"type": "Feature", "geometry": {"type": "Point", "coordinates": [143.5143971428575, 43.75647500000005]}, "properties": {"similar_stop_name": "温根湯スポーツセンター", "similar_stop_id": "3408_01"}}, {"type": "Feature", "geometry": {"type": "Point", "coordinates": [143.503817142857, 43.7536675]}, "properties": {"similar_stop_name": "温根湯西５条", "similar_stop_id": "1523_01"}}, {"type": "Feature", "geometry": {"type": "Point", "coordinates": [143.50714, 43.754565]}, "properties": {"similar_stop_name": "温根湯農協", "similar_stop_id": "8075_01"}}, {"type": "Feature", "geometry": {"type": "Point", "coordinates": [143.5097542857145, 43.7570625]}, "properties": {"similar_stop_name": "温根湯東２条", "similar_stop_id": "1653_01"}}, {"type": "Feature", "geometry": {"type": "Point", "coordinates": [143.531812380952, 44.094869166666655]}, "properties": {"similar_stop_name": "開盛", "similar_stop_id": "2006_01"}}, {"type": "Feature", "geometry": {"type": "Point", "coordinates": [143.5335, 44.09677833333335]}, "properties": {"similar_stop_name": "開盛市街", "similar_stop_id": "2010_01"}}, {"type": "Feature", "geometry": {"type": "Point", "coordinates": [143.529319047619, 44.06944166666665]}, "properties": {"similar_stop_name": "開発事務所", "similar_stop_id": "2014_01"}}, {"type": "Feature", "geometry": {"type": "Point", "coordinates": [143.90923428571398, 43.809192499999995]}, "properties": {"similar_stop_name": "香りゃんせ公園入口", "similar_stop_id": "6220_01"}}, {"type": "Feature", "geometry": {"type": "Point", "coordinates": [144.0250366190475, 43.7012725]}, "properties": {"similar_stop_name": "河岸公園", "similar_stop_id": "9820_01"}}, {"type": "Feature", "geometry": {"type": "Point", "coordinates": [143.90706571428552, 43.824955]}, "properties": {"similar_stop_name": "北見カーリングホール", "similar_stop_id": "2076_01"}}, {"type": "Feature", "geometry": {"type": "Point", "coordinates": [143.890182857143, 43.808932500000026]}, "properties": {"similar_stop_name": "学園通", "similar_stop_id": "2078_01"}}, {"type": "Feature", "geometry": {"type": "Point", "coordinates": [143.5319695238095, 44.0817041666667]}, "properties": {"similar_stop_name": "学田３丁目", "similar_stop_id": "2226_01"}}, {"type": "Feature", "geometry": {"type": "Point", "coordinates": [143.5971142857145, 43.68136]}, "properties": {"similar_stop_name": "学友橋", "similar_stop_id": "2090_01"}}, {"type": "Feature", "geometry": {"type": "Point", "coordinates": [143.879537142857, 43.81408000000005]}, "properties": {"similar_stop_name": "花月町", "similar_stop_id": "2018_01"}}, {"type": "Feature", "geometry": {"type": "Point", "coordinates": [143.513238095238, 43.8680791666667]}, "properties": {"similar_stop_name": "梶田の沢入口", "similar_stop_id": "4022_01"}}, {"type": "Feature", "geometry": {"type": "Point", "coordinates": [144.023766666666, 43.7152233333334]}, "properties": {"similar_stop_name": "柏町１号", "similar_stop_id": "4028_01"}}, {"type": "Feature", "geometry": {"type": "Point", "coordinates": [143.8969257142855, 43.801390000000055]}, "properties": {"similar_stop_name": "風の子公園", "similar_stop_id": "7236_01"}}, {"type": "Feature", "geometry": {"type": "Point", "coordinates": [143.99939999999998, 43.88565083333335]}, "properties": {"similar_stop_name": "家畜市場", "similar_stop_id": "2022_01"}}, {"type": "Feature", "geometry": {"type": "Point", "coordinates": [144.05348761904798, 43.74517666666665]}, "properties": {"similar_stop_name": "活汲", "similar_stop_id": "2000_01"}}, {"type": "Feature", "geometry": {"type": "Point", "coordinates": [144.050379047619, 43.73986916666665]}, "properties": {"similar_stop_name": "活汲第一", "similar_stop_id": "2002_01"}}, {"type": "Feature", "geometry": {"type": "Point", "coordinates": [144.06667333333348, 43.75701]}, "properties": {"similar_stop_name": "活汲４７線", "similar_stop_id": "347_01"}}, {"type": "Feature", "geometry": {"type": "Point", "coordinates": [144.0637095238095, 43.75364166666665]}, "properties": {"similar_stop_name": "活汲４８線", "similar_stop_id": "348_01"}}, {"type": "Feature", "geometry": {"type": "Point", "coordinates": [144.05822190476198, 43.75035333333335]}, "properties": {"similar_stop_name": "活汲４９線", "similar_stop_id": "349_01"}}, {"type": "Feature", "geometry": {"type": "Point", "coordinates": [144.0461523809525, 43.7380533333333]}, "properties": {"similar_stop_name": "活汲５２線", "similar_stop_id": "352_01"}}, {"type": "Feature", "geometry": {"type": "Point", "coordinates": [144.0348666666665, 43.732539166666655]}, "properties": {"similar_stop_name": "活汲５４線", "similar_stop_id": "354_01"}}, {"type": "Feature", "geometry": {"type": "Point", "coordinates": [143.5079685714285, 43.636889999999994]}, "properties": {"similar_stop_name": "勝山", "similar_stop_id": "2028_01"}}, {"type": "Feature", "geometry": {"type": "Point", "coordinates": [143.4937, 43.63235]}, "properties": {"similar_stop_name": "勝山温泉", "similar_stop_id": "2030_01"}}, {"type": "Feature", "geometry": {"type": "Point", "coordinates": [143.50832857142848, 43.63858999999999]}, "properties": {"similar_stop_name": "勝山中央", "similar_stop_id": "2026_01"}}, {"type": "Feature", "geometry": {"type": "Point", "coordinates": [143.5072028571425, 43.640765]}, "properties": {"similar_stop_name": "勝山橋", "similar_stop_id": "2032_01"}}, {"type": "Feature", "geometry": {"type": "Point", "coordinates": [143.86218000000002, 43.807140000000004]}, "properties": {"similar_stop_name": "桂町１丁目", "similar_stop_id": "6824_01"}}, {"type": "Feature", "geometry": {"type": "Point", "coordinates": [143.5458676190475, 44.22903]}, "properties": {"similar_stop_name": "加藤牧場", "similar_stop_id": "2034_01"}}, {"type": "Feature", "geometry": {"type": "Point", "coordinates": [143.5376761904765, 43.9168725]}, "properties": {"similar_stop_name": "金山通", "similar_stop_id": "2258_01"}}, {"type": "Feature", "geometry": {"type": "Point", "coordinates": [143.607397142857, 43.6855275]}, "properties": {"similar_stop_name": "上鉱山", "similar_stop_id": "2040_01"}}, {"type": "Feature", "geometry": {"type": "Point", "coordinates": [143.8819666666665, 43.85642]}, "properties": {"similar_stop_name": "上仁頃入口", "similar_stop_id": "2050_01"}}, {"type": "Feature", "geometry": {"type": "Point", "coordinates": [143.83823619047598, 43.7564875]}, "properties": {"similar_stop_name": "上常呂", "similar_stop_id": "2044_01"}}, {"type": "Feature", "geometry": {"type": "Point", "coordinates": [143.8345789857145, 43.75440471]}, "properties": {"similar_stop_name": "上常呂１０号線", "similar_stop_id": "9210_01"}}, {"type": "Feature", "geometry": {"type": "Point", "coordinates": [143.8282025857145, 43.75059839]}, "properties": {"similar_stop_name": "上常呂１１号線", "similar_stop_id": "9411_01"}}, {"type": "Feature", "geometry": {"type": "Point", "coordinates": [143.8212857333335, 43.74832068333335]}, "properties": {"similar_stop_name": "上常呂１２号線", "similar_stop_id": "9312_01"}}, {"type": "Feature", "geometry": {"type": "Point", "coordinates": [143.8147341285715, 43.74523529]}, "properties": {"similar_stop_name": "上常呂１３号線", "similar_stop_id": "9213_01"}}, {"type": "Feature", "geometry": {"type": "Point", "coordinates": [143.808183314286, 43.74245954]}, "properties": {"similar_stop_name": "上常呂１４号線", "similar_stop_id": "9214_01"}}, {"type": "Feature", "geometry": {"type": "Point", "coordinates": [143.802320542857, 43.741392520000005]}, "properties": {"similar_stop_name": "上常呂１５号線", "similar_stop_id": "9315_01"}}, {"type": "Feature", "geometry": {"type": "Point", "coordinates": [143.844273333333, 43.75985]}, "properties": {"similar_stop_name": "上常呂小学校", "similar_stop_id": "2046_01"}}, {"type": "Feature", "geometry": {"type": "Point", "coordinates": [144.083904761905, 43.78827666666665]}, "properties": {"similar_stop_name": "上美幌", "similar_stop_id": "2054_01"}}, {"type": "Feature", "geometry": {"type": "Point", "coordinates": [143.569519047619, 44.14729416666665]}, "properties": {"similar_stop_name": "上湧別", "similar_stop_id": "2056_01"}}, {"type": "Feature", "geometry": {"type": "Point", "coordinates": [143.5674523809525, 44.144129166666644]}, "properties": {"similar_stop_name": "上湧別小学校", "similar_stop_id": "2206_01"}}, {"type": "Feature", "geometry": {"type": "Point", "coordinates": [143.718819047619, 43.5550816666667]}, "properties": {"similar_stop_name": "川上", "similar_stop_id": "2073_01"}}, {"type": "Feature", "geometry": {"type": "Point", "coordinates": [143.583123809524, 44.219030000000004]}, "properties": {"similar_stop_name": "川西", "similar_stop_id": "2072_01"}}, {"type": "Feature", "geometry": {"type": "Point", "coordinates": [143.589657142857, 44.21735999999995]}, "properties": {"similar_stop_name": "川西３線", "similar_stop_id": "2062_01"}}, {"type": "Feature", "geometry": {"type": "Point", "coordinates": [143.577357142857, 44.220878333333346]}, "properties": {"similar_stop_name": "川西５線", "similar_stop_id": "2064_01"}}, {"type": "Feature", "geometry": {"type": "Point", "coordinates": [143.57027619047648, 44.2231808333333]}, "properties": {"similar_stop_name": "川西６線", "similar_stop_id": "2066_01"}}, {"type": "Feature", "geometry": {"type": "Point", "coordinates": [143.563680952381, 44.22533166666665]}, "properties": {"similar_stop_name": "川西７線", "similar_stop_id": "2068_01"}}, {"type": "Feature", "geometry": {"type": "Point", "coordinates": [143.5554333333335, 44.22757249999995]}, "properties": {"similar_stop_name": "川西８線", "similar_stop_id": "2070_01"}}, {"type": "Feature", "geometry": {"type": "Point", "coordinates": [143.87750444444467, 43.82929444444443]}, "properties": {"similar_stop_name": "北６線", "similar_stop_id": "2224_01"}}, {"type": "Feature", "geometry": {"type": "Point", "coordinates": [143.90289428571452, 43.81620250000005]}, "properties": {"similar_stop_name": "北網圏文化センター", "similar_stop_id": "6836_01"}}, {"type": "Feature", "geometry": {"type": "Point", "coordinates": [143.8536712, 43.76367218000005]}, "properties": {"similar_stop_name": "北上７号線", "similar_stop_id": "9407_01"}}, {"type": "Feature", "geometry": {"type": "Point", "coordinates": [143.848443357143, 43.76108179]}, "properties": {"similar_stop_name": "北上８号線", "similar_stop_id": "9408_01"}}, {"type": "Feature", "geometry": {"type": "Point", "coordinates": [143.87618, 43.81184500000005]}, "properties": {"similar_stop_name": "北小学校", "similar_stop_id": "2234_01"}}, {"type": "Feature", "geometry": {"type": "Point", "coordinates": [143.902122857143, 43.825562500000004]}, "properties": {"similar_stop_name": "北苑寮", "similar_stop_id": "6818_01"}}, {"type": "Feature", "geometry": {"type": "Point", "coordinates": [143.868317142857, 43.81844]}, "properties": {"similar_stop_name": "北地区トレセン", "similar_stop_id": "2816_01"}}, {"type": "Feature", "geometry": {"type": "Point", "coordinates": [143.875197638216, 43.8206381897131]}, "properties": {"similar_stop_name": "北中学校", "similar_stop_id": "2236_01"}}, {"type": "Feature", "geometry": {"type": "Point", "coordinates": [143.8612411285715, 43.767640153333346]}, "properties": {"similar_stop_name": "北糖工場", "similar_stop_id": "6834_01"}}, {"type": "Feature", "geometry": {"type": "Point", "coordinates": [143.912576190476, 43.92424083333335]}, "properties": {"similar_stop_name": "北登", "similar_stop_id": "6832_01"}}, {"type": "Feature", "geometry": {"type": "Point", "coordinates": [143.89230941428548, 43.78510362]}, "properties": {"similar_stop_name": "北光１号線", "similar_stop_id": "6800_01"}}, {"type": "Feature", "geometry": {"type": "Point", "coordinates": [143.8865680857145, 43.78472621]}, "properties": {"similar_stop_name": "北光２号線", "similar_stop_id": "6802_01"}}, {"type": "Feature", "geometry": {"type": "Point", "coordinates": [143.87410104285698, 43.78373761]}, "properties": {"similar_stop_name": "北光４号線", "similar_stop_id": "6806_01"}}, {"type": "Feature", "geometry": {"type": "Point", "coordinates": [143.87192367619048, 43.778691816666694]}, "properties": {"similar_stop_name": "北光社", "similar_stop_id": "6808_01"}}, {"type": "Feature", "geometry": {"type": "Point", "coordinates": [143.58602095238052, 44.17414833333335]}, "properties": {"similar_stop_name": "北兵村１区", "similar_stop_id": "546_01"}}, {"type": "Feature", "geometry": {"type": "Point", "coordinates": [143.8969904761905, 43.80583416666665]}, "properties": {"similar_stop_name": "北見駅", "similar_stop_id": "1602_01"}}, {"type": "Feature", "geometry": {"type": "Point", "coordinates": [143.8288, 43.80521]}, "properties": {"similar_stop_name": "北見卸売市場", "similar_stop_id": "1828_01"}}, {"type": "Feature", "geometry": {"type": "Point", "coordinates": [143.639183809524, 43.78670583333335]}, "properties": {"similar_stop_name": "北見温泉", "similar_stop_id": "2240_01"}}, {"type": "Feature", "geometry": {"type": "Point", "coordinates": [143.53281619047652, 43.9697675]}, "properties": {"similar_stop_name": "記念碑", "similar_stop_id": "2248_01"}}, {"type": "Feature", "geometry": {"type": "Point", "coordinates": [143.510672380952, 44.24410416666665]}, "properties": {"similar_stop_name": "キャンプ場入口", "similar_stop_id": "2200_01"}}, {"type": "Feature", "geometry": {"type": "Point", "coordinates": [143.65520761904747, 43.71214166666665]}, "properties": {"similar_stop_name": "境野２号線", "similar_stop_id": "3202_01"}}, {"type": "Feature", "geometry": {"type": "Point", "coordinates": [144.03528571428552, 44.083300833333354]}, "properties": {"similar_stop_name": "共立", "similar_stop_id": "2208_01"}}, {"type": "Feature", "geometry": {"type": "Point", "coordinates": [144.04929835714302, 44.094383]}, "properties": {"similar_stop_name": "共立７号線", "similar_stop_id": "9307_01"}}, {"type": "Feature", "geometry": {"type": "Point", "coordinates": [144.04348076666702, 44.09091043666665]}, "properties": {"similar_stop_name": "共立８号線", "similar_stop_id": "9308_01"}}, {"type": "Feature", "geometry": {"type": "Point", "coordinates": [143.47042380952348, 44.2656058333333]}, "properties": {"similar_stop_name": "共和", "similar_stop_id": "2210_01"}}, {"type": "Feature", "geometry": {"type": "Point", "coordinates": [144.02666, 43.700050000000005]}, "properties": {"similar_stop_name": "共和生きがいセンター", "similar_stop_id": "2212_01"}}, {"type": "Feature", "geometry": {"type": "Point", "coordinates": [143.8855914285715, 43.817657499999996]}, "properties": {"similar_stop_name": "清見中央", "similar_stop_id": "2252_01"}}, {"type": "Feature", "geometry": {"type": "Point", "coordinates": [143.88879428571448, 43.8178725]}, "properties": {"similar_stop_name": "清見町", "similar_stop_id": "2254_01"}}, {"type": "Feature", "geometry": {"type": "Point", "coordinates": [143.509520000001, 43.8596550000002]}, "properties": {"similar_stop_name": "キララン清里", "similar_stop_id": "2250_01"}}, {"type": "Feature", "geometry": {"type": "Point", "coordinates": [144.095080952381, 43.8476475]}, "properties": {"similar_stop_name": "グリーンタウン", "similar_stop_id": "2404_01"}}, {"type": "Feature", "geometry": {"type": "Point", "coordinates": [143.86552666666648, 43.78543416666665]}, "properties": {"similar_stop_name": "グリーン団地", "similar_stop_id": "6202_01"}}, {"type": "Feature", "geometry": {"type": "Point", "coordinates": [143.73838, 43.72712166666665]}, "properties": {"similar_stop_name": "訓子府", "similar_stop_id": "2400_01"}}, {"type": "Feature", "geometry": {"type": "Point", "coordinates": [143.734022136508, 43.72674054444443]}, "properties": {"similar_stop_name": "訓子府２５号線", "similar_stop_id": "9810_01"}}, {"type": "Feature", "geometry": {"type": "Point", "coordinates": [143.738247619048, 43.7288966666667]}, "properties": {"similar_stop_name": "訓子府駅", "similar_stop_id": "2403_01"}}, {"type": "Feature", "geometry": {"type": "Point", "coordinates": [143.750143809524, 43.72824833333335]}, "properties": {"similar_stop_name": "訓子府温泉入口", "similar_stop_id": "2402_01"}}, {"type": "Feature", "geometry": {"type": "Point", "coordinates": [143.742551428571, 43.7274525]}, "properties": {"similar_stop_name": "訓子府東町", "similar_stop_id": "6246_01"}}, {"type": "Feature", "geometry": {"type": "Point", "coordinates": [143.900034285714, 43.813097500000055]}, "properties": {"similar_stop_name": "警察署", "similar_stop_id": "4850_01"}}, {"type": "Feature", "geometry": {"type": "Point", "coordinates": [143.5255619047615, 44.05833083333335]}, "properties": {"similar_stop_name": "げんき２１", "similar_stop_id": "516_01"}}, {"type": "Feature", "geometry": {"type": "Point", "coordinates": [143.4320742857145, 44.28793666666665]}, "properties": {"similar_stop_name": "原生花園", "similar_stop_id": "2604_01"}}, {"type": "Feature", "geometry": {"type": "Point", "coordinates": [143.91775047619066, 43.82356166666667]}, "properties": {"similar_stop_name": "小泉７号", "similar_stop_id": "6230_01"}}, {"type": "Feature", "geometry": {"type": "Point", "coordinates": [143.92320487417498, 43.82689320017575]}, "properties": {"similar_stop_name": "小泉８号", "similar_stop_id": "2800_01"}}, {"type": "Feature", "geometry": {"type": "Point", "coordinates": [143.922408571429, 43.821485]}, "properties": {"similar_stop_name": "小泉小学校", "similar_stop_id": "2802_01"}}, {"type": "Feature", "geometry": {"type": "Point", "coordinates": [143.92070857142852, 43.825477500000005]}, "properties": {"similar_stop_name": "小泉団地", "similar_stop_id": "2804_01"}}, {"type": "Feature", "geometry": {"type": "Point", "coordinates": [143.91302857142853, 43.819950000000006]}, "properties": {"similar_stop_name": "小泉中学校入口", "similar_stop_id": "2807_01"}}, {"type": "Feature", "geometry": {"type": "Point", "coordinates": [143.87546285714302, 43.8140925]}, "properties": {"similar_stop_name": "高栄３号線", "similar_stop_id": "2218_01"}}, {"type": "Feature", "geometry": {"type": "Point", "coordinates": [143.8690657142855, 43.81392000000005]}, "properties": {"similar_stop_name": "高栄４号線", "similar_stop_id": "2818_01"}}, {"type": "Feature", "geometry": {"type": "Point", "coordinates": [143.857088571428, 43.811805]}, "properties": {"similar_stop_name": "高栄６号線", "similar_stop_id": "2817_01"}}, {"type": "Feature", "geometry": {"type": "Point", "coordinates": [143.85984505661466, 43.813261055242066]}, "properties": {"similar_stop_name": "高栄小学校", "similar_stop_id": "2808_01"}}, {"type": "Feature", "geometry": {"type": "Point", "coordinates": [143.8584, 43.81474]}, "properties": {"similar_stop_name": "高栄商店街入口", "similar_stop_id": "4806_02"}}, {"type": "Feature", "geometry": {"type": "Point", "coordinates": [143.86436, 43.8135875]}, "properties": {"similar_stop_name": "高栄団地入口", "similar_stop_id": "2814_01"}}, {"type": "Feature", "geometry": {"type": "Point", "coordinates": [143.866070476191, 43.8087283333333]}, "properties": {"similar_stop_name": "高栄西町１丁目", "similar_stop_id": "554_01"}}, {"type": "Feature", "geometry": {"type": "Point", "coordinates": [143.871157142857, 43.81665]}, "properties": {"similar_stop_name": "高栄東町３丁目", "similar_stop_id": "1006_01"}}, {"type": "Feature", "geometry": {"type": "Point", "coordinates": [143.8622226714285, 43.814939960000004]}, "properties": {"similar_stop_name": "高栄美山通", "similar_stop_id": "9890_01"}}, {"type": "Feature", "geometry": {"type": "Point", "coordinates": [143.80443809523848, 43.80292]}, "properties": {"similar_stop_name": "工業高校", "similar_stop_id": "2826_01"}}, {"type": "Feature", "geometry": {"type": "Point", "coordinates": [143.90525428571402, 43.823967499999995]}, "properties": {"similar_stop_name": "工業大学正門", "similar_stop_id": "2840_01"}}, {"type": "Feature", "geometry": {"type": "Point", "coordinates": [143.9109685714285, 43.82022]}, "properties": {"similar_stop_name": "工業大学入口", "similar_stop_id": "2838_01"}}, {"type": "Feature", "geometry": {"type": "Point", "coordinates": [143.574925714286, 43.669395]}, "properties": {"similar_stop_name": "公進橋", "similar_stop_id": "2880_01"}}, {"type": "Feature", "geometry": {"type": "Point", "coordinates": [143.8690095238095, 43.79876]}, "properties": {"similar_stop_name": "光西中学校", "similar_stop_id": "2832_01"}}, {"type": "Feature", "geometry": {"type": "Point", "coordinates": [143.5341599999995, 43.9810825]}, "properties": {"similar_stop_name": "向陽園", "similar_stop_id": "2844_01"}}, {"type": "Feature", "geometry": {"type": "Point", "coordinates": [143.5949285714285, 44.1885891666667]}, "properties": {"similar_stop_name": "五鹿山通", "similar_stop_id": "2870_01"}}, {"type": "Feature", "geometry": {"type": "Point", "coordinates": [143.8664428571425, 43.7934525]}, "properties": {"similar_stop_name": "小町川大橋", "similar_stop_id": "2854_01"}}, {"type": "Feature", "geometry": {"type": "Point", "coordinates": [143.4527285714285, 44.2765725]}, "properties": {"similar_stop_name": "小向", "similar_stop_id": "2864_01"}}, {"type": "Feature", "geometry": {"type": "Point", "coordinates": [143.440445714286, 44.2870216666667]}, "properties": {"similar_stop_name": "小向１１線", "similar_stop_id": "2858_01"}}, {"type": "Feature", "geometry": {"type": "Point", "coordinates": [143.455353333333, 44.2739675]}, "properties": {"similar_stop_name": "小向１４線", "similar_stop_id": "2860_01"}}, {"type": "Feature", "geometry": {"type": "Point", "coordinates": [143.41496857142852, 44.2935175]}, "properties": {"similar_stop_name": "小向７線", "similar_stop_id": "2862_01"}}, {"type": "Feature", "geometry": {"type": "Point", "coordinates": [143.8504115363815, 43.826838123860796]}, "properties": {"similar_stop_name": "斉藤宅前（大正）", "similar_stop_id": "9000_01"}}, {"type": "Feature", "geometry": {"type": "Point", "coordinates": [143.6600447619045, 43.71445083333335]}, "properties": {"similar_stop_name": "境野", "similar_stop_id": "3002_01"}}, {"type": "Feature", "geometry": {"type": "Point", "coordinates": [143.7384428571425, 43.474112500000004]}, "properties": {"similar_stop_name": "栄町", "similar_stop_id": "3007_01"}}, {"type": "Feature", "geometry": {"type": "Point", "coordinates": [143.61075142857152, 43.7862575]}, "properties": {"similar_stop_name": "栄町１区", "similar_stop_id": "3010_01"}}, {"type": "Feature", "geometry": {"type": "Point", "coordinates": [143.9146238095235, 43.933359166666705]}, "properties": {"similar_stop_name": "三号峠", "similar_stop_id": "538_01"}}, {"type": "Feature", "geometry": {"type": "Point", "coordinates": [143.836, 43.80395]}, "properties": {"similar_stop_name": "サントライ北見", "similar_stop_id": "7234_01"}}, {"type": "Feature", "geometry": {"type": "Point", "coordinates": [143.8929, 43.819075000000055]}, "properties": {"similar_stop_name": "市営球場入口", "similar_stop_id": "4814_01"}}, {"type": "Feature", "geometry": {"type": "Point", "coordinates": [143.56877714285702, 43.656499999999994]}, "properties": {"similar_stop_name": "実習橋", "similar_stop_id": "3250_01"}}, {"type": "Feature", "geometry": {"type": "Point", "coordinates": [143.5285523809525, 44.05737083333335]}, "properties": {"similar_stop_name": "シティえんがる", "similar_stop_id": "520_01"}}, {"type": "Feature", "geometry": {"type": "Point", "coordinates": [143.901308571429, 43.819010000000006]}, "properties": {"similar_stop_name": "児童相談所", "similar_stop_id": "3244_01"}}, {"type": "Feature", "geometry": {"type": "Point", "coordinates": [143.890157142857, 43.7999916666667]}, "properties": {"similar_stop_name": "市民会館", "similar_stop_id": "3226_01"}}, {"type": "Feature", "geometry": {"type": "Point", "coordinates": [143.6105295238095, 43.6884825]}, "properties": {"similar_stop_name": "下鉱山", "similar_stop_id": "3228_01"}}, {"type": "Feature", "geometry": {"type": "Point", "coordinates": [143.91294571428602, 43.8262275]}, "properties": {"similar_stop_name": "修覚寺", "similar_stop_id": "3200_01"}}, {"type": "Feature", "geometry": {"type": "Point", "coordinates": [143.915476190476, 43.82169500000005]}, "properties": {"similar_stop_name": "春光町３丁目", "similar_stop_id": "3204_01"}}, {"type": "Feature", "geometry": {"type": "Point", "coordinates": [143.926102857143, 43.82469000000005]}, "properties": {"similar_stop_name": "春光町４丁目", "similar_stop_id": "3206_01"}}, {"type": "Feature", "geometry": {"type": "Point", "coordinates": [143.9196857142855, 43.8193675000001]}, "properties": {"similar_stop_name": "春光町５丁目", "similar_stop_id": "3208_01"}}, {"type": "Feature", "geometry": {"type": "Point", "coordinates": [143.547882857143, 43.76418000000005]}, "properties": {"similar_stop_name": "昭栄１０号線", "similar_stop_id": "210_01"}}, {"type": "Feature", "geometry": {"type": "Point", "coordinates": [143.5384765285715, 43.762089950000004]}, "properties": {"similar_stop_name": "昭栄１１号線", "similar_stop_id": "9211_01"}}, {"type": "Feature", "geometry": {"type": "Point", "coordinates": [143.5287371428575, 43.7595925]}, "properties": {"similar_stop_name": "昭栄１３号線", "similar_stop_id": "213_01"}}, {"type": "Feature", "geometry": {"type": "Point", "coordinates": [143.554123842857, 43.7672285]}, "properties": {"similar_stop_name": "昭栄９号線", "similar_stop_id": "9209_01"}}, {"type": "Feature", "geometry": {"type": "Point", "coordinates": [143.67875238095252, 43.587847499999995]}, "properties": {"similar_stop_name": "小利別", "similar_stop_id": "3251_01"}}, {"type": "Feature", "geometry": {"type": "Point", "coordinates": [143.8920114285715, 43.7965225]}, "properties": {"similar_stop_name": "常盤町", "similar_stop_id": "4820_01"}}, {"type": "Feature", "geometry": {"type": "Point", "coordinates": [143.88232, 43.81267500000005]}, "properties": {"similar_stop_name": "消防署", "similar_stop_id": "3210_01"}}, {"type": "Feature", "geometry": {"type": "Point", "coordinates": [143.87538095238102, 43.849945]}, "properties": {"similar_stop_name": "昭和", "similar_stop_id": "1400_01"}}, {"type": "Feature", "geometry": {"type": "Point", "coordinates": [143.87522380952402, 43.83509]}, "properties": {"similar_stop_name": "昭和橋", "similar_stop_id": "3212_01"}}, {"type": "Feature", "geometry": {"type": "Point", "coordinates": [143.535976190476, 43.919767500000006]}, "properties": {"similar_stop_name": "神社通", "similar_stop_id": "3246_01"}}, {"type": "Feature", "geometry": {"type": "Point", "coordinates": [143.5326095238095, 44.2322475]}, "properties": {"similar_stop_name": "信部内", "similar_stop_id": "3224_01"}}, {"type": "Feature", "geometry": {"type": "Point", "coordinates": [143.7384, 43.71798]}, "properties": {"similar_stop_name": "末広", "similar_stop_id": "3400_01"}}, {"type": "Feature", "geometry": {"type": "Point", "coordinates": [143.540831428571, 44.05341]}, "properties": {"similar_stop_name": "スポーツ公園", "similar_stop_id": "3406_01"}}, {"type": "Feature", "geometry": {"type": "Point", "coordinates": [143.9094485714285, 43.827400000000054]}, "properties": {"similar_stop_name": "聖徳寺", "similar_stop_id": "2214_01"}}, {"type": "Feature", "geometry": {"type": "Point", "coordinates": [143.506862857143, 43.756265]}, "properties": {"similar_stop_name": "大泉寺", "similar_stop_id": "4133_01"}}, {"type": "Feature", "geometry": {"type": "Point", "coordinates": [143.8731857142855, 43.84169083333335]}, "properties": {"similar_stop_name": "大正入口", "similar_stop_id": "4002_01"}}, {"type": "Feature", "geometry": {"type": "Point", "coordinates": [143.8586069, 43.8315068]}, "properties": {"similar_stop_name": "大正ゴルフ場入口", "similar_stop_id": "4004_01"}}, {"type": "Feature", "geometry": {"type": "Point", "coordinates": [143.84309553507532, 43.8171246917101]}, "properties": {"similar_stop_name": "大正神社入口", "similar_stop_id": "2004_01"}}, {"type": "Feature", "geometry": {"type": "Point", "coordinates": [143.83441731428547, 43.81169572]}, "properties": {"similar_stop_name": "大正橋", "similar_stop_id": "4006_01"}}, {"type": "Feature", "geometry": {"type": "Point", "coordinates": [143.8399206, 43.82315397]}, "properties": {"similar_stop_name": "大正福祉会館", "similar_stop_id": "4008_01"}}, {"type": "Feature", "geometry": {"type": "Point", "coordinates": [143.89573274761898, 43.883795546666704]}, "properties": {"similar_stop_name": "大和", "similar_stop_id": "9045_01"}}, {"type": "Feature", "geometry": {"type": "Point", "coordinates": [143.53535238095202, 43.998998333333304]}, "properties": {"similar_stop_name": "大和団地", "similar_stop_id": "4048_01"}}, {"type": "Feature", "geometry": {"type": "Point", "coordinates": [144.024061904762, 43.72010833333335]}, "properties": {"similar_stop_name": "高台町", "similar_stop_id": "4012_01"}}, {"type": "Feature", "geometry": {"type": "Point", "coordinates": [144.083004761905, 43.856607499999996]}, "properties": {"similar_stop_name": "高野第三", "similar_stop_id": "4018_01"}}, {"type": "Feature", "geometry": {"type": "Point", "coordinates": [144.04747809523798, 43.8745275]}, "properties": {"similar_stop_name": "高野第一", "similar_stop_id": "4016_01"}}, {"type": "Feature", "geometry": {"type": "Point", "coordinates": [144.06300571428602, 43.87431166666665]}, "properties": {"similar_stop_name": "高野中央", "similar_stop_id": "4020_01"}}, {"type": "Feature", "geometry": {"type": "Point", "coordinates": [143.569845714286, 43.66771250000005]}, "properties": {"similar_stop_name": "拓実入口", "similar_stop_id": "4026_01"}}, {"type": "Feature", "geometry": {"type": "Point", "coordinates": [143.574437142857, 43.67004]}, "properties": {"similar_stop_name": "拓殖橋", "similar_stop_id": "4024_01"}}, {"type": "Feature", "geometry": {"type": "Point", "coordinates": [144.030434285714, 43.7280875]}, "properties": {"similar_stop_name": "達美５５線", "similar_stop_id": "355_01"}}, {"type": "Feature", "geometry": {"type": "Point", "coordinates": [144.02681047619, 43.72415166666665]}, "properties": {"similar_stop_name": "達美会館", "similar_stop_id": "4030_01"}}, {"type": "Feature", "geometry": {"type": "Point", "coordinates": [143.91405428571449, 43.81413250000005]}, "properties": {"similar_stop_name": "田端５号線", "similar_stop_id": "6224_01"}}, {"type": "Feature", "geometry": {"type": "Point", "coordinates": [143.9177828571425, 43.81786250000005]}, "properties": {"similar_stop_name": "田端６号線", "similar_stop_id": "6226_01"}}, {"type": "Feature", "geometry": {"type": "Point", "coordinates": [143.91106000000002, 43.81851]}, "properties": {"similar_stop_name": "田端町", "similar_stop_id": "4032_01"}}, {"type": "Feature", "geometry": {"type": "Point", "coordinates": [143.91550285714249, 43.81560500000005]}, "properties": {"similar_stop_name": "田端変電所", "similar_stop_id": "6602_01"}}, {"type": "Feature", "geometry": {"type": "Point", "coordinates": [143.96736190476202, 43.88629833333335]}, "properties": {"similar_stop_name": "端野１区", "similar_stop_id": "4034_01"}}, {"type": "Feature", "geometry": {"type": "Point", "coordinates": [143.9474857142855, 43.858519166666696]}, "properties": {"similar_stop_name": "端野公民館入口", "similar_stop_id": "6214_01"}}, {"type": "Feature", "geometry": {"type": "Point", "coordinates": [143.939080952381, 43.849285]}, "properties": {"similar_stop_name": "端野農協", "similar_stop_id": "6212_01"}}, {"type": "Feature", "geometry": {"type": "Point", "coordinates": [143.9799285714285, 43.88613333333335]}, "properties": {"similar_stop_name": "端野病院", "similar_stop_id": "4036_01"}}, {"type": "Feature", "geometry": {"type": "Point", "coordinates": [143.9442095238095, 43.85457833333335]}, "properties": {"similar_stop_name": "端野郵便局", "similar_stop_id": "4038_01"}}, {"type": "Feature", "geometry": {"type": "Point", "coordinates": [143.8645, 43.79332]}, "properties": {"similar_stop_name": "地域訓練センター", "similar_stop_id": "4210_01"}}, {"type": "Feature", "geometry": {"type": "Point", "coordinates": [143.887976190476, 43.69645166666665]}, "properties": {"similar_stop_name": "チミケップ入口", "similar_stop_id": "4212_01"}}, {"type": "Feature", "geometry": {"type": "Point", "coordinates": [143.52925238095202, 43.9264616666667]}, "properties": {"similar_stop_name": "ちゃちゃワールド", "similar_stop_id": "2230_01"}}, {"type": "Feature", "geometry": {"type": "Point", "coordinates": [143.9513568047615, 43.8786170666667]}, "properties": {"similar_stop_name": "忠志入口", "similar_stop_id": "9802_01"}}, {"type": "Feature", "geometry": {"type": "Point", "coordinates": [143.5763256571425, 44.158497383333355]}, "properties": {"similar_stop_name": "チューリップ公園", "similar_stop_id": "9515_01"}}, {"type": "Feature", "geometry": {"type": "Point", "coordinates": [144.0307866666665, 43.701379166666655]}, "properties": {"similar_stop_name": "町営バス車庫", "similar_stop_id": "4206_01"}}, {"type": "Feature", "geometry": {"type": "Point", "coordinates": [143.868534285714, 43.81682]}, "properties": {"similar_stop_name": "つつじ公園", "similar_stop_id": "4402_01"}}, {"type": "Feature", "geometry": {"type": "Point", "coordinates": [143.5172142857145, 44.01506]}, "properties": {"similar_stop_name": "角橋", "similar_stop_id": "2016_01"}}, {"type": "Feature", "geometry": {"type": "Point", "coordinates": [144.02530000000002, 43.709355000000045]}, "properties": {"similar_stop_name": "津別旭町", "similar_stop_id": "1030_01"}}, {"type": "Feature", "geometry": {"type": "Point", "coordinates": [144.025847619048, 43.7224925]}, "properties": {"similar_stop_name": "津別高栄団地", "similar_stop_id": "2812_01"}}, {"type": "Feature", "geometry": {"type": "Point", "coordinates": [144.024, 43.70686]}, "properties": {"similar_stop_name": "津別町役場", "similar_stop_id": "4404_01"}}, {"type": "Feature", "geometry": {"type": "Point", "coordinates": [144.0223774142855, 43.70577954666665]}, "properties": {"similar_stop_name": "津別本町", "similar_stop_id": "6848_01"}}, {"type": "Feature", "geometry": {"type": "Point", "coordinates": [143.5802942857145, 44.1648325]}, "properties": {"similar_stop_name": "出合橋", "similar_stop_id": "4608_01"}}, {"type": "Feature", "geometry": {"type": "Point", "coordinates": [143.9654285714285, 44.003405833333346]}, "properties": {"similar_stop_name": "鉄山", "similar_stop_id": "4600_01"}}, {"type": "Feature", "geometry": {"type": "Point", "coordinates": [143.894397142857, 43.8205875]}, "properties": {"similar_stop_name": "テニスコート", "similar_stop_id": "4602_01"}}, {"type": "Feature", "geometry": {"type": "Point", "coordinates": [143.97378095238048, 44.008079166666704]}, "properties": {"similar_stop_name": "東亜入口", "similar_stop_id": "4802_01"}}, {"type": "Feature", "geometry": {"type": "Point", "coordinates": [143.931513333333, 43.841409166666594]}, "properties": {"similar_stop_name": "東武", "similar_stop_id": "6208_01"}}, {"type": "Feature", "geometry": {"type": "Point", "coordinates": [143.8938085714285, 43.809405]}, "properties": {"similar_stop_name": "道立病院", "similar_stop_id": "5204_01"}}, {"type": "Feature", "geometry": {"type": "Point", "coordinates": [143.88942761904775, 43.82108416666665]}, "properties": {"similar_stop_name": "東陵中学校", "similar_stop_id": "4816_01"}}, {"type": "Feature", "geometry": {"type": "Point", "coordinates": [143.8886971428575, 43.791647499999996]}, "properties": {"similar_stop_name": "常盤公園", "similar_stop_id": "4818_01"}}, {"type": "Feature", "geometry": {"type": "Point", "coordinates": [144.0715, 44.1232]}, "properties": {"similar_stop_name": "常呂", "similar_stop_id": "4822_01"}}, {"type": "Feature", "geometry": {"type": "Point", "coordinates": [144.067559571429, 44.116317666666646]}, "properties": {"similar_stop_name": "常呂消防署", "similar_stop_id": "9302_01"}}, {"type": "Feature", "geometry": {"type": "Point", "coordinates": [144.0248835857145, 44.05557016333335]}, "properties": {"similar_stop_name": "富丘入口", "similar_stop_id": "9215_01"}}, {"type": "Feature", "geometry": {"type": "Point", "coordinates": [144.03665189047598, 44.07225353]}, "properties": {"similar_stop_name": "豊川１２号線", "similar_stop_id": "9212_01"}}, {"type": "Feature", "geometry": {"type": "Point", "coordinates": [144.03232857142848, 44.066215]}, "properties": {"similar_stop_name": "豊川１３号線", "similar_stop_id": "4830_01"}}, {"type": "Feature", "geometry": {"type": "Point", "coordinates": [144.020989461905, 44.049212986666646]}, "properties": {"similar_stop_name": "豊川１７号線", "similar_stop_id": "9217_01"}}, {"type": "Feature", "geometry": {"type": "Point", "coordinates": [144.007980857143, 44.039548159999995]}, "properties": {"similar_stop_name": "豊川２０号線", "similar_stop_id": "9220_01"}}, {"type": "Feature", "geometry": {"type": "Point", "coordinates": [144.02980476190498, 44.062705833333354]}, "properties": {"similar_stop_name": "豊川郵便局", "similar_stop_id": "4828_01"}}, {"type": "Feature", "geometry": {"type": "Point", "coordinates": [143.516595238095, 44.03624083333335]}, "properties": {"similar_stop_name": "豊里官舎", "similar_stop_id": "4834_01"}}, {"type": "Feature", "geometry": {"type": "Point", "coordinates": [143.51319999999998, 44.0306933333333]}, "properties": {"similar_stop_name": "豊里団地", "similar_stop_id": "4836_01"}}, {"type": "Feature", "geometry": {"type": "Point", "coordinates": [143.633273747619, 43.70620667]}, "properties": {"similar_stop_name": "豊住５号線", "similar_stop_id": "9305_01"}}, {"type": "Feature", "geometry": {"type": "Point", "coordinates": [143.622619757143, 43.70066448666665]}, "properties": {"similar_stop_name": "豊住７号線", "similar_stop_id": "9507_01"}}, {"type": "Feature", "geometry": {"type": "Point", "coordinates": [143.5308238095235, 43.959955]}, "properties": {"similar_stop_name": "豊原５４号", "similar_stop_id": "4838_01"}}, {"type": "Feature", "geometry": {"type": "Point", "coordinates": [143.52252, 43.9481433333333]}, "properties": {"similar_stop_name": "豊原５７号", "similar_stop_id": "1206_01"}}, {"type": "Feature", "geometry": {"type": "Point", "coordinates": [144.076179047619, 43.77743750000005]}, "properties": {"similar_stop_name": "豊幌４２線", "similar_stop_id": "342_01"}}, {"type": "Feature", "geometry": {"type": "Point", "coordinates": [144.07341904761898, 43.7726991666667]}, "properties": {"similar_stop_name": "豊幌４３線", "similar_stop_id": "343_01"}}, {"type": "Feature", "geometry": {"type": "Point", "coordinates": [144.0703180952385, 43.76746083333335]}, "properties": {"similar_stop_name": "豊幌４５線", "similar_stop_id": "345_01"}}, {"type": "Feature", "geometry": {"type": "Point", "coordinates": [143.919661904762, 43.91953583333335]}, "properties": {"similar_stop_name": "豊実", "similar_stop_id": "4840_01"}}, {"type": "Feature", "geometry": {"type": "Point", "coordinates": [143.88420000000002, 43.794642499999995]}, "properties": {"similar_stop_name": "とん田２号線", "similar_stop_id": "4842_01"}}, {"type": "Feature", "geometry": {"type": "Point", "coordinates": [143.87841428571448, 43.7942575]}, "properties": {"similar_stop_name": "とん田３号線", "similar_stop_id": "4844_01"}}, {"type": "Feature", "geometry": {"type": "Point", "coordinates": [143.87216285714248, 43.79383]}, "properties": {"similar_stop_name": "とん田４号線", "similar_stop_id": "4846_01"}}, {"type": "Feature", "geometry": {"type": "Point", "coordinates": [143.8777741744405, 43.7993682937526]}, "properties": {"similar_stop_name": "とん田仲通", "similar_stop_id": "4848_01"}}, {"type": "Feature", "geometry": {"type": "Point", "coordinates": [143.8754142857145, 43.79405]}, "properties": {"similar_stop_name": "とん田西通", "similar_stop_id": "4852_01"}}, {"type": "Feature", "geometry": {"type": "Point", "coordinates": [143.881745714286, 43.79448]}, "properties": {"similar_stop_name": "とん田東通", "similar_stop_id": "4854_01"}}, {"type": "Feature", "geometry": {"type": "Point", "coordinates": [143.9485095238095, 43.86197416666665]}, "properties": {"similar_stop_name": "屯田の杜公園", "similar_stop_id": "536_01"}}, {"type": "Feature", "geometry": {"type": "Point", "coordinates": [143.55702508095249, 43.663605000000004]}, "properties": {"similar_stop_name": "中里１９号線", "similar_stop_id": "9219_01"}}, {"type": "Feature", "geometry": {"type": "Point", "coordinates": [143.5450499714285, 43.65848187333335]}, "properties": {"similar_stop_name": "中里２１号線", "similar_stop_id": "9221_01"}}, {"type": "Feature", "geometry": {"type": "Point", "coordinates": [143.897315514381, 43.79683417121637]}, "properties": {"similar_stop_name": "中の島１丁目", "similar_stop_id": "7268_01"}}, {"type": "Feature", "geometry": {"type": "Point", "coordinates": [143.8962685714285, 43.792155]}, "properties": {"similar_stop_name": "中の島４丁目", "similar_stop_id": "5000_01"}}, {"type": "Feature", "geometry": {"type": "Point", "coordinates": [143.89262714285724, 43.79193000000002]}, "properties": {"similar_stop_name": "中の島公園入口", "similar_stop_id": "5002_01"}}, {"type": "Feature", "geometry": {"type": "Point", "coordinates": [143.897502857143, 43.794242499999996]}, "properties": {"similar_stop_name": "中の島団地", "similar_stop_id": "5004_01"}}, {"type": "Feature", "geometry": {"type": "Point", "coordinates": [143.6197, 43.787477499999994]}, "properties": {"similar_stop_name": "仲町", "similar_stop_id": "5006_01"}}, {"type": "Feature", "geometry": {"type": "Point", "coordinates": [143.593855238095, 44.186865]}, "properties": {"similar_stop_name": "中湧別市街", "similar_stop_id": "5012_01"}}, {"type": "Feature", "geometry": {"type": "Point", "coordinates": [143.5918476190475, 44.18365000000005]}, "properties": {"similar_stop_name": "中湧別小学校", "similar_stop_id": "5010_01"}}, {"type": "Feature", "geometry": {"type": "Point", "coordinates": [143.596302857143, 44.18609]}, "properties": {"similar_stop_name": "中湧別文化センタートム", "similar_stop_id": "5008_01"}}, {"type": "Feature", "geometry": {"type": "Point", "coordinates": [143.8713, 43.78883]}, "properties": {"similar_stop_name": "南岸通４号線", "similar_stop_id": "7238_02"}}, {"type": "Feature", "geometry": {"type": "Point", "coordinates": [143.9075333333335, 43.89259166666665]}, "properties": {"similar_stop_name": "二枝橋", "similar_stop_id": "8305_01"}}, {"type": "Feature", "geometry": {"type": "Point", "coordinates": [143.90768, 43.905687500000056]}, "properties": {"similar_stop_name": "仁頃はっか公園", "similar_stop_id": "106_01"}}, {"type": "Feature", "geometry": {"type": "Point", "coordinates": [143.89890888740348, 43.89772508160655]}, "properties": {"similar_stop_name": "仁頃町", "similar_stop_id": "5208_01"}}, {"type": "Feature", "geometry": {"type": "Point", "coordinates": [143.818038095238, 43.80228416666665]}, "properties": {"similar_stop_name": "西１１号線", "similar_stop_id": "211_01"}}, {"type": "Feature", "geometry": {"type": "Point", "coordinates": [143.800223809524, 43.80264416666665]}, "properties": {"similar_stop_name": "西１４号線", "similar_stop_id": "214_01"}}, {"type": "Feature", "geometry": {"type": "Point", "coordinates": [143.7936523809525, 43.80219333333335]}, "properties": {"similar_stop_name": "西１５号線", "similar_stop_id": "215_01"}}, {"type": "Feature", "geometry": {"type": "Point", "coordinates": [143.7787857142855, 43.80110916666665]}, "properties": {"similar_stop_name": "西１７号線", "similar_stop_id": "217_01"}}, {"type": "Feature", "geometry": {"type": "Point", "coordinates": [143.772923809524, 43.80071166666665]}, "properties": {"similar_stop_name": "西１８号線", "similar_stop_id": "502_01"}}, {"type": "Feature", "geometry": {"type": "Point", "coordinates": [143.73886190476202, 43.7951708333333]}, "properties": {"similar_stop_name": "西２３号線", "similar_stop_id": "223_01"}}, {"type": "Feature", "geometry": {"type": "Point", "coordinates": [143.73219999999998, 43.79511]}, "properties": {"similar_stop_name": "西２４号線", "similar_stop_id": "504_01"}}, {"type": "Feature", "geometry": {"type": "Point", "coordinates": [143.725371428572, 43.79429583333335]}, "properties": {"similar_stop_name": "西２５号線", "similar_stop_id": "5227_01"}}, {"type": "Feature", "geometry": {"type": "Point", "coordinates": [143.718271428571, 43.793208333333354]}, "properties": {"similar_stop_name": "西２６号線", "similar_stop_id": "226_01"}}, {"type": "Feature", "geometry": {"type": "Point", "coordinates": [143.7050685714285, 43.79163]}, "properties": {"similar_stop_name": "西２８号線", "similar_stop_id": "228_01"}}, {"type": "Feature", "geometry": {"type": "Point", "coordinates": [143.691105714286, 43.790785]}, "properties": {"similar_stop_name": "西３０号線", "similar_stop_id": "230_01"}}, {"type": "Feature", "geometry": {"type": "Point", "coordinates": [143.678662857143, 43.789945000000046]}, "properties": {"similar_stop_name": "西３２号線", "similar_stop_id": "232_01"}}, {"type": "Feature", "geometry": {"type": "Point", "coordinates": [143.6644314285715, 43.789010000000005]}, "properties": {"similar_stop_name": "西３４号線", "similar_stop_id": "234_01"}}, {"type": "Feature", "geometry": {"type": "Point", "coordinates": [143.6577914285715, 43.788615]}, "properties": {"similar_stop_name": "西３５号線", "similar_stop_id": "235_01"}}, {"type": "Feature", "geometry": {"type": "Point", "coordinates": [143.650297142857, 43.788275]}, "properties": {"similar_stop_name": "西３６号線", "similar_stop_id": "236_01"}}, {"type": "Feature", "geometry": {"type": "Point", "coordinates": [143.8730047619045, 43.799005833333354]}, "properties": {"similar_stop_name": "西４号線", "similar_stop_id": "5216_01"}}, {"type": "Feature", "geometry": {"type": "Point", "coordinates": [143.8501723809525, 43.7975283333334]}, "properties": {"similar_stop_name": "西７号線", "similar_stop_id": "207_01"}}, {"type": "Feature", "geometry": {"type": "Point", "coordinates": [143.8432266666665, 43.79704083333335]}, "properties": {"similar_stop_name": "西８号線", "similar_stop_id": "208_01"}}, {"type": "Feature", "geometry": {"type": "Point", "coordinates": [143.83635238095252, 43.797315]}, "properties": {"similar_stop_name": "西９号線", "similar_stop_id": "209_01"}}, {"type": "Feature", "geometry": {"type": "Point", "coordinates": [143.841617142857, 43.803465]}, "properties": {"similar_stop_name": "西北見駅", "similar_stop_id": "7230_01"}}, {"type": "Feature", "geometry": {"type": "Point", "coordinates": [143.885622857143, 43.7918525]}, "properties": {"similar_stop_name": "西小学校", "similar_stop_id": "5228_01"}}, {"type": "Feature", "geometry": {"type": "Point", "coordinates": [143.727415542857, 43.72723521]}, "properties": {"similar_stop_name": "西富２６号線", "similar_stop_id": "9226_01"}}, {"type": "Feature", "geometry": {"type": "Point", "coordinates": [143.709640066667, 43.72695045666665]}, "properties": {"similar_stop_name": "西富２８号線", "similar_stop_id": "9228_01"}}, {"type": "Feature", "geometry": {"type": "Point", "coordinates": [143.699528642857, 43.723036969999995]}, "properties": {"similar_stop_name": "西富３０号線", "similar_stop_id": "9230_01"}}, {"type": "Feature", "geometry": {"type": "Point", "coordinates": [143.6928552380955, 43.72043833333335]}, "properties": {"similar_stop_name": "西富３１号線", "similar_stop_id": "5226_01"}}, {"type": "Feature", "geometry": {"type": "Point", "coordinates": [143.67978, 43.71539916666665]}, "properties": {"similar_stop_name": "西富３３号線", "similar_stop_id": "233_01"}}, {"type": "Feature", "geometry": {"type": "Point", "coordinates": [143.9421885714285, 43.8543275]}, "properties": {"similar_stop_name": "虹野団地", "similar_stop_id": "8301_01"}}, {"type": "Feature", "geometry": {"type": "Point", "coordinates": [143.908, 43.82958]}, "properties": {"similar_stop_name": "日赤看護大学", "similar_stop_id": "5200_01"}}, {"type": "Feature", "geometry": {"type": "Point", "coordinates": [143.89523428571448, 43.80817249999995]}, "properties": {"similar_stop_name": "日赤病院", "similar_stop_id": "5202_01"}}, {"type": "Feature", "geometry": {"type": "Point", "coordinates": [143.5171047619045, 44.24060583333335]}, "properties": {"similar_stop_name": "沼の上", "similar_stop_id": "5400_01"}}, {"type": "Feature", "geometry": {"type": "Point", "coordinates": [143.89376, 43.79915]}, "properties": {"similar_stop_name": "農協", "similar_stop_id": "5800_01"}}, {"type": "Feature", "geometry": {"type": "Point", "coordinates": [143.9259, 43.86965]}, "properties": {"similar_stop_name": "ノーザンアークリゾート", "similar_stop_id": "8304_01"}}, {"type": "Feature", "geometry": {"type": "Point", "coordinates": [143.50966190476151, 44.0250016666667]}, "properties": {"similar_stop_name": "野上変電所", "similar_stop_id": "5808_01"}}, {"type": "Feature", "geometry": {"type": "Point", "coordinates": [143.8766714285715, 43.8160975]}, "properties": {"similar_stop_name": "のぞみ幼稚園", "similar_stop_id": "5810_01"}}, {"type": "Feature", "geometry": {"type": "Point", "coordinates": [143.907842857143, 43.816981666666706]}, "properties": {"similar_stop_name": "野付牛公園入口", "similar_stop_id": "5812_01"}}, {"type": "Feature", "geometry": {"type": "Point", "coordinates": [143.9294314285715, 43.828125]}, "properties": {"similar_stop_name": "のつけ乃湯", "similar_stop_id": "5428_01"}}, {"type": "Feature", "geometry": {"type": "Point", "coordinates": [143.9253904761905, 43.9511366666667]}, "properties": {"similar_stop_name": "登", "similar_stop_id": "5814_01"}}, {"type": "Feature", "geometry": {"type": "Point", "coordinates": [143.918176190476, 43.94149583333335]}, "properties": {"similar_stop_name": "登東部", "similar_stop_id": "5816_01"}}, {"type": "Feature", "geometry": {"type": "Point", "coordinates": [143.9273, 43.86261]}, "properties": {"similar_stop_name": "のんたの湯", "similar_stop_id": "8302_01"}}, {"type": "Feature", "geometry": {"type": "Point", "coordinates": [143.7347257142855, 43.7205925]}, "properties": {"similar_stop_name": "パークゴルフ場", "similar_stop_id": "6010_01"}}, {"type": "Feature", "geometry": {"type": "Point", "coordinates": [143.4243000000005, 44.29022416666665]}, "properties": {"similar_stop_name": "八十士", "similar_stop_id": "8025_01"}}, {"type": "Feature", "geometry": {"type": "Point", "coordinates": [143.58068, 43.672602499999996]}, "properties": {"similar_stop_name": "林友橋", "similar_stop_id": "1600_01"}}, {"type": "Feature", "geometry": {"type": "Point", "coordinates": [143.35693809523798, 44.3351208333333]}, "properties": {"similar_stop_name": "ハローワーク", "similar_stop_id": "3214_01"}}, {"type": "Feature", "geometry": {"type": "Point", "coordinates": [144.004223809524, 43.87986083333335]}, "properties": {"similar_stop_name": "緋牛内", "similar_stop_id": "6200_01"}}, {"type": "Feature", "geometry": {"type": "Point", "coordinates": [143.9007952380955, 43.80976666666665]}, "properties": {"similar_stop_name": "東６丁目", "similar_stop_id": "6228_01"}}, {"type": "Feature", "geometry": {"type": "Point", "coordinates": [143.91956190476202, 43.82908166666665]}, "properties": {"similar_stop_name": "東８号線", "similar_stop_id": "6232_01"}}, {"type": "Feature", "geometry": {"type": "Point", "coordinates": [143.9028523809525, 43.81184166666665]}, "properties": {"similar_stop_name": "東９丁目", "similar_stop_id": "6236_01"}}, {"type": "Feature", "geometry": {"type": "Point", "coordinates": [143.923219047619, 43.83285250000005]}, "properties": {"similar_stop_name": "東９号線", "similar_stop_id": "6234_01"}}, {"type": "Feature", "geometry": {"type": "Point", "coordinates": [143.81025714285698, 43.803332499999996]}, "properties": {"similar_stop_name": "東相内", "similar_stop_id": "6238_01"}}, {"type": "Feature", "geometry": {"type": "Point", "coordinates": [143.822719047619, 43.8010308333333]}, "properties": {"similar_stop_name": "東相内中学校", "similar_stop_id": "6240_01"}}, {"type": "Feature", "geometry": {"type": "Point", "coordinates": [143.8975, 43.82632]}, "properties": {"similar_stop_name": "光苑団地", "similar_stop_id": "2822_01"}}, {"type": "Feature", "geometry": {"type": "Point", "coordinates": [143.92616952381002, 43.82941416666665]}, "properties": {"similar_stop_name": "ひかり野２丁目", "similar_stop_id": "6292_01"}}, {"type": "Feature", "geometry": {"type": "Point", "coordinates": [143.9297228571425, 43.8299925]}, "properties": {"similar_stop_name": "ひかり野９号線", "similar_stop_id": "6299_01"}}, {"type": "Feature", "geometry": {"type": "Point", "coordinates": [143.90022, 43.826539999999994]}, "properties": {"similar_stop_name": "光の苑", "similar_stop_id": "6204_01"}}, {"type": "Feature", "geometry": {"type": "Point", "coordinates": [144.0983333333335, 43.80709666666665]}, "properties": {"similar_stop_name": "美富３５線", "similar_stop_id": "335_01"}}, {"type": "Feature", "geometry": {"type": "Point", "coordinates": [144.09349047619048, 43.79915416666665]}, "properties": {"similar_stop_name": "美富３７線", "similar_stop_id": "337_01"}}, {"type": "Feature", "geometry": {"type": "Point", "coordinates": [144.0920552380955, 43.85024583333335]}, "properties": {"similar_stop_name": "美禽入口", "similar_stop_id": "4014_01"}}, {"type": "Feature", "geometry": {"type": "Point", "coordinates": [144.0177714285715, 43.87448583333335]}, "properties": {"similar_stop_name": "ひなみ", "similar_stop_id": "6250_01"}}, {"type": "Feature", "geometry": {"type": "Point", "coordinates": [143.7883380952385, 43.735857500000094]}, "properties": {"similar_stop_name": "日の出", "similar_stop_id": "6252_01"}}, {"type": "Feature", "geometry": {"type": "Point", "coordinates": [143.794824761905, 43.73830333333335]}, "properties": {"similar_stop_name": "日の出１６号線", "similar_stop_id": "6253_01"}}, {"type": "Feature", "geometry": {"type": "Point", "coordinates": [143.8748228571435, 43.8173600000001]}, "properties": {"similar_stop_name": "ひばりヶ丘", "similar_stop_id": "6254_01"}}, {"type": "Feature", "geometry": {"type": "Point", "coordinates": [144.10709047619, 43.8355683333333]}, "properties": {"similar_stop_name": "美幌", "similar_stop_id": "6268_01"}}, {"type": "Feature", "geometry": {"type": "Point", "coordinates": [144.1038238095235, 43.824565]}, "properties": {"similar_stop_name": "美幌北２丁目", "similar_stop_id": "2216_01"}}, {"type": "Feature", "geometry": {"type": "Point", "coordinates": [144.1051, 43.82671416666665]}, "properties": {"similar_stop_name": "美幌北４丁目", "similar_stop_id": "2220_01"}}, {"type": "Feature", "geometry": {"type": "Point", "coordinates": [144.1029031, 43.8374687233333]}, "properties": {"similar_stop_name": "美幌北中学校", "similar_stop_id": "9836_01"}}, {"type": "Feature", "geometry": {"type": "Point", "coordinates": [144.106746666667, 43.829485]}, "properties": {"similar_stop_name": "美幌栄町２丁目", "similar_stop_id": "6634_01"}}, {"type": "Feature", "geometry": {"type": "Point", "coordinates": [144.107844761905, 43.83133583333335]}, "properties": {"similar_stop_name": "美幌栄町４丁目", "similar_stop_id": "6632_01"}}, {"type": "Feature", "geometry": {"type": "Point", "coordinates": [144.101276847619, 43.820180199999996]}, "properties": {"similar_stop_name": "美幌南３丁目", "similar_stop_id": "7304_01"}}, {"type": "Feature", "geometry": {"type": "Point", "coordinates": [144.1003, 43.812937500000004]}, "properties": {"similar_stop_name": "美幌療育病院", "similar_stop_id": "8090_01"}}, {"type": "Feature", "geometry": {"type": "Point", "coordinates": [143.944795238095, 43.98107416666665]}, "properties": {"similar_stop_name": "日吉", "similar_stop_id": "6256_01"}}, {"type": "Feature", "geometry": {"type": "Point", "coordinates": [143.94848, 43.98838333333335]}, "properties": {"similar_stop_name": "日吉３１号線", "similar_stop_id": "231_01"}}, {"type": "Feature", "geometry": {"type": "Point", "coordinates": [143.9400995190475, 43.97073550333335]}, "properties": {"similar_stop_name": "日吉３６号線", "similar_stop_id": "9236_01"}}, {"type": "Feature", "geometry": {"type": "Point", "coordinates": [143.8806, 43.82979]}, "properties": {"similar_stop_name": "ヒルストリート美山", "similar_stop_id": "6262_02"}}, {"type": "Feature", "geometry": {"type": "Point", "coordinates": [143.4751457142855, 44.26072000000005]}, "properties": {"similar_stop_name": "弘道", "similar_stop_id": "2842_01"}}, {"type": "Feature", "geometry": {"type": "Point", "coordinates": [144.098164804762, 43.8436273033333]}, "properties": {"similar_stop_name": "美禽橋", "similar_stop_id": "7224_01"}}, {"type": "Feature", "geometry": {"type": "Point", "coordinates": [143.9932626714285, 44.02687112]}, "properties": {"similar_stop_name": "福山２３号線", "similar_stop_id": "9323_01"}}, {"type": "Feature", "geometry": {"type": "Point", "coordinates": [143.9836109857145, 44.02187527333335]}, "properties": {"similar_stop_name": "福山入口", "similar_stop_id": "9224_01"}}, {"type": "Feature", "geometry": {"type": "Point", "coordinates": [143.88987333333301, 43.81429]}, "properties": {"similar_stop_name": "藤高校", "similar_stop_id": "6404_01"}}, {"type": "Feature", "geometry": {"type": "Point", "coordinates": [143.851605714286, 43.80785250000005]}, "properties": {"similar_stop_name": "双葉団地", "similar_stop_id": "8210_01"}}, {"type": "Feature", "geometry": {"type": "Point", "coordinates": [143.53269523809502, 43.90589500000005]}, "properties": {"similar_stop_name": "プライムいくたはら", "similar_stop_id": "2868_01"}}, {"type": "Feature", "geometry": {"type": "Point", "coordinates": [143.5237238095245, 43.932715]}, "properties": {"similar_stop_name": "プレカットセンター", "similar_stop_id": "6408_01"}}, {"type": "Feature", "geometry": {"type": "Point", "coordinates": [143.7195514285715, 43.513795]}, "properties": {"similar_stop_name": "分線", "similar_stop_id": "6410_01"}}, {"type": "Feature", "geometry": {"type": "Point", "coordinates": [143.9277476190475, 43.96171333333335]}, "properties": {"similar_stop_name": "平和", "similar_stop_id": "6600_01"}}, {"type": "Feature", "geometry": {"type": "Point", "coordinates": [143.86891714285701, 43.8039025]}, "properties": {"similar_stop_name": "北進４号線", "similar_stop_id": "6822_01"}}, {"type": "Feature", "geometry": {"type": "Point", "coordinates": [143.8731790476195, 43.804196666666655]}, "properties": {"similar_stop_name": "北進第一", "similar_stop_id": "6826_01"}}, {"type": "Feature", "geometry": {"type": "Point", "coordinates": [143.8655514285715, 43.80381]}, "properties": {"similar_stop_name": "北進西町", "similar_stop_id": "6828_01"}}, {"type": "Feature", "geometry": {"type": "Point", "coordinates": [143.8636685714285, 43.80552]}, "properties": {"similar_stop_name": "北進橋", "similar_stop_id": "6830_01"}}, {"type": "Feature", "geometry": {"type": "Point", "coordinates": [143.8515, 43.80276]}, "properties": {"similar_stop_name": "北星記念病院", "similar_stop_id": "6861_01"}}, {"type": "Feature", "geometry": {"type": "Point", "coordinates": [143.885094785714, 43.90492205666665]}, "properties": {"similar_stop_name": "北陽２号線", "similar_stop_id": "9202_01"}}, {"type": "Feature", "geometry": {"type": "Point", "coordinates": [144.00858881904747, 43.87577250666665]}, "properties": {"similar_stop_name": "ホクレン工場", "similar_stop_id": "6842_01"}}, {"type": "Feature", "geometry": {"type": "Point", "coordinates": [143.88334857142848, 43.8175125]}, "properties": {"similar_stop_name": "ぼたん園入口", "similar_stop_id": "7290_01"}}, {"type": "Feature", "geometry": {"type": "Point", "coordinates": [143.879573857143, 43.78426647]}, "properties": {"similar_stop_name": "北光小学校", "similar_stop_id": "6804_01"}}, {"type": "Feature", "geometry": {"type": "Point", "coordinates": [143.781276285714, 43.7334805]}, "properties": {"similar_stop_name": "穂波１８号線", "similar_stop_id": "9218_01"}}, {"type": "Feature", "geometry": {"type": "Point", "coordinates": [143.7750238095235, 43.73198833333335]}, "properties": {"similar_stop_name": "穂波１９号線", "similar_stop_id": "219_01"}}, {"type": "Feature", "geometry": {"type": "Point", "coordinates": [143.7680200523815, 43.73151582333335]}, "properties": {"similar_stop_name": "穂波２０号線", "similar_stop_id": "9320_01"}}, {"type": "Feature", "geometry": {"type": "Point", "coordinates": [143.7613685714285, 43.730330833333355]}, "properties": {"similar_stop_name": "穂波２１号線", "similar_stop_id": "221_01"}}, {"type": "Feature", "geometry": {"type": "Point", "coordinates": [143.747542095238, 43.72781640666665]}, "properties": {"similar_stop_name": "穂波２３号線", "similar_stop_id": "9423_01"}}, {"type": "Feature", "geometry": {"type": "Point", "coordinates": [143.938485714286, 43.96356666666665]}, "properties": {"similar_stop_name": "ポン隈川橋", "similar_stop_id": "4202_01"}}, {"type": "Feature", "geometry": {"type": "Point", "coordinates": [143.758952380952, 43.7978716666667]}, "properties": {"similar_stop_name": "本沢入口", "similar_stop_id": "6846_01"}}, {"type": "Feature", "geometry": {"type": "Point", "coordinates": [143.39679477142852, 44.313879709999995]}, "properties": {"similar_stop_name": "まきばのパークゴルフ場", "similar_stop_id": "7662_01"}}, {"type": "Feature", "geometry": {"type": "Point", "coordinates": [143.52375493809552, 44.0096497633333]}, "properties": {"similar_stop_name": "水穂生活改善センター", "similar_stop_id": "7204_01"}}, {"type": "Feature", "geometry": {"type": "Point", "coordinates": [143.51327619047652, 44.018603333333346]}, "properties": {"similar_stop_name": "水穂東１線", "similar_stop_id": "8155_01"}}, {"type": "Feature", "geometry": {"type": "Point", "coordinates": [143.52869047619, 44.00513666666665]}, "properties": {"similar_stop_name": "水穂東４線", "similar_stop_id": "6222_01"}}, {"type": "Feature", "geometry": {"type": "Point", "coordinates": [143.5018881, 43.7541438]}, "properties": {"similar_stop_name": "道の駅おんねゆ温泉", "similar_stop_id": "7113_01"}}, {"type": "Feature", "geometry": {"type": "Point", "coordinates": [144.08956643333352, 43.79469177666665]}, "properties": {"similar_stop_name": "美富会館", "similar_stop_id": "7210_01"}}, {"type": "Feature", "geometry": {"type": "Point", "coordinates": [143.874105714286, 43.82445750000005]}, "properties": {"similar_stop_name": "緑ヶ丘３丁目", "similar_stop_id": "4860_01"}}, {"type": "Feature", "geometry": {"type": "Point", "coordinates": [143.868, 43.82107]}, "properties": {"similar_stop_name": "緑ヶ丘団地", "similar_stop_id": "7214_01"}}, {"type": "Feature", "geometry": {"type": "Point", "coordinates": [143.8635, 43.80946]}, "properties": {"similar_stop_name": "緑ヶ丘通", "similar_stop_id": "7216_02"}}, {"type": "Feature", "geometry": {"type": "Point", "coordinates": [143.8564, 43.81575]}, "properties": {"similar_stop_name": "緑ヶ丘霊園入口", "similar_stop_id": "1014_02"}}, {"type": "Feature", "geometry": {"type": "Point", "coordinates": [143.8711, 43.82414]}, "properties": {"similar_stop_name": "緑風", "similar_stop_id": "8105_01"}}, {"type": "Feature", "geometry": {"type": "Point", "coordinates": [143.56592432399802, 43.66569693728184]}, "properties": {"similar_stop_name": "緑清園老人ホーム", "similar_stop_id": "9950_01"}}, {"type": "Feature", "geometry": {"type": "Point", "coordinates": [143.849288571429, 43.80477]}, "properties": {"similar_stop_name": "緑小学校", "similar_stop_id": "7218_01"}}, {"type": "Feature", "geometry": {"type": "Point", "coordinates": [143.8479, 43.8038]}, "properties": {"similar_stop_name": "緑小グラウンド", "similar_stop_id": "7226_01"}}, {"type": "Feature", "geometry": {"type": "Point", "coordinates": [143.845362542857, 43.80742968]}, "properties": {"similar_stop_name": "緑団地", "similar_stop_id": "7220_01"}}, {"type": "Feature", "geometry": {"type": "Point", "coordinates": [143.867785914286, 43.82275953]}, "properties": {"similar_stop_name": "緑のセンター", "similar_stop_id": "7222_01"}}, {"type": "Feature", "geometry": {"type": "Point", "coordinates": [143.8453, 43.80365]}, "properties": {"similar_stop_name": "緑町２丁目", "similar_stop_id": "7228_01"}}, {"type": "Feature", "geometry": {"type": "Point", "coordinates": [143.842211428571, 43.805175]}, "properties": {"similar_stop_name": "緑町３丁目", "similar_stop_id": "7229_01"}}, {"type": "Feature", "geometry": {"type": "Point", "coordinates": [143.8395, 43.80334]}, "properties": {"similar_stop_name": "緑町６丁目", "similar_stop_id": "7232_01"}}, {"type": "Feature", "geometry": {"type": "Point", "coordinates": [143.35227216666698, 44.34004021666665]}, "properties": {"similar_stop_name": "南ヶ丘", "similar_stop_id": "7248_01"}}, {"type": "Feature", "geometry": {"type": "Point", "coordinates": [143.3546524904765, 44.34639153333335]}, "properties": {"similar_stop_name": "南ヶ丘１丁目", "similar_stop_id": "7242_01"}}, {"type": "Feature", "geometry": {"type": "Point", "coordinates": [143.3523655142855, 44.34157059]}, "properties": {"similar_stop_name": "南ヶ丘３丁目", "similar_stop_id": "7244_01"}}, {"type": "Feature", "geometry": {"type": "Point", "coordinates": [143.3595425857145, 44.33347795]}, "properties": {"similar_stop_name": "南ヶ丘７丁目", "similar_stop_id": "7246_01"}}, {"type": "Feature", "geometry": {"type": "Point", "coordinates": [143.90240384826248, 43.80083774765713]}, "properties": {"similar_stop_name": "南小学校", "similar_stop_id": "5014_01"}}, {"type": "Feature", "geometry": {"type": "Point", "coordinates": [143.89916285714298, 43.8023875]}, "properties": {"similar_stop_name": "南仲町２丁目", "similar_stop_id": "7260_01"}}, {"type": "Feature", "geometry": {"type": "Point", "coordinates": [143.554849523809, 44.12367333333335]}, "properties": {"similar_stop_name": "南兵村１区", "similar_stop_id": "500_01"}}, {"type": "Feature", "geometry": {"type": "Point", "coordinates": [143.5632499666665, 44.13734677]}, "properties": {"similar_stop_name": "南兵村２区", "similar_stop_id": "9052_01"}}, {"type": "Feature", "geometry": {"type": "Point", "coordinates": [143.9008760695015, 43.79836587524616]}, "properties": {"similar_stop_name": "南町１丁目", "similar_stop_id": "7262_01"}}, {"type": "Feature", "geometry": {"type": "Point", "coordinates": [143.90568571428548, 43.799225]}, "properties": {"similar_stop_name": "南町２丁目", "similar_stop_id": "7264_01"}}, {"type": "Feature", "geometry": {"type": "Point", "coordinates": [143.90581047619048, 43.797742500000055]}, "properties": {"similar_stop_name": "南町３丁目", "similar_stop_id": "7266_01"}}, {"type": "Feature", "geometry": {"type": "Point", "coordinates": [144.0640437142855, 44.11131933333335]}, "properties": {"similar_stop_name": "南町団地入口", "similar_stop_id": "7270_01"}}, {"type": "Feature", "geometry": {"type": "Point", "coordinates": [143.5225508380955, 44.04715399666665]}, "properties": {"similar_stop_name": "南町ビッグワン", "similar_stop_id": "7272_01"}}, {"type": "Feature", "geometry": {"type": "Point", "coordinates": [144.0269082619045, 43.87080012]}, "properties": {"similar_stop_name": "美野入口", "similar_stop_id": "7274_01"}}, {"type": "Feature", "geometry": {"type": "Point", "coordinates": [143.8792485714285, 43.8276475]}, "properties": {"similar_stop_name": "美山北", "similar_stop_id": "2222_01"}}, {"type": "Feature", "geometry": {"type": "Point", "coordinates": [143.878545714286, 43.82452]}, "properties": {"similar_stop_name": "美山小学校", "similar_stop_id": "7280_01"}}, {"type": "Feature", "geometry": {"type": "Point", "coordinates": [143.882117142857, 43.820025]}, "properties": {"similar_stop_name": "美山第１団地", "similar_stop_id": "7282_01"}}, {"type": "Feature", "geometry": {"type": "Point", "coordinates": [143.8816057142855, 43.82425]}, "properties": {"similar_stop_name": "美山第２団地", "similar_stop_id": "7284_01"}}, {"type": "Feature", "geometry": {"type": "Point", "coordinates": [143.88171619047634, 43.82654833333337]}, "properties": {"similar_stop_name": "美山中央", "similar_stop_id": "7286_01"}}, {"type": "Feature", "geometry": {"type": "Point", "coordinates": [143.88497999999998, 43.82536]}, "properties": {"similar_stop_name": "美山町", "similar_stop_id": "7288_01"}}, {"type": "Feature", "geometry": {"type": "Point", "coordinates": [143.8818685714285, 43.82221499999995]}, "properties": {"similar_stop_name": "美山ふれあい公園", "similar_stop_id": "7292_01"}}, {"type": "Feature", "geometry": {"type": "Point", "coordinates": [143.8820742857145, 43.804752500000006]}, "properties": {"similar_stop_name": "美芳町", "similar_stop_id": "7296_01"}}, {"type": "Feature", "geometry": {"type": "Point", "coordinates": [143.8840867571435, 43.80436745]}, "properties": {"similar_stop_name": "美芳町７丁目", "similar_stop_id": "9294_01"}}, {"type": "Feature", "geometry": {"type": "Point", "coordinates": [143.856914285715, 43.797966666666696]}, "properties": {"similar_stop_name": "三輪", "similar_stop_id": "7300_01"}}, {"type": "Feature", "geometry": {"type": "Point", "coordinates": [143.854458457143, 43.80293779]}, "properties": {"similar_stop_name": "三輪通６号線", "similar_stop_id": "7305_01"}}, {"type": "Feature", "geometry": {"type": "Point", "coordinates": [143.8441655, 43.80228825]}, "properties": {"similar_stop_name": "三輪通８号線", "similar_stop_id": "7306_01"}}, {"type": "Feature", "geometry": {"type": "Point", "coordinates": [143.925117309524, 43.8347002533333]}, "properties": {"similar_stop_name": "ミントスポット北見", "similar_stop_id": "7342_01"}}, {"type": "Feature", "geometry": {"type": "Point", "coordinates": [143.8572257142855, 43.796425]}, "properties": {"similar_stop_name": "メッセ", "similar_stop_id": "5218_01"}}, {"type": "Feature", "geometry": {"type": "Point", "coordinates": [143.8291545333335, 43.79924872]}, "properties": {"similar_stop_name": "木工団地", "similar_stop_id": "7800_01"}}, {"type": "Feature", "geometry": {"type": "Point", "coordinates": [143.624661228571, 43.78711772]}, "properties": {"similar_stop_name": "元町", "similar_stop_id": "7812_01"}}, {"type": "Feature", "geometry": {"type": "Point", "coordinates": [143.892179047619, 43.800855833333344]}, "properties": {"similar_stop_name": "本町１丁目", "similar_stop_id": "7803_01"}}, {"type": "Feature", "geometry": {"type": "Point", "coordinates": [143.884526914286, 43.80089867000005]}, "properties": {"similar_stop_name": "本町３丁目", "similar_stop_id": "7804_01"}}, {"type": "Feature", "geometry": {"type": "Point", "coordinates": [143.88250285714298, 43.79962583333335]}, "properties": {"similar_stop_name": "本町４丁目", "similar_stop_id": "7806_01"}}, {"type": "Feature", "geometry": {"type": "Point", "coordinates": [143.354338195238, 44.3514142033333]}, "properties": {"similar_stop_name": "本町５丁目", "similar_stop_id": "6856_01"}}, {"type": "Feature", "geometry": {"type": "Point", "coordinates": [143.3544301428575, 44.34985243333335]}, "properties": {"similar_stop_name": "本町６丁目", "similar_stop_id": "6860_01"}}, {"type": "Feature", "geometry": {"type": "Point", "coordinates": [143.3769458, 44.32287819]}, "properties": {"similar_stop_name": "元紋別", "similar_stop_id": "7816_01"}}, {"type": "Feature", "geometry": {"type": "Point", "coordinates": [143.874205714286, 43.826805]}, "properties": {"similar_stop_name": "もみじ公園", "similar_stop_id": "7818_01"}}, {"type": "Feature", "geometry": {"type": "Point", "coordinates": [143.87404, 43.82836]}, "properties": {"similar_stop_name": "もみじ団地", "similar_stop_id": "7820_01"}}, {"type": "Feature", "geometry": {"type": "Point", "coordinates": [143.3522341, 44.35215958]}, "properties": {"similar_stop_name": "紋別", "similar_stop_id": "7822_01"}}, {"type": "Feature", "geometry": {"type": "Point", "coordinates": [143.407123142857, 44.3066812566667]}, "properties": {"similar_stop_name": "紋別空港", "similar_stop_id": "7823_01"}}, {"type": "Feature", "geometry": {"type": "Point", "coordinates": [143.5372476190475, 43.99405833333335]}, "properties": {"similar_stop_name": "安国", "similar_stop_id": "8010_01"}}, {"type": "Feature", "geometry": {"type": "Point", "coordinates": [143.5381047619045, 43.9887483333333]}, "properties": {"similar_stop_name": "安国小学校", "similar_stop_id": "8020_01"}}, {"type": "Feature", "geometry": {"type": "Point", "coordinates": [143.5230095238095, 43.88615666666665]}, "properties": {"similar_stop_name": "矢矧の沢入口", "similar_stop_id": "8030_01"}}, {"type": "Feature", "geometry": {"type": "Point", "coordinates": [143.887917142857, 43.804682500000055]}, "properties": {"similar_stop_name": "山下町", "similar_stop_id": "8040_01"}}, {"type": "Feature", "geometry": {"type": "Point", "coordinates": [143.8825239857145, 43.88650224]}, "properties": {"similar_stop_name": "大和１１号線", "similar_stop_id": "9311_01"}}, {"type": "Feature", "geometry": {"type": "Point", "coordinates": [143.8758142857145, 43.884029999999996]}, "properties": {"similar_stop_name": "大和１２号線", "similar_stop_id": "212_01"}}, {"type": "Feature", "geometry": {"type": "Point", "coordinates": [143.89037142857148, 43.8926525]}, "properties": {"similar_stop_name": "大和会館", "similar_stop_id": "5206_01"}}, {"type": "Feature", "geometry": {"type": "Point", "coordinates": [143.573576190476, 44.153945]}, "properties": {"similar_stop_name": "湧愛園", "similar_stop_id": "8050_01"}}, {"type": "Feature", "geometry": {"type": "Point", "coordinates": [143.86949238095252, 43.80892]}, "properties": {"similar_stop_name": "夕陽ヶ丘４号線", "similar_stop_id": "8055_01"}}, {"type": "Feature", "geometry": {"type": "Point", "coordinates": [143.86110857142899, 43.808432499999995]}, "properties": {"similar_stop_name": "夕陽ヶ丘５号線", "similar_stop_id": "8056_01"}}, {"type": "Feature", "geometry": {"type": "Point", "coordinates": [143.8558714285715, 43.808135]}, "properties": {"similar_stop_name": "夕陽ヶ丘６号線", "similar_stop_id": "8195_01"}}, {"type": "Feature", "geometry": {"type": "Point", "coordinates": [143.8488185535835, 43.80761604125014]}, "properties": {"similar_stop_name": "夕陽ヶ丘７号線", "similar_stop_id": "8200_01"}}, {"type": "Feature", "geometry": {"type": "Point", "coordinates": [143.84195890445164, 43.80700621900627]}, "properties": {"similar_stop_name": "夕陽ヶ丘８号線", "similar_stop_id": "7212_01"}}, {"type": "Feature", "geometry": {"type": "Point", "coordinates": [143.835586906918, 43.8074702571395]}, "properties": {"similar_stop_name": "夕陽ヶ丘９号線", "similar_stop_id": "1822_02"}}, {"type": "Feature", "geometry": {"type": "Point", "coordinates": [143.617628571428, 44.2255783333333]}, "properties": {"similar_stop_name": "湧別", "similar_stop_id": "8060_01"}}, {"type": "Feature", "geometry": {"type": "Point", "coordinates": [143.61157070476202, 44.21554340333335]}, "properties": {"similar_stop_name": "湧別３号線", "similar_stop_id": "9303_01"}}, {"type": "Feature", "geometry": {"type": "Point", "coordinates": [143.6089748619045, 44.211361296666695]}, "properties": {"similar_stop_name": "湧別４号線", "similar_stop_id": "9204_01"}}, {"type": "Feature", "geometry": {"type": "Point", "coordinates": [143.6057209, 44.2060407766667]}, "properties": {"similar_stop_name": "湧別５号線", "similar_stop_id": "9505_01"}}, {"type": "Feature", "geometry": {"type": "Point", "coordinates": [143.603004761905, 44.2016175]}, "properties": {"similar_stop_name": "湧別６号線", "similar_stop_id": "6264_01"}}, {"type": "Feature", "geometry": {"type": "Point", "coordinates": [143.61948, 44.22831]}, "properties": {"similar_stop_name": "湧別曙町", "similar_stop_id": "1018_01"}}, {"type": "Feature", "geometry": {"type": "Point", "coordinates": [143.614780952381, 44.229079999999996]}, "properties": {"similar_stop_name": "湧別漁協", "similar_stop_id": "2260_01"}}, {"type": "Feature", "geometry": {"type": "Point", "coordinates": [143.6152457142855, 44.22155166666665]}, "properties": {"similar_stop_name": "湧別庁舎", "similar_stop_id": "8065_01"}}, {"type": "Feature", "geometry": {"type": "Point", "coordinates": [143.5716114285715, 44.150871666666646]}, "properties": {"similar_stop_name": "湧別町役場", "similar_stop_id": "2060_01"}}, {"type": "Feature", "geometry": {"type": "Point", "coordinates": [143.86025428571452, 43.793385]}, "properties": {"similar_stop_name": "豊大橋", "similar_stop_id": "8070_01"}}, {"type": "Feature", "geometry": {"type": "Point", "coordinates": [143.94250952380952, 43.97840666666665]}, "properties": {"similar_stop_name": "吉野入口", "similar_stop_id": "8080_01"}}, {"type": "Feature", "geometry": {"type": "Point", "coordinates": [143.743045714286, 43.467365]}, "properties": {"similar_stop_name": "陸別", "similar_stop_id": "8003_01"}}, {"type": "Feature", "geometry": {"type": "Point", "coordinates": [143.388016071429, 44.32016251]}, "properties": {"similar_stop_name": "流氷公園", "similar_stop_id": "9821_01"}}, {"type": "Feature", "geometry": {"type": "Point", "coordinates": [143.882302857143, 43.80975000000005]}, "properties": {"similar_stop_name": "緑園通", "similar_stop_id": "8100_01"}}, {"type": "Feature", "geometry": {"type": "Point", "coordinates": [143.83861132857152, 43.814078246666654]}, "properties": {"similar_stop_name": "緑陵高校", "similar_stop_id": "8115_01"}}, {"type": "Feature", "geometry": {"type": "Point", "coordinates": [143.84199198571451, 43.81429356666665]}, "properties": {"similar_stop_name": "緑陵高校入口", "similar_stop_id": "8110_01"}}, {"type": "Feature", "geometry": {"type": "Point", "coordinates": [143.6219, 43.78589]}, "properties": {"similar_stop_name": "留辺蘂", "similar_stop_id": "8135_01"}}, {"type": "Feature", "geometry": {"type": "Point", "coordinates": [143.611942857143, 43.777122500000004]}, "properties": {"similar_stop_name": "留辺蘂運動公園", "similar_stop_id": "4052_01"}}, {"type": "Feature", "geometry": {"type": "Point", "coordinates": [143.6075457142855, 43.7787350000001]}, "properties": {"similar_stop_name": "留辺蘂高校", "similar_stop_id": "8140_01"}}, {"type": "Feature", "geometry": {"type": "Point", "coordinates": [143.603705714286, 43.783975]}, "properties": {"similar_stop_name": "留辺蘂中学校", "similar_stop_id": "201_01"}}, {"type": "Feature", "geometry": {"type": "Point", "coordinates": [143.609517142857, 43.77647]}, "properties": {"similar_stop_name": "留辺蘂町体育館", "similar_stop_id": "4000_01"}}, {"type": "Feature", "geometry": {"type": "Point", "coordinates": [143.6245114285715, 43.7822325]}, "properties": {"similar_stop_name": "留辺蘂町民会館", "similar_stop_id": "4208_01"}}, {"type": "Feature", "geometry": {"type": "Point", "coordinates": [143.852014285714, 43.81211]}, "properties": {"similar_stop_name": "若葉５丁目", "similar_stop_id": "8190_01"}}, {"type": "Feature", "geometry": {"type": "Point", "coordinates": [143.84828, 43.810785]}, "properties": {"similar_stop_name": "若葉７丁目", "similar_stop_id": "8205_01"}}, {"type": "Feature", "geometry": {"type": "Point", "coordinates": [143.523471428571, 44.0594133333333]}, "properties": {"similar_stop_name": "遠軽", "similar_stop_id": "1604_01"}}, {"type": "Feature", "geometry": {"type": "Point", "coordinates": [143.533166666667, 44.07019666666665]}, "properties": {"similar_stop_name": "遠軽卸売市場", "similar_stop_id": "1824_01"}}, {"type": "Feature", "geometry": {"type": "Point", "coordinates": [143.5229247761905, 44.06183865333335]}, "properties": {"similar_stop_name": "遠軽厚生病院", "similar_stop_id": "9934_01"}}, {"type": "Feature", "geometry": {"type": "Point", "coordinates": [143.5269761904765, 44.050228333333294]}, "properties": {"similar_stop_name": "遠軽高校", "similar_stop_id": "2830_01"}}, {"type": "Feature", "geometry": {"type": "Point", "coordinates": [143.52016512445076, 44.041134166161726]}, "properties": {"similar_stop_name": "遠軽寿町", "similar_stop_id": "9850_01"}}, {"type": "Feature", "geometry": {"type": "Point", "coordinates": [143.51368095238098, 44.044031666666655]}, "properties": {"similar_stop_name": "遠軽西１線", "similar_stop_id": "5210_01"}}, {"type": "Feature", "geometry": {"type": "Point", "coordinates": [143.506642857143, 44.045724166666645]}, "properties": {"similar_stop_name": "遠軽西２線", "similar_stop_id": "5212_01"}}, {"type": "Feature", "geometry": {"type": "Point", "coordinates": [143.5311238095235, 44.0489]}, "properties": {"similar_stop_name": "遠軽東１線", "similar_stop_id": "6216_01"}}, {"type": "Feature", "geometry": {"type": "Point", "coordinates": [143.53132857142901, 44.0652816666667]}, "properties": {"similar_stop_name": "遠軽東小学校", "similar_stop_id": "6242_01"}}, {"type": "Feature", "geometry": {"type": "Point", "coordinates": [143.531139047619, 44.066045]}, "properties": {"similar_stop_name": "遠軽東体育館", "similar_stop_id": "6244_01"}}, {"type": "Feature", "geometry": {"type": "Point", "coordinates": [143.534585714286, 44.0528183333333]}, "properties": {"similar_stop_name": "遠軽東町２丁目", "similar_stop_id": "1672_01"}}, {"type": "Feature", "geometry": {"type": "Point", "coordinates": [143.536252380952, 44.0494233333333]}, "properties": {"similar_stop_name": "遠軽東町３丁目", "similar_stop_id": "1673_01"}}, {"type": "Feature", "geometry": {"type": "Point", "coordinates": [143.531154195238, 44.04736624]}, "properties": {"similar_stop_name": "遠軽東町４丁目", "similar_stop_id": "7400_01"}}, {"type": "Feature", "geometry": {"type": "Point", "coordinates": [143.5342, 44.0488633333333]}, "properties": {"similar_stop_name": "遠軽東町分岐", "similar_stop_id": "1676_01"}}, {"type": "Feature", "geometry": {"type": "Point", "coordinates": [143.52857077142852, 44.04313472333335]}, "properties": {"similar_stop_name": "遠軽南小学校入口", "similar_stop_id": "7254_01"}}, {"type": "Feature", "geometry": {"type": "Point", "coordinates": [143.525923804762, 44.0395745133333]}, "properties": {"similar_stop_name": "遠軽南中学校", "similar_stop_id": "7258_01"}}, {"type": "Feature", "geometry": {"type": "Point", "coordinates": [143.523028209524, 44.0514765866667]}, "properties": {"similar_stop_name": "遠軽南町１丁目", "similar_stop_id": "9862_01"}}, {"type": "Feature", "geometry": {"type": "Point", "coordinates": [143.5207469238095, 44.050667989999994]}, "properties": {"similar_stop_name": "遠軽南町３丁目", "similar_stop_id": "9866_01"}}, {"type": "Feature", "geometry": {"type": "Point", "coordinates": [143.52200952380952, 44.0450575]}, "properties": {"similar_stop_name": "遠軽南町４丁目", "similar_stop_id": "8035_01"}}, {"type": "Feature", "geometry": {"type": "Point", "coordinates": [143.51039428571448, 43.755725]}, "properties": {"similar_stop_name": "温根湯温泉入口", "similar_stop_id": "506_01"}}, {"type": "Feature", "geometry": {"type": "Point", "coordinates": [143.8828876190475, 43.73988166666665]}, "properties": {"similar_stop_name": "開成", "similar_stop_id": "2131_01"}}, {"type": "Feature", "geometry": {"type": "Point", "coordinates": [143.870044761905, 43.7561025]}, "properties": {"similar_stop_name": "開成第一", "similar_stop_id": "2341_01"}}, {"type": "Feature", "geometry": {"type": "Point", "coordinates": [143.8852828571425, 43.72824250000005]}, "properties": {"similar_stop_name": "開成第三", "similar_stop_id": "2343_01"}}, {"type": "Feature", "geometry": {"type": "Point", "coordinates": [143.8851371428575, 43.7144508333333]}, "properties": {"similar_stop_name": "開成峠", "similar_stop_id": "2342_01"}}, {"type": "Feature", "geometry": {"type": "Point", "coordinates": [143.524942857143, 44.07832416666665]}, "properties": {"similar_stop_name": "学田１丁目", "similar_stop_id": "1608_01"}}, {"type": "Feature", "geometry": {"type": "Point", "coordinates": [143.5314761904765, 44.0762575]}, "properties": {"similar_stop_name": "学田２丁目", "similar_stop_id": "2080_01"}}, {"type": "Feature", "geometry": {"type": "Point", "coordinates": [143.520619047619, 44.07970833333335]}, "properties": {"similar_stop_name": "学田第１公園", "similar_stop_id": "2074_01"}}, {"type": "Feature", "geometry": {"type": "Point", "coordinates": [143.52087904761902, 44.07764166666665]}, "properties": {"similar_stop_name": "学田団地中央", "similar_stop_id": "4050_01"}}, {"type": "Feature", "geometry": {"type": "Point", "coordinates": [143.5243904761905, 44.074255]}, "properties": {"similar_stop_name": "学田霊園", "similar_stop_id": "8145_01"}}, {"type": "Feature", "geometry": {"type": "Point", "coordinates": [143.521919047619, 44.060236666666654]}, "properties": {"similar_stop_name": "岩見通北１丁目", "similar_stop_id": "1218_01"}}, {"type": "Feature", "geometry": {"type": "Point", "coordinates": [143.52351714285697, 44.064163333333354]}, "properties": {"similar_stop_name": "岩見通北４丁目", "similar_stop_id": "1220_01"}}, {"type": "Feature", "geometry": {"type": "Point", "coordinates": [143.5240952380955, 44.067205]}, "properties": {"similar_stop_name": "岩見通北５丁目", "similar_stop_id": "1222_01"}}, {"type": "Feature", "geometry": {"type": "Point", "coordinates": [143.52546190476198, 44.069371666666655]}, "properties": {"similar_stop_name": "岩見通北７丁目", "similar_stop_id": "1224_01"}}, {"type": "Feature", "geometry": {"type": "Point", "coordinates": [143.52596666666648, 44.071426666666696]}, "properties": {"similar_stop_name": "岩見通北８丁目", "similar_stop_id": "1226_01"}}, {"type": "Feature", "geometry": {"type": "Point", "coordinates": [143.539271428571, 44.0506683333333]}, "properties": {"similar_stop_name": "基幹集落センター入口", "similar_stop_id": "2331_01"}}, {"type": "Feature", "geometry": {"type": "Point", "coordinates": [143.871522857143, 43.78373500000005]}, "properties": {"similar_stop_name": "技術専門学院", "similar_stop_id": "4858_01"}}, {"type": "Feature", "geometry": {"type": "Point", "coordinates": [143.874220589605, 43.785604933921704]}, "properties": {"similar_stop_name": "錦町", "similar_stop_id": "6812_01"}}, {"type": "Feature", "geometry": {"type": "Point", "coordinates": [143.613323809524, 44.21839500000005]}, "properties": {"similar_stop_name": "錦町団地入口", "similar_stop_id": "5250_01"}}, {"type": "Feature", "geometry": {"type": "Point", "coordinates": [143.516738095238, 44.0543275]}, "properties": {"similar_stop_name": "公設グラウンド入口", "similar_stop_id": "2836_01"}}, {"type": "Feature", "geometry": {"type": "Point", "coordinates": [143.9069057142855, 43.82197]}, "properties": {"similar_stop_name": "工業大学", "similar_stop_id": "2121_01"}}, {"type": "Feature", "geometry": {"type": "Point", "coordinates": [143.92473171428549, 43.70013133333335]}, "properties": {"similar_stop_name": "最上", "similar_stop_id": "7170_01"}}, {"type": "Feature", "geometry": {"type": "Point", "coordinates": [143.93825695238098, 43.70302916666665]}, "properties": {"similar_stop_name": "最上１７番", "similar_stop_id": "7117_01"}}, {"type": "Feature", "geometry": {"type": "Point", "coordinates": [143.98040052380952, 43.69883]}, "properties": {"similar_stop_name": "最上６番", "similar_stop_id": "7106_01"}}, {"type": "Feature", "geometry": {"type": "Point", "coordinates": [143.8930714285715, 43.813085]}, "properties": {"similar_stop_name": "三楽町", "similar_stop_id": "1924_01"}}, {"type": "Feature", "geometry": {"type": "Point", "coordinates": [143.856445714286, 43.801975]}, "properties": {"similar_stop_name": "三輪通", "similar_stop_id": "7049_01"}}, {"type": "Feature", "geometry": {"type": "Point", "coordinates": [143.8772104761905, 43.80942958333335]}, "properties": {"similar_stop_name": "寿町", "similar_stop_id": "2850_01"}}, {"type": "Feature", "geometry": {"type": "Point", "coordinates": [143.52388095238098, 44.04018416666665]}, "properties": {"similar_stop_name": "寿町公民館入口", "similar_stop_id": "2852_01"}}, {"type": "Feature", "geometry": {"type": "Point", "coordinates": [144.158626658885, 43.881457004411]}, "properties": {"similar_stop_name": "女満別空港", "similar_stop_id": "7604_01"}}, {"type": "Feature", "geometry": {"type": "Point", "coordinates": [143.447785714286, 44.281541666666655]}, "properties": {"similar_stop_name": "小向１２線", "similar_stop_id": "2866_01"}}, {"type": "Feature", "geometry": {"type": "Point", "coordinates": [143.86367769047598, 43.881179453333345]}, "properties": {"similar_stop_name": "松浦宅前", "similar_stop_id": "7000_01"}}, {"type": "Feature", "geometry": {"type": "Point", "coordinates": [143.855973971429, 43.8057736]}, "properties": {"similar_stop_name": "松原医院", "similar_stop_id": "7611_01"}}, {"type": "Feature", "geometry": {"type": "Point", "coordinates": [143.854123809524, 43.873905833333296]}, "properties": {"similar_stop_name": "上仁頃", "similar_stop_id": "2048_01"}}, {"type": "Feature", "geometry": {"type": "Point", "coordinates": [144.069563809524, 44.119195]}, "properties": {"similar_stop_name": "常呂総合支所", "similar_stop_id": "4824_01"}}, {"type": "Feature", "geometry": {"type": "Point", "coordinates": [143.4836881761905, 44.253452356666656]}, "properties": {"similar_stop_name": "水谷", "similar_stop_id": "7202_01"}}, {"type": "Feature", "geometry": {"type": "Point", "coordinates": [144.005442857143, 43.7126375]}, "properties": {"similar_stop_name": "西達美", "similar_stop_id": "5470_01"}}, {"type": "Feature", "geometry": {"type": "Point", "coordinates": [143.5038571428575, 44.04716083333335]}, "properties": {"similar_stop_name": "西町４０号", "similar_stop_id": "240_01"}}, {"type": "Feature", "geometry": {"type": "Point", "coordinates": [143.508314285714, 44.0513608333333]}, "properties": {"similar_stop_name": "西町住民センター入口", "similar_stop_id": "5236_01"}}, {"type": "Feature", "geometry": {"type": "Point", "coordinates": [143.5128819047615, 44.05380166666665]}, "properties": {"similar_stop_name": "西町診療所", "similar_stop_id": "5234_01"}}, {"type": "Feature", "geometry": {"type": "Point", "coordinates": [143.8955828571425, 43.815695]}, "properties": {"similar_stop_name": "青葉通", "similar_stop_id": "1165_01"}}, {"type": "Feature", "geometry": {"type": "Point", "coordinates": [143.8705123809525, 43.85831333333335]}, "properties": {"similar_stop_name": "斉藤宅前（上仁頃）", "similar_stop_id": "3000_01"}}, {"type": "Feature", "geometry": {"type": "Point", "coordinates": [143.8228989, 43.78875378]}, "properties": {"similar_stop_name": "藻岩通", "similar_stop_id": "7830_01"}}, {"type": "Feature", "geometry": {"type": "Point", "coordinates": [143.89541469387785, 43.804060952380986]}, "properties": {"similar_stop_name": "大通", "similar_stop_id": "4808_01"}}, {"type": "Feature", "geometry": {"type": "Point", "coordinates": [143.521579047619, 44.056915000000004]}, "properties": {"similar_stop_name": "大通南２丁目", "similar_stop_id": "1802_01"}}, {"type": "Feature", "geometry": {"type": "Point", "coordinates": [143.5206238095235, 44.055385]}, "properties": {"similar_stop_name": "大通南３丁目", "similar_stop_id": "1804_01"}}, {"type": "Feature", "geometry": {"type": "Point", "coordinates": [143.519523809524, 44.054461666666654]},