stop_id,stop_name,similar_stop_id,similar_stop_name
518_01,‚Pπ’Κ–k‚V’–Ϊ,518_01,‚Pπ’Κ–k‚V’–Ϊ
518_02,‚Pπ’Κ–k‚V’–Ϊ,518_01,‚Pπ’Κ–k‚V’–Ϊ
508_01,‚Qπ’Κ,508_01,‚Qπ’Κ
508_02,‚Qπ’Κ,508_01,‚Qπ’Κ
522_01,‚Qπ’Κ–k‚Q’–Ϊ,522_01,‚Qπ’Κ–k‚Q’–Ϊ
522_02,‚Qπ’Κ–k‚Q’–Ϊ,522_01,‚Qπ’Κ–k‚Q’–Ϊ
524_01,‚Qπ’Κ–k‚R’–Ϊ,524_01,‚Qπ’Κ–k‚R’–Ϊ
524_02,‚Qπ’Κ–k‚R’–Ϊ,524_01,‚Qπ’Κ–k‚R’–Ϊ
526_01,‚Qπ’Κ–k‚T’–Ϊ,526_01,‚Qπ’Κ–k‚T’–Ϊ
526_02,‚Qπ’Κ–k‚T’–Ϊ,526_01,‚Qπ’Κ–k‚T’–Ϊ
528_01,‚Qπ’Κ–k‚U’–Ϊ,528_01,‚Qπ’Κ–k‚U’–Ϊ
528_02,‚Qπ’Κ–k‚U’–Ϊ,528_01,‚Qπ’Κ–k‚U’–Ϊ
510_01,‚Sπ’Κ,510_01,‚Sπ’Κ
510_02,‚Sπ’Κ,510_01,‚Sπ’Κ
530_01,‚SπΌ‚Q’–Ϊ,530_01,‚SπΌ‚Q’–Ϊ
532_01,‚SπΌ‚S’–Ϊ,532_01,‚SπΌ‚S’–Ϊ
532_02,‚SπΌ‚S’–Ϊ,532_01,‚SπΌ‚S’–Ϊ
532_03,‚SπΌ‚S’–Ϊ,532_01,‚SπΌ‚S’–Ϊ
534_01,‚Sπ“‚S’–Ϊ,534_01,‚Sπ“‚S’–Ϊ
534_02,‚Sπ“‚S’–Ϊ,534_01,‚Sπ“‚S’–Ϊ
548_01,‚V’–Ϊ‰οΩ,548_01,‚V’–Ϊ‰οΩ
548_02,‚V’–Ϊ‰οΩ,548_01,‚V’–Ϊ‰οΩ
556_01,‚m‚g‚j,556_01,‚m‚g‚j
556_02,‚m‚g‚j,556_01,‚m‚g‚j
1000_01,‘“ΰ,1000_01,‘“ΰ
1000_02,‘“ΰ,1000_01,‘“ΰ
1001_01,‘“ΰ¬wZ,1001_01,‘“ΰ¬wZ
1001_02,‘“ΰ¬wZ,1001_01,‘“ΰ¬wZ
1004_01,‘“ΰ_Π,1004_01,‘“ΰ_Π
1004_02,‘“ΰ_Π,1004_01,‘“ΰ_Π
1012_01,ƒAƒJƒVƒ„’c’n“όϋ,1012_01,ƒAƒJƒVƒ„’c’n“όϋ
1012_02,ƒAƒJƒVƒ„’c’n“όϋ,1012_01,ƒAƒJƒVƒ„’c’n“όϋ
1016_01,H•½,1016_01,H•½
1016_02,H•½,1016_01,H•½
6218_01,ƒAƒNƒƒX–k©,6218_01,ƒAƒNƒƒX–k©
6218_02,ƒAƒNƒƒX–k©,6218_01,ƒAƒNƒƒX–k©
2820_01,®‚P†ό,2820_01,®‚P†ό
2820_02,®‚P†ό,2820_01,®‚P†ό
202_01,®‚Q†ό,202_01,®‚Q†ό
202_02,®‚Q†ό,202_01,®‚Q†ό
1022_01,®‚Q‹ζ,1022_01,®‚Q‹ζ
1022_02,®‚Q‹ζ,1022_01,®‚Q‹ζ
203_01,®‚R†ό,203_01,®‚R†ό
203_02,®‚R†ό,203_01,®‚R†ό
1028_01,®“’¬,1028_01,®“’¬
1028_02,®“’¬,1028_01,®“’¬
1032_01,’©“ϊ’¬’†‰›,1032_01,’©“ϊ’¬’†‰›
1032_02,’©“ϊ’¬’†‰›,1032_01,’©“ϊ’¬’†‰›
8130_01,®“μ’c’n“όϋ,8130_01,®“μ’c’n“όϋ
8130_02,®“μ’c’n“όϋ,8130_01,®“μ’c’n“όϋ
9222_01,ΐZ‚Q‚Q†ό,9222_01,ΐZ‚Q‚Q†ό
9222_02,ΐZ‚Q‚Q†ό,9222_01,ΐZ‚Q‚Q†ό
9523_01,ΐZ‚Q‚R†ό,9523_01,ΐZ‚Q‚R†ό
9523_02,ΐZ‚Q‚R†ό,9523_01,ΐZ‚Q‚R†ό
225_01,ΐZ‚Q‚T†ό,225_01,ΐZ‚Q‚T†ό
225_02,ΐZ‚Q‚T†ό,225_01,ΐZ‚Q‚T†ό
9326_01,ΐZ‚Q‚U†ό,9326_01,ΐZ‚Q‚U†ό
9326_02,ΐZ‚Q‚U†ό,9326_01,ΐZ‚Q‚U†ό
1034_01,ΐZ‰οΩ,1034_01,ΐZ‰οΩ
1034_02,ΐZ‰οΩ,1034_01,ΐZ‰οΩ
1036_01,ΐC‘ξ‘O,1036_01,ΐC‘ξ‘O
1036_02,ΐC‘ξ‘O,1036_01,ΐC‘ξ‘O
3012_01,ƒCƒIƒ“–k©“X,3012_01,ƒCƒIƒ“–k©“X
3012_02,ƒCƒIƒ“–k©“X,3012_01,ƒCƒIƒ“–k©“X
1202_01,¶“c΄,1202_01,¶“c΄
1202_02,¶“c΄,1202_01,¶“c΄
1204_01,¶“c΄¬wZ,1204_01,¶“c΄¬wZ
1204_02,¶“c΄¬wZ,1204_01,¶“c΄¬wZ
1208_01,ς‘ζ‚Pφ‰€“όϋ,1208_01,ς‘ζ‚Pφ‰€“όϋ
1208_02,ς‘ζ‚Pφ‰€“όϋ,1208_01,ς‘ζ‚Pφ‰€“όϋ
1212_01,Ι‰οΩ,1212_01,Ι‰οΩ
1212_02,Ι‰οΩ,1212_01,Ι‰οΩ
1214_01,‚Ά‚ν‚Λ‘ε‹΄,1214_01,‚Ά‚ν‚Λ‘ε‹΄
1216_01,‚Ά‚ν‚Λ’c’n,1216_01,‚Ά‚ν‚Λ’c’n
2242_01,‰^“]–Ζ‹–±κ,2242_01,‰^“]–Ζ‹–±κ
1402_01,‰^“®φ‰€,1402_01,‰^“®φ‰€
1402_02,‰^“®φ‰€,1402_01,‰^“®φ‰€
8125_01,‰^—Ax‹Η“όϋ,8125_01,‰^—Ax‹Η“όϋ
8125_02,‰^—Ax‹Η“όϋ,8125_01,‰^—Ax‹Η“όϋ
1136_01,‚¦‚ρ‚‚ι‰·…ƒv[ƒ‹,1136_01,‚¦‚ρ‚‚ι‰·…ƒv[ƒ‹
1136_02,‚¦‚ρ‚‚ι‰·…ƒv[ƒ‹,1136_01,‚¦‚ρ‚‚ι‰·…ƒv[ƒ‹
1606_01,‰“y’†wZ,1606_01,‰“y’†wZ
1606_02,‰“y’†wZ,1606_01,‰“y’†wZ
1691_01,‰“y•H‚P’–Ϊ,1691_01,‰“y•H‚P’–Ϊ
1691_02,‰“y•H‚P’–Ϊ,1691_01,‰“y•H‚P’–Ϊ
6844_01,‰“y—X•Φ‹Η,6844_01,‰“y—X•Φ‹Η
6844_02,‰“y—X•Φ‹Η,6844_01,‰“y—X•Φ‹Η
1800_01,‘ε’J‘ξ‘O,1800_01,‘ε’J‘ξ‘O
1800_02,‘ε’J‘ξ‘O,1800_01,‘ε’J‘ξ‘O
204_01,‘ε•x‚S†ό,204_01,‘ε•x‚S†ό
204_02,‘ε•x‚S†ό,204_01,‘ε•x‚S†ό
9205_01,‘ε•x‚T†ό,9205_01,‘ε•x‚T†ό
9205_02,‘ε•x‚T†ό,9205_01,‘ε•x‚T†ό
206_01,‘ε•x‚U†ό,206_01,‘ε•x‚U†ό
206_02,‘ε•x‚U†ό,206_01,‘ε•x‚U†ό
9207_01,‘ε•x‚V†ό,9207_01,‘ε•x‚V†ό
9207_02,‘ε•x‚V†ό,9207_01,‘ε•x‚V†ό
9208_01,‘ε•x‚W†ό,9208_01,‘ε•x‚W†ό
9208_02,‘ε•x‚W†ό,9208_01,‘ε•x‚W†ό
1808_01,‘ε‹Θ,1808_01,‘ε‹Θ
1808_02,‘ε‹Θ,1808_01,‘ε‹Θ
1810_01,‘ε’¬,1810_01,‘ε’¬
1810_02,‘ε’¬,1810_01,‘ε’¬
1812_01,‘ε’¬—X•Φ‹Η,1812_01,‘ε’¬—X•Φ‹Η
1812_02,‘ε’¬—X•Φ‹Η,1812_01,‘ε’¬—X•Φ‹Η
1814_01,’uΛ,1814_01,’uΛ
544_01,’uΛ‰µ”„sκ,544_01,’uΛ‰µ”„sκ
544_02,’uΛ‰µ”„sκ,544_01,’uΛ‰µ”„sκ
1818_01,’uΛ’†wZ“όϋ,1818_01,’uΛ’†wZ“όϋ
1818_02,’uΛ’†wZ“όϋ,1818_01,’uΛ’†wZ“όϋ
9805_01,’uΛ’¬–πκ,9805_01,’uΛ’¬–πκ
9805_02,’uΛ’¬–πκ,9805_01,’uΛ’¬–πκ
8303_01,ƒIƒz[ƒcƒNC•a‰@,8303_01,ƒIƒz[ƒcƒNC•a‰@
1820_01,ƒIƒz[ƒcƒNƒ^ƒ[“όϋ,1820_01,ƒIƒz[ƒcƒNƒ^ƒ[“όϋ
1820_02,ƒIƒz[ƒcƒNƒ^ƒ[“όϋ,1820_01,ƒIƒz[ƒcƒNƒ^ƒ[“όϋ
4862_01,ƒIƒz[ƒcƒNƒhƒ‰ƒCƒuƒCƒ“,4862_01,ƒIƒz[ƒcƒNƒhƒ‰ƒCƒuƒCƒ“
4862_02,ƒIƒz[ƒcƒNƒhƒ‰ƒCƒuƒCƒ“,4862_01,ƒIƒz[ƒcƒNƒhƒ‰ƒCƒuƒCƒ“
1671_01,ƒIƒz[ƒcƒN–δ•Κ‹σ`,1671_01,ƒIƒz[ƒcƒN–δ•Κ‹σ`
1671_02,ƒIƒz[ƒcƒN–δ•Κ‹σ`,1671_01,ƒIƒz[ƒcƒN–δ•Κ‹σ`
1692_01,ƒIƒz[ƒcƒN—¬•Xφ‰€,1692_01,ƒIƒz[ƒcƒN—¬•Xφ‰€
1692_02,ƒIƒz[ƒcƒN—¬•Xφ‰€,1692_01,ƒIƒz[ƒcƒN—¬•Xφ‰€
1830_01,‰µ’¬‚P’–Ϊ,1830_01,‰µ’¬‚P’–Ϊ
1830_02,‰µ’¬‚P’–Ϊ,1830_01,‰µ’¬‚P’–Ϊ
1826_01,‰µ”„’c’n,1826_01,‰µ”„’c’n
1834_01,‰·“’,1834_01,‰·“’
1834_02,‰·“’,1834_01,‰·“’
1393_01,‚¨‚ρ‚Λ‚δf—Γ,1393_01,‚¨‚ρ‚Λ‚δf—Γ
1393_02,‚¨‚ρ‚Λ‚δf—Γ,1393_01,‚¨‚ρ‚Λ‚δf—Γ
3408_01,‰·“’ƒXƒ|[ƒcƒZƒ“ƒ^[,3408_01,‰·“’ƒXƒ|[ƒcƒZƒ“ƒ^[
3408_02,‰·“’ƒXƒ|[ƒcƒZƒ“ƒ^[,3408_01,‰·“’ƒXƒ|[ƒcƒZƒ“ƒ^[
1523_01,‰·“’Ό‚Tπ,1523_01,‰·“’Ό‚Tπ
1523_02,‰·“’Ό‚Tπ,1523_01,‰·“’Ό‚Tπ
8075_01,‰·“’”_‹¦,8075_01,‰·“’”_‹¦
8075_02,‰·“’”_‹¦,8075_01,‰·“’”_‹¦
1653_01,‰·“’“‚Qπ,1653_01,‰·“’“‚Qπ
1653_02,‰·“’“‚Qπ,1653_01,‰·“’“‚Qπ
2006_01,J·,2006_01,J·
2006_02,J·,2006_01,J·
2010_01,J·sX,2010_01,J·sX
2010_02,J·sX,2010_01,J·sX
2014_01,J”­––±,2014_01,J”­––±
2014_02,J”­––±,2014_01,J”­––±
6220_01,‚θ‚α‚ρ‚Ήφ‰€“όϋ,6220_01,‚θ‚α‚ρ‚Ήφ‰€“όϋ
6220_02,‚θ‚α‚ρ‚Ήφ‰€“όϋ,6220_01,‚θ‚α‚ρ‚Ήφ‰€“όϋ
9820_01,‰Νέφ‰€,9820_01,‰Νέφ‰€
9820_02,‰Νέφ‰€,9820_01,‰Νέφ‰€
2076_01,–k©ƒJ[ƒƒ“ƒOƒz[ƒ‹,2076_01,–k©ƒJ[ƒƒ“ƒOƒz[ƒ‹
2076_02,–k©ƒJ[ƒƒ“ƒOƒz[ƒ‹,2076_01,–k©ƒJ[ƒƒ“ƒOƒz[ƒ‹
2078_01,w‰€’Κ,2078_01,w‰€’Κ
2078_02,w‰€’Κ,2078_01,w‰€’Κ
2078_03,w‰€’Κ,2078_01,w‰€’Κ
2078_04,w‰€’Κ,2078_01,w‰€’Κ
2226_01,w“c‚R’–Ϊ,2226_01,w“c‚R’–Ϊ
2226_02,w“c‚R’–Ϊ,2226_01,w“c‚R’–Ϊ
2090_01,w—F‹΄,2090_01,w—F‹΄
2090_02,w—F‹΄,2090_01,w—F‹΄
2018_01,‰Τ’¬,2018_01,‰Τ’¬
2018_02,‰Τ’¬,2018_01,‰Τ’¬
4022_01,“c‚Μ‘ς“όϋ,4022_01,“c‚Μ‘ς“όϋ
4022_02,“c‚Μ‘ς“όϋ,4022_01,“c‚Μ‘ς“όϋ
4028_01,”’¬‚P†,4028_01,”’¬‚P†
4028_02,”’¬‚P†,4028_01,”’¬‚P†
7236_01,•—‚Μqφ‰€,7236_01,•—‚Μqφ‰€
7236_02,•—‚Μqφ‰€,7236_01,•—‚Μqφ‰€
2022_01,‰Ζ’{sκ,2022_01,‰Ζ’{sκ
2022_02,‰Ζ’{sκ,2022_01,‰Ζ’{sκ
2000_01,‹‚,2000_01,‹‚
2000_02,‹‚,2000_01,‹‚
2002_01,‹‚‘ζκ,2002_01,‹‚‘ζκ
2002_02,‹‚‘ζκ,2002_01,‹‚‘ζκ
347_01,‹‚‚S‚Vό,347_01,‹‚‚S‚Vό
347_02,‹‚‚S‚Vό,347_01,‹‚‚S‚Vό
348_01,‹‚‚S‚Wό,348_01,‹‚‚S‚Wό
348_02,‹‚‚S‚Wό,348_01,‹‚‚S‚Wό
349_01,‹‚‚S‚Xό,349_01,‹‚‚S‚Xό
349_02,‹‚‚S‚Xό,349_01,‹‚‚S‚Xό
352_01,‹‚‚T‚Qό,352_01,‹‚‚T‚Qό
352_02,‹‚‚T‚Qό,352_01,‹‚‚T‚Qό
354_01,‹‚‚T‚Sό,354_01,‹‚‚T‚Sό
354_02,‹‚‚T‚Sό,354_01,‹‚‚T‚Sό
2028_01,R,2028_01,R
2028_02,R,2028_01,R
2030_01,R‰·ς,2030_01,R‰·ς
2026_01,R’†‰›,2026_01,R’†‰›
2026_02,R’†‰›,2026_01,R’†‰›
2032_01,R‹΄,2032_01,R‹΄
2032_02,R‹΄,2032_01,R‹΄
6824_01,j’¬‚P’–Ϊ,6824_01,j’¬‚P’–Ϊ
6824_02,j’¬‚P’–Ϊ,6824_01,j’¬‚P’–Ϊ
2034_01,‰Α“΅–qκ,2034_01,‰Α“΅–qκ
2034_02,‰Α“΅–qκ,2034_01,‰Α“΅–qκ
2258_01,‹ΰR’Κ,2258_01,‹ΰR’Κ
2258_02,‹ΰR’Κ,2258_01,‹ΰR’Κ
2040_01,γzR,2040_01,γzR
2040_02,γzR,2040_01,γzR
2050_01,γm “όϋ,2050_01,γm “όϋ
2050_02,γm “όϋ,2050_01,γm “όϋ
2044_01,γνC,2044_01,γνC
2044_02,γνC,2044_01,γνC
9210_01,γνC‚P‚O†ό,9210_01,γνC‚P‚O†ό
9210_02,γνC‚P‚O†ό,9210_01,γνC‚P‚O†ό
9411_01,γνC‚P‚P†ό,9411_01,γνC‚P‚P†ό
9411_02,γνC‚P‚P†ό,9411_01,γνC‚P‚P†ό
9312_01,γνC‚P‚Q†ό,9312_01,γνC‚P‚Q†ό
9312_02,γνC‚P‚Q†ό,9312_01,γνC‚P‚Q†ό
9213_01,γνC‚P‚R†ό,9213_01,γνC‚P‚R†ό
9213_02,γνC‚P‚R†ό,9213_01,γνC‚P‚R†ό
9214_01,γνC‚P‚S†ό,9214_01,γνC‚P‚S†ό
9214_02,γνC‚P‚S†ό,9214_01,γνC‚P‚S†ό
9315_01,γνC‚P‚T†ό,9315_01,γνC‚P‚T†ό
9315_02,γνC‚P‚T†ό,9315_01,γνC‚P‚T†ό
2046_01,γνC¬wZ,2046_01,γνC¬wZ
2046_02,γνC¬wZ,2046_01,γνC¬wZ
2054_01,γ”ό–y,2054_01,γ”ό–y
2054_02,γ”ό–y,2054_01,γ”ό–y
2056_01,γ—N•Κ,2056_01,γ—N•Κ
2056_02,γ—N•Κ,2056_01,γ—N•Κ
2206_01,γ—N•Κ¬wZ,2206_01,γ—N•Κ¬wZ
2206_02,γ—N•Κ¬wZ,2206_01,γ—N•Κ¬wZ
2073_01,μγ,2073_01,μγ
2072_01,μΌ,2072_01,μΌ
2072_02,μΌ,2072_01,μΌ
2062_01,μΌ‚Rό,2062_01,μΌ‚Rό
2062_02,μΌ‚Rό,2062_01,μΌ‚Rό
2064_01,μΌ‚Tό,2064_01,μΌ‚Tό
2064_02,μΌ‚Tό,2064_01,μΌ‚Tό
2066_01,μΌ‚Uό,2066_01,μΌ‚Uό
2066_02,μΌ‚Uό,2066_01,μΌ‚Uό
2068_01,μΌ‚Vό,2068_01,μΌ‚Vό
2068_02,μΌ‚Vό,2068_01,μΌ‚Vό
2070_01,μΌ‚Wό,2070_01,μΌ‚Wό
2070_02,μΌ‚Wό,2070_01,μΌ‚Wό
2224_01,–k‚Uό,2224_01,–k‚Uό
2224_02,–k‚Uό,2224_01,–k‚Uό
2224_03,–k‚Uό,2224_01,–k‚Uό
6836_01,–k–Τ—•¶‰»ƒZƒ“ƒ^[,6836_01,–k–Τ—•¶‰»ƒZƒ“ƒ^[
6836_02,–k–Τ—•¶‰»ƒZƒ“ƒ^[,6836_01,–k–Τ—•¶‰»ƒZƒ“ƒ^[
9407_01,–kγ‚V†ό,9407_01,–kγ‚V†ό
9407_02,–kγ‚V†ό,9407_01,–kγ‚V†ό
9408_01,–kγ‚W†ό,9408_01,–kγ‚W†ό
9408_02,–kγ‚W†ό,9408_01,–kγ‚W†ό
2234_01,–k¬wZ,2234_01,–k¬wZ
2234_02,–k¬wZ,2234_01,–k¬wZ
6818_01,–k‰‘—Ύ,6818_01,–k‰‘—Ύ
6818_02,–k‰‘—Ύ,6818_01,–k‰‘—Ύ
2816_01,–k’n‹ζƒgƒƒZƒ“,2816_01,–k’n‹ζƒgƒƒZƒ“
2236_01,–k’†wZ,2236_01,–k’†wZ
6834_01,–k“Hκ,6834_01,–k“Hκ
6834_02,–k“Hκ,6834_01,–k“Hκ
6832_01,–k“o,6832_01,–k“o
6832_02,–k“o,6832_01,–k“o
6800_01,–kυ‚P†ό,6800_01,–kυ‚P†ό
6800_02,–kυ‚P†ό,6800_01,–kυ‚P†ό
6802_01,–kυ‚Q†ό,6802_01,–kυ‚Q†ό
6802_02,–kυ‚Q†ό,6802_01,–kυ‚Q†ό
6806_01,–kυ‚S†ό,6806_01,–kυ‚S†ό
6806_02,–kυ‚S†ό,6806_01,–kυ‚S†ό
6808_01,–kυΠ,6808_01,–kυΠ
6808_02,–kυΠ,6808_01,–kυΠ
546_01,–k•Ί‘Ί‚P‹ζ,546_01,–k•Ί‘Ί‚P‹ζ
546_02,–k•Ί‘Ί‚P‹ζ,546_01,–k•Ί‘Ί‚P‹ζ
1602_01,–k©‰w,1602_01,–k©‰w
1602_02,–k©‰w,1602_01,–k©‰w
1828_01,–k©‰µ”„sκ,1828_01,–k©‰µ”„sκ
2240_01,–k©‰·ς,2240_01,–k©‰·ς
2240_02,–k©‰·ς,2240_01,–k©‰·ς
2248_01,‹L”O”θ,2248_01,‹L”O”θ
2248_02,‹L”O”θ,2248_01,‹L”O”θ
2200_01,ƒLƒƒƒ“ƒvκ“όϋ,2200_01,ƒLƒƒƒ“ƒvκ“όϋ
2200_02,ƒLƒƒƒ“ƒvκ“όϋ,2200_01,ƒLƒƒƒ“ƒvκ“όϋ
3202_01,‹«–μ‚Q†ό,3202_01,‹«–μ‚Q†ό
3202_02,‹«–μ‚Q†ό,3202_01,‹«–μ‚Q†ό
2208_01,‹¤—§,2208_01,‹¤—§
2208_02,‹¤—§,2208_01,‹¤—§
9307_01,‹¤—§‚V†ό,9307_01,‹¤—§‚V†ό
9307_02,‹¤—§‚V†ό,9307_01,‹¤—§‚V†ό
9308_01,‹¤—§‚W†ό,9308_01,‹¤—§‚W†ό
9308_02,‹¤—§‚W†ό,9308_01,‹¤—§‚W†ό
2210_01,‹¤a,2210_01,‹¤a
2210_02,‹¤a,2210_01,‹¤a
2212_01,‹¤a¶‚«‚‚ΆƒZƒ“ƒ^[,2212_01,‹¤a¶‚«‚‚ΆƒZƒ“ƒ^[
2212_02,‹¤a¶‚«‚‚ΆƒZƒ“ƒ^[,2212_01,‹¤a¶‚«‚‚ΆƒZƒ“ƒ^[
2252_01,΄©’†‰›,2252_01,΄©’†‰›
2252_02,΄©’†‰›,2252_01,΄©’†‰›
2254_01,΄©’¬,2254_01,΄©’¬
2254_02,΄©’¬,2254_01,΄©’¬
2250_01,ƒLƒ‰ƒ‰ƒ“΄—Ά,2250_01,ƒLƒ‰ƒ‰ƒ“΄—Ά
2404_01,ƒOƒ[ƒ“ƒ^ƒEƒ“,2404_01,ƒOƒ[ƒ“ƒ^ƒEƒ“
2404_02,ƒOƒ[ƒ“ƒ^ƒEƒ“,2404_01,ƒOƒ[ƒ“ƒ^ƒEƒ“
6202_01,ƒOƒ[ƒ“’c’n,6202_01,ƒOƒ[ƒ“’c’n
6202_02,ƒOƒ[ƒ“’c’n,6202_01,ƒOƒ[ƒ“’c’n
2400_01,Pq•{,2400_01,Pq•{
2400_02,Pq•{,2400_01,Pq•{
9810_01,Pq•{‚Q‚T†ό,9810_01,Pq•{‚Q‚T†ό
9810_02,Pq•{‚Q‚T†ό,9810_01,Pq•{‚Q‚T†ό
9810_03,Pq•{‚Q‚T†ό,9810_01,Pq•{‚Q‚T†ό
2403_01,Pq•{‰w,2403_01,Pq•{‰w
2402_01,Pq•{‰·ς“όϋ,2402_01,Pq•{‰·ς“όϋ
2402_02,Pq•{‰·ς“όϋ,2402_01,Pq•{‰·ς“όϋ
6246_01,Pq•{“’¬,6246_01,Pq•{“’¬
6246_02,Pq•{“’¬,6246_01,Pq•{“’¬
4850_01,x@,4850_01,x@
4850_02,x@,4850_01,x@
516_01,‚°‚ρ‚«‚Q‚P,516_01,‚°‚ρ‚«‚Q‚P
516_02,‚°‚ρ‚«‚Q‚P,516_01,‚°‚ρ‚«‚Q‚P
2604_01,΄¶‰Τ‰€,2604_01,΄¶‰Τ‰€
2604_02,΄¶‰Τ‰€,2604_01,΄¶‰Τ‰€
6230_01,¬ς‚V†,6230_01,¬ς‚V†
6230_02,¬ς‚V†,6230_01,¬ς‚V†
6230_03,¬ς‚V†,6230_01,¬ς‚V†
2800_01,¬ς‚W†,2800_01,¬ς‚W†
2800_02,¬ς‚W†,2800_01,¬ς‚W†
2802_01,¬ς¬wZ,2802_01,¬ς¬wZ
2802_02,¬ς¬wZ,2802_01,¬ς¬wZ
2804_01,¬ς’c’n,2804_01,¬ς’c’n
2804_02,¬ς’c’n,2804_01,¬ς’c’n
2807_01,¬ς’†wZ“όϋ,2807_01,¬ς’†wZ“όϋ
2807_02,¬ς’†wZ“όϋ,2807_01,¬ς’†wZ“όϋ
2218_01,‚‰h‚R†ό,2218_01,‚‰h‚R†ό
2218_02,‚‰h‚R†ό,2218_01,‚‰h‚R†ό
2818_01,‚‰h‚S†ό,2818_01,‚‰h‚S†ό
2818_02,‚‰h‚S†ό,2818_01,‚‰h‚S†ό
2817_01,‚‰h‚U†ό,2817_01,‚‰h‚U†ό
2817_02,‚‰h‚U†ό,2817_01,‚‰h‚U†ό
2808_01,‚‰h¬wZ,2808_01,‚‰h¬wZ
2808_02,‚‰h¬wZ,2808_01,‚‰h¬wZ
2808_03,‚‰h¬wZ,2808_01,‚‰h¬wZ
4806_02,‚‰h¤“XX“όϋ,4806_02,‚‰h¤“XX“όϋ
2814_01,‚‰h’c’n“όϋ,2814_01,‚‰h’c’n“όϋ
2814_02,‚‰h’c’n“όϋ,2814_01,‚‰h’c’n“όϋ
554_01,‚‰hΌ’¬‚P’–Ϊ,554_01,‚‰hΌ’¬‚P’–Ϊ
554_02,‚‰hΌ’¬‚P’–Ϊ,554_01,‚‰hΌ’¬‚P’–Ϊ
1006_01,‚‰h“’¬‚R’–Ϊ,1006_01,‚‰h“’¬‚R’–Ϊ
9890_01,‚‰h”όR’Κ,9890_01,‚‰h”όR’Κ
9890_02,‚‰h”όR’Κ,9890_01,‚‰h”όR’Κ
2826_01,H‹Ζ‚Z,2826_01,H‹Ζ‚Z
2826_02,H‹Ζ‚Z,2826_01,H‹Ζ‚Z
2840_01,H‹Ζ‘εw³–ε,2840_01,H‹Ζ‘εw³–ε
2840_02,H‹Ζ‘εw³–ε,2840_01,H‹Ζ‘εw³–ε
2838_01,H‹Ζ‘εw“όϋ,2838_01,H‹Ζ‘εw“όϋ
2838_02,H‹Ζ‘εw“όϋ,2838_01,H‹Ζ‘εw“όϋ
2880_01,φi‹΄,2880_01,φi‹΄
2880_02,φi‹΄,2880_01,φi‹΄
2832_01,υΌ’†wZ,2832_01,υΌ’†wZ
2832_02,υΌ’†wZ,2832_01,υΌ’†wZ
2844_01,ό—z‰€,2844_01,ό—z‰€
2844_02,ό—z‰€,2844_01,ό—z‰€
2870_01,ά­R’Κ,2870_01,ά­R’Κ
2870_02,ά­R’Κ,2870_01,ά­R’Κ
2854_01,¬’¬μ‘ε‹΄,2854_01,¬’¬μ‘ε‹΄
2854_02,¬’¬μ‘ε‹΄,2854_01,¬’¬μ‘ε‹΄
2864_01,¬ό,2864_01,¬ό
2864_02,¬ό,2864_01,¬ό
2858_01,¬ό‚P‚Pό,2858_01,¬ό‚P‚Pό
2858_02,¬ό‚P‚Pό,2858_01,¬ό‚P‚Pό
2860_01,¬ό‚P‚Sό,2860_01,¬ό‚P‚Sό
2860_02,¬ό‚P‚Sό,2860_01,¬ό‚P‚Sό
2862_01,¬ό‚Vό,2862_01,¬ό‚Vό
2862_02,¬ό‚Vό,2862_01,¬ό‚Vό
9000_01,Δ“΅‘ξ‘Oi‘ε³j,9000_01,Δ“΅‘ξ‘Oi‘ε³j
9000_02,Δ“΅‘ξ‘Oi‘ε³j,9000_01,Δ“΅‘ξ‘Oi‘ε³j
3002_01,‹«–μ,3002_01,‹«–μ
3002_02,‹«–μ,3002_01,‹«–μ
3007_01,‰h’¬,3007_01,‰h’¬
3007_02,‰h’¬,3007_01,‰h’¬
3010_01,‰h’¬‚P‹ζ,3010_01,‰h’¬‚P‹ζ
3010_02,‰h’¬‚P‹ζ,3010_01,‰h’¬‚P‹ζ
538_01,O†“»,538_01,O†“»
538_02,O†“»,538_01,O†“»
7234_01,ƒTƒ“ƒgƒ‰ƒC–k©,7234_01,ƒTƒ“ƒgƒ‰ƒC–k©
4814_01,s‰c‹…κ“όϋ,4814_01,s‰c‹…κ“όϋ
4814_02,s‰c‹…κ“όϋ,4814_01,s‰c‹…κ“όϋ
3250_01,ΐK‹΄,3250_01,ΐK‹΄
3250_02,ΐK‹΄,3250_01,ΐK‹΄
520_01,ƒVƒeƒB‚¦‚ρ‚‚ι,520_01,ƒVƒeƒB‚¦‚ρ‚‚ι
520_02,ƒVƒeƒB‚¦‚ρ‚‚ι,520_01,ƒVƒeƒB‚¦‚ρ‚‚ι
3244_01,™“¶‘’k,3244_01,™“¶‘’k
3244_02,™“¶‘’k,3244_01,™“¶‘’k
3226_01,s–―‰οΩ,3226_01,s–―‰οΩ
3228_01,‰ΊzR,3228_01,‰ΊzR
3228_02,‰ΊzR,3228_01,‰ΊzR
3200_01,Co›,3200_01,Co›
3200_02,Co›,3200_01,Co›
3204_01,tυ’¬‚R’–Ϊ,3204_01,tυ’¬‚R’–Ϊ
3204_02,tυ’¬‚R’–Ϊ,3204_01,tυ’¬‚R’–Ϊ
3206_01,tυ’¬‚S’–Ϊ,3206_01,tυ’¬‚S’–Ϊ
3206_02,tυ’¬‚S’–Ϊ,3206_01,tυ’¬‚S’–Ϊ
3208_01,tυ’¬‚T’–Ϊ,3208_01,tυ’¬‚T’–Ϊ
3208_02,tυ’¬‚T’–Ϊ,3208_01,tυ’¬‚T’–Ϊ
210_01,Ί‰h‚P‚O†ό,210_01,Ί‰h‚P‚O†ό
210_02,Ί‰h‚P‚O†ό,210_01,Ί‰h‚P‚O†ό
9211_01,Ί‰h‚P‚P†ό,9211_01,Ί‰h‚P‚P†ό
9211_02,Ί‰h‚P‚P†ό,9211_01,Ί‰h‚P‚P†ό
213_01,Ί‰h‚P‚R†ό,213_01,Ί‰h‚P‚R†ό
213_02,Ί‰h‚P‚R†ό,213_01,Ί‰h‚P‚R†ό
9209_01,Ί‰h‚X†ό,9209_01,Ί‰h‚X†ό
9209_02,Ί‰h‚X†ό,9209_01,Ί‰h‚X†ό
3251_01,¬—•Κ,3251_01,¬—•Κ
3251_02,¬—•Κ,3251_01,¬—•Κ
4820_01,ν”Υ’¬,4820_01,ν”Υ’¬
4820_02,ν”Υ’¬,4820_01,ν”Υ’¬
3210_01,Α–h,3210_01,Α–h
3210_02,Α–h,3210_01,Α–h
1400_01,Ίa,1400_01,Ίa
1400_02,Ίa,1400_01,Ίa
3212_01,Ίa‹΄,3212_01,Ίa‹΄
3212_02,Ίa‹΄,3212_01,Ίa‹΄
3246_01,_Π’Κ,3246_01,_Π’Κ
3246_02,_Π’Κ,3246_01,_Π’Κ
3224_01,M•”“ΰ,3224_01,M•”“ΰ
3224_02,M•”“ΰ,3224_01,M•”“ΰ
3400_01,––L,3400_01,––L
3406_01,ƒXƒ|[ƒcφ‰€,3406_01,ƒXƒ|[ƒcφ‰€
2214_01,Ή“Ώ›,2214_01,Ή“Ώ›
2214_02,Ή“Ώ›,2214_01,Ή“Ώ›
4133_01,‘ες›,4133_01,‘ες›
4133_02,‘ες›,4133_01,‘ες›
4002_01,‘ε³“όϋ,4002_01,‘ε³“όϋ
4002_02,‘ε³“όϋ,4002_01,‘ε³“όϋ
4004_01,‘ε³ƒSƒ‹ƒtκ“όϋ,4004_01,‘ε³ƒSƒ‹ƒtκ“όϋ
2004_01,‘ε³_Π“όϋ,2004_01,‘ε³_Π“όϋ
2004_02,‘ε³_Π“όϋ,2004_01,‘ε³_Π“όϋ
2004_03,‘ε³_Π“όϋ,2004_01,‘ε³_Π“όϋ
4006_01,‘ε³‹΄,4006_01,‘ε³‹΄
4006_02,‘ε³‹΄,4006_01,‘ε³‹΄
4008_01,‘ε³•ƒ‰οΩ,4008_01,‘ε³•ƒ‰οΩ
9045_01,‘εa,9045_01,‘εa
9045_02,‘εa,9045_01,‘εa
4048_01,‘εa’c’n,4048_01,‘εa’c’n
4048_02,‘εa’c’n,4048_01,‘εa’c’n
4012_01,‚‘δ’¬,4012_01,‚‘δ’¬
4012_02,‚‘δ’¬,4012_01,‚‘δ’¬
4018_01,‚–μ‘ζO,4018_01,‚–μ‘ζO
4018_02,‚–μ‘ζO,4018_01,‚–μ‘ζO
4016_01,‚–μ‘ζκ,4016_01,‚–μ‘ζκ
4016_02,‚–μ‘ζκ,4016_01,‚–μ‘ζκ
4020_01,‚–μ’†‰›,4020_01,‚–μ’†‰›
4020_02,‚–μ’†‰›,4020_01,‚–μ’†‰›
4026_01,‘ρΐ“όϋ,4026_01,‘ρΐ“όϋ
4026_02,‘ρΐ“όϋ,4026_01,‘ρΐ“όϋ
4024_01,‘ρB‹΄,4024_01,‘ρB‹΄
4024_02,‘ρB‹΄,4024_01,‘ρB‹΄
355_01,’B”ό‚T‚Tό,355_01,’B”ό‚T‚Tό
355_02,’B”ό‚T‚Tό,355_01,’B”ό‚T‚Tό
4030_01,’B”ό‰οΩ,4030_01,’B”ό‰οΩ
4030_02,’B”ό‰οΩ,4030_01,’B”ό‰οΩ
6224_01,“c’[‚T†ό,6224_01,“c’[‚T†ό
6224_02,“c’[‚T†ό,6224_01,“c’[‚T†ό
6226_01,“c’[‚U†ό,6226_01,“c’[‚U†ό
6226_02,“c’[‚U†ό,6226_01,“c’[‚U†ό
4032_01,“c’[’¬,4032_01,“c’[’¬
4032_02,“c’[’¬,4032_01,“c’[’¬
6602_01,“c’[•Ο“d,6602_01,“c’[•Ο“d
6602_02,“c’[•Ο“d,6602_01,“c’[•Ο“d
4034_01,’[–μ‚P‹ζ,4034_01,’[–μ‚P‹ζ
4034_02,’[–μ‚P‹ζ,4034_01,’[–μ‚P‹ζ
6214_01,’[–μφ–―Ω“όϋ,6214_01,’[–μφ–―Ω“όϋ
6214_02,’[–μφ–―Ω“όϋ,6214_01,’[–μφ–―Ω“όϋ
6212_01,’[–μ”_‹¦,6212_01,’[–μ”_‹¦
6212_02,’[–μ”_‹¦,6212_01,’[–μ”_‹¦
4036_01,’[–μ•a‰@,4036_01,’[–μ•a‰@
4036_02,’[–μ•a‰@,4036_01,’[–μ•a‰@
4038_01,’[–μ—X•Φ‹Η,4038_01,’[–μ—X•Φ‹Η
4038_02,’[–μ—X•Φ‹Η,4038_01,’[–μ—X•Φ‹Η
4210_01,’nζP—ϋƒZƒ“ƒ^[,4210_01,’nζP—ϋƒZƒ“ƒ^[
4210_02,’nζP—ϋƒZƒ“ƒ^[,4210_01,’nζP—ϋƒZƒ“ƒ^[
4212_01,ƒ`ƒ~ƒPƒbƒv“όϋ,4212_01,ƒ`ƒ~ƒPƒbƒv“όϋ
4212_02,ƒ`ƒ~ƒPƒbƒv“όϋ,4212_01,ƒ`ƒ~ƒPƒbƒv“όϋ
2230_01,‚Ώ‚α‚Ώ‚αƒ[ƒ‹ƒh,2230_01,‚Ώ‚α‚Ώ‚αƒ[ƒ‹ƒh
2230_02,‚Ώ‚α‚Ώ‚αƒ[ƒ‹ƒh,2230_01,‚Ώ‚α‚Ώ‚αƒ[ƒ‹ƒh
9802_01,’‰u“όϋ,9802_01,’‰u“όϋ
9802_02,’‰u“όϋ,9802_01,’‰u“όϋ
9515_01,ƒ`ƒ…[ƒƒbƒvφ‰€,9515_01,ƒ`ƒ…[ƒƒbƒvφ‰€
9515_02,ƒ`ƒ…[ƒƒbƒvφ‰€,9515_01,ƒ`ƒ…[ƒƒbƒvφ‰€
4206_01,’¬‰cƒoƒXΤΙ,4206_01,’¬‰cƒoƒXΤΙ
4206_02,’¬‰cƒoƒXΤΙ,4206_01,’¬‰cƒoƒXΤΙ
4402_01,‚Β‚Β‚¶φ‰€,4402_01,‚Β‚Β‚¶φ‰€
2016_01,p‹΄,2016_01,p‹΄
2016_02,p‹΄,2016_01,p‹΄
1030_01,’Γ•Κ®’¬,1030_01,’Γ•Κ®’¬
1030_02,’Γ•Κ®’¬,1030_01,’Γ•Κ®’¬
2812_01,’Γ•Κ‚‰h’c’n,2812_01,’Γ•Κ‚‰h’c’n
2812_02,’Γ•Κ‚‰h’c’n,2812_01,’Γ•Κ‚‰h’c’n
4404_01,’Γ•Κ’¬–πκ,4404_01,’Γ•Κ’¬–πκ
6848_01,’Γ•Κ–{’¬,6848_01,’Γ•Κ–{’¬
6848_02,’Γ•Κ–{’¬,6848_01,’Γ•Κ–{’¬
4608_01,o‡‹΄,4608_01,o‡‹΄
4608_02,o‡‹΄,4608_01,o‡‹΄
4600_01,“SR,4600_01,“SR
4600_02,“SR,4600_01,“SR
4602_01,ƒeƒjƒXƒR[ƒg,4602_01,ƒeƒjƒXƒR[ƒg
4602_02,ƒeƒjƒXƒR[ƒg,4602_01,ƒeƒjƒXƒR[ƒg
4802_01,““όϋ,4802_01,““όϋ
4802_02,““όϋ,4802_01,““όϋ
6208_01,“•,6208_01,“•
6208_02,“•,6208_01,“•
5204_01,“Ή—§•a‰@,5204_01,“Ή—§•a‰@
5204_02,“Ή—§•a‰@,5204_01,“Ή—§•a‰@
4816_01,“—Λ’†wZ,4816_01,“—Λ’†wZ
4816_02,“—Λ’†wZ,4816_01,“—Λ’†wZ
4816_03,“—Λ’†wZ,4816_01,“—Λ’†wZ
4816_04,“—Λ’†wZ,4816_01,“—Λ’†wZ
4818_01,ν”Υφ‰€,4818_01,ν”Υφ‰€
4818_02,ν”Υφ‰€,4818_01,ν”Υφ‰€
4822_01,νC,4822_01,νC
9302_01,νCΑ–h,9302_01,νCΑ–h
9302_02,νCΑ–h,9302_01,νCΑ–h
9215_01,•x‹u“όϋ,9215_01,•x‹u“όϋ
9215_02,•x‹u“όϋ,9215_01,•x‹u“όϋ
9212_01,–Lμ‚P‚Q†ό,9212_01,–Lμ‚P‚Q†ό
9212_02,–Lμ‚P‚Q†ό,9212_01,–Lμ‚P‚Q†ό
4830_01,–Lμ‚P‚R†ό,4830_01,–Lμ‚P‚R†ό
4830_02,–Lμ‚P‚R†ό,4830_01,–Lμ‚P‚R†ό
9217_01,–Lμ‚P‚V†ό,9217_01,–Lμ‚P‚V†ό
9217_02,–Lμ‚P‚V†ό,9217_01,–Lμ‚P‚V†ό
9220_01,–Lμ‚Q‚O†ό,9220_01,–Lμ‚Q‚O†ό
9220_02,–Lμ‚Q‚O†ό,9220_01,–Lμ‚Q‚O†ό
4828_01,–Lμ—X•Φ‹Η,4828_01,–Lμ—X•Φ‹Η
4828_02,–Lμ—X•Φ‹Η,4828_01,–Lμ—X•Φ‹Η
4834_01,–L—Ά―Ι,4834_01,–L—Ά―Ι
4834_02,–L—Ά―Ι,4834_01,–L—Ά―Ι
4836_01,–L—Ά’c’n,4836_01,–L—Ά’c’n
4836_02,–L—Ά’c’n,4836_01,–L—Ά’c’n
9305_01,–LZ‚T†ό,9305_01,–LZ‚T†ό
9305_02,–LZ‚T†ό,9305_01,–LZ‚T†ό
9507_01,–LZ‚V†ό,9507_01,–LZ‚V†ό
9507_02,–LZ‚V†ό,9507_01,–LZ‚V†ό
4838_01,–L΄‚T‚S†,4838_01,–L΄‚T‚S†
4838_02,–L΄‚T‚S†,4838_01,–L΄‚T‚S†
1206_01,–L΄‚T‚V†,1206_01,–L΄‚T‚V†
1206_02,–L΄‚T‚V†,1206_01,–L΄‚T‚V†
342_01,–L–y‚S‚Qό,342_01,–L–y‚S‚Qό
342_02,–L–y‚S‚Qό,342_01,–L–y‚S‚Qό
343_01,–L–y‚S‚Rό,343_01,–L–y‚S‚Rό
343_02,–L–y‚S‚Rό,343_01,–L–y‚S‚Rό
345_01,–L–y‚S‚Tό,345_01,–L–y‚S‚Tό
345_02,–L–y‚S‚Tό,345_01,–L–y‚S‚Tό
4840_01,–Lΐ,4840_01,–Lΐ
4840_02,–Lΐ,4840_01,–Lΐ
4842_01,‚Ζ‚ρ“c‚Q†ό,4842_01,‚Ζ‚ρ“c‚Q†ό
4842_02,‚Ζ‚ρ“c‚Q†ό,4842_01,‚Ζ‚ρ“c‚Q†ό
4844_01,‚Ζ‚ρ“c‚R†ό,4844_01,‚Ζ‚ρ“c‚R†ό
4844_02,‚Ζ‚ρ“c‚R†ό,4844_01,‚Ζ‚ρ“c‚R†ό
4846_01,‚Ζ‚ρ“c‚S†ό,4846_01,‚Ζ‚ρ“c‚S†ό
4846_02,‚Ζ‚ρ“c‚S†ό,4846_01,‚Ζ‚ρ“c‚S†ό
4848_01,‚Ζ‚ρ“c’‡’Κ,4848_01,‚Ζ‚ρ“c’‡’Κ
4848_02,‚Ζ‚ρ“c’‡’Κ,4848_01,‚Ζ‚ρ“c’‡’Κ
4848_03,‚Ζ‚ρ“c’‡’Κ,4848_01,‚Ζ‚ρ“c’‡’Κ
4848_04,‚Ζ‚ρ“c’‡’Κ,4848_01,‚Ζ‚ρ“c’‡’Κ
4852_01,‚Ζ‚ρ“cΌ’Κ,4852_01,‚Ζ‚ρ“cΌ’Κ
4852_02,‚Ζ‚ρ“cΌ’Κ,4852_01,‚Ζ‚ρ“cΌ’Κ
4854_01,‚Ζ‚ρ“c“’Κ,4854_01,‚Ζ‚ρ“c“’Κ
4854_02,‚Ζ‚ρ“c“’Κ,4854_01,‚Ζ‚ρ“c“’Κ
536_01,“Τ“c‚Μ“mφ‰€,536_01,“Τ“c‚Μ“mφ‰€
536_02,“Τ“c‚Μ“mφ‰€,536_01,“Τ“c‚Μ“mφ‰€
9219_01,’†—Ά‚P‚X†ό,9219_01,’†—Ά‚P‚X†ό
9219_02,’†—Ά‚P‚X†ό,9219_01,’†—Ά‚P‚X†ό
9221_01,’†—Ά‚Q‚P†ό,9221_01,’†—Ά‚Q‚P†ό
9221_02,’†—Ά‚Q‚P†ό,9221_01,’†—Ά‚Q‚P†ό
7268_01,’†‚Μ“‡‚P’–Ϊ,7268_01,’†‚Μ“‡‚P’–Ϊ
7268_02,’†‚Μ“‡‚P’–Ϊ,7268_01,’†‚Μ“‡‚P’–Ϊ
7268_03,’†‚Μ“‡‚P’–Ϊ,7268_01,’†‚Μ“‡‚P’–Ϊ
5000_01,’†‚Μ“‡‚S’–Ϊ,5000_01,’†‚Μ“‡‚S’–Ϊ
5000_02,’†‚Μ“‡‚S’–Ϊ,5000_01,’†‚Μ“‡‚S’–Ϊ
5002_01,’†‚Μ“‡φ‰€“όϋ,5002_01,’†‚Μ“‡φ‰€“όϋ
5002_02,’†‚Μ“‡φ‰€“όϋ,5002_01,’†‚Μ“‡φ‰€“όϋ
5002_03,’†‚Μ“‡φ‰€“όϋ,5002_01,’†‚Μ“‡φ‰€“όϋ
5002_04,’†‚Μ“‡φ‰€“όϋ,5002_01,’†‚Μ“‡φ‰€“όϋ
5004_01,’†‚Μ“‡’c’n,5004_01,’†‚Μ“‡’c’n
5004_02,’†‚Μ“‡’c’n,5004_01,’†‚Μ“‡’c’n
5006_01,’‡’¬,5006_01,’‡’¬
5006_02,’‡’¬,5006_01,’‡’¬
5012_01,’†—N•ΚsX,5012_01,’†—N•ΚsX
5012_02,’†—N•ΚsX,5012_01,’†—N•ΚsX
5010_01,’†—N•Κ¬wZ,5010_01,’†—N•Κ¬wZ
5010_02,’†—N•Κ¬wZ,5010_01,’†—N•Κ¬wZ
5008_01,’†—N•Κ•¶‰»ƒZƒ“ƒ^[ƒgƒ€,5008_01,’†—N•Κ•¶‰»ƒZƒ“ƒ^[ƒgƒ€
7238_02,“μέ’Κ‚S†ό,7238_02,“μέ’Κ‚S†ό
8305_01,“ρ}‹΄,8305_01,“ρ}‹΄
8305_02,“ρ}‹΄,8305_01,“ρ}‹΄
106_01,m ‚Ν‚Α‚©φ‰€,106_01,m ‚Ν‚Α‚©φ‰€
106_02,m ‚Ν‚Α‚©φ‰€,106_01,m ‚Ν‚Α‚©φ‰€
5208_01,m ’¬,5208_01,m ’¬
5208_02,m ’¬,5208_01,m ’¬
5208_03,m ’¬,5208_01,m ’¬
5208_04,m ’¬,5208_01,m ’¬
211_01,Ό‚P‚P†ό,211_01,Ό‚P‚P†ό
211_02,Ό‚P‚P†ό,211_01,Ό‚P‚P†ό
214_01,Ό‚P‚S†ό,214_01,Ό‚P‚S†ό
214_02,Ό‚P‚S†ό,214_01,Ό‚P‚S†ό
215_01,Ό‚P‚T†ό,215_01,Ό‚P‚T†ό
215_02,Ό‚P‚T†ό,215_01,Ό‚P‚T†ό
217_01,Ό‚P‚V†ό,217_01,Ό‚P‚V†ό
217_02,Ό‚P‚V†ό,217_01,Ό‚P‚V†ό
502_01,Ό‚P‚W†ό,502_01,Ό‚P‚W†ό
502_02,Ό‚P‚W†ό,502_01,Ό‚P‚W†ό
223_01,Ό‚Q‚R†ό,223_01,Ό‚Q‚R†ό
223_02,Ό‚Q‚R†ό,223_01,Ό‚Q‚R†ό
504_01,Ό‚Q‚S†ό,504_01,Ό‚Q‚S†ό
504_02,Ό‚Q‚S†ό,504_01,Ό‚Q‚S†ό
5227_01,Ό‚Q‚T†ό,5227_01,Ό‚Q‚T†ό
5227_02,Ό‚Q‚T†ό,5227_01,Ό‚Q‚T†ό
226_01,Ό‚Q‚U†ό,226_01,Ό‚Q‚U†ό
226_02,Ό‚Q‚U†ό,226_01,Ό‚Q‚U†ό
228_01,Ό‚Q‚W†ό,228_01,Ό‚Q‚W†ό
228_02,Ό‚Q‚W†ό,228_01,Ό‚Q‚W†ό
230_01,Ό‚R‚O†ό,230_01,Ό‚R‚O†ό
230_02,Ό‚R‚O†ό,230_01,Ό‚R‚O†ό
232_01,Ό‚R‚Q†ό,232_01,Ό‚R‚Q†ό
232_02,Ό‚R‚Q†ό,232_01,Ό‚R‚Q†ό
234_01,Ό‚R‚S†ό,234_01,Ό‚R‚S†ό
234_02,Ό‚R‚S†ό,234_01,Ό‚R‚S†ό
235_01,Ό‚R‚T†ό,235_01,Ό‚R‚T†ό
235_02,Ό‚R‚T†ό,235_01,Ό‚R‚T†ό
236_01,Ό‚R‚U†ό,236_01,Ό‚R‚U†ό
236_02,Ό‚R‚U†ό,236_01,Ό‚R‚U†ό
5216_01,Ό‚S†ό,5216_01,Ό‚S†ό
5216_02,Ό‚S†ό,5216_01,Ό‚S†ό
207_01,Ό‚V†ό,207_01,Ό‚V†ό
207_02,Ό‚V†ό,207_01,Ό‚V†ό
208_01,Ό‚W†ό,208_01,Ό‚W†ό
208_02,Ό‚W†ό,208_01,Ό‚W†ό
209_01,Ό‚X†ό,209_01,Ό‚X†ό
209_02,Ό‚X†ό,209_01,Ό‚X†ό
7230_01,Ό–k©‰w,7230_01,Ό–k©‰w
5228_01,Ό¬wZ,5228_01,Ό¬wZ
5228_02,Ό¬wZ,5228_01,Ό¬wZ
9226_01,Ό•x‚Q‚U†ό,9226_01,Ό•x‚Q‚U†ό
9226_02,Ό•x‚Q‚U†ό,9226_01,Ό•x‚Q‚U†ό
9228_01,Ό•x‚Q‚W†ό,9228_01,Ό•x‚Q‚W†ό
9228_02,Ό•x‚Q‚W†ό,9228_01,Ό•x‚Q‚W†ό
9230_01,Ό•x‚R‚O†ό,9230_01,Ό•x‚R‚O†ό
9230_02,Ό•x‚R‚O†ό,9230_01,Ό•x‚R‚O†ό
5226_01,Ό•x‚R‚P†ό,5226_01,Ό•x‚R‚P†ό
5226_02,Ό•x‚R‚P†ό,5226_01,Ό•x‚R‚P†ό
233_01,Ό•x‚R‚R†ό,233_01,Ό•x‚R‚R†ό
233_02,Ό•x‚R‚R†ό,233_01,Ό•x‚R‚R†ό
8301_01,“ψ–μ’c’n,8301_01,“ψ–μ’c’n
8301_02,“ψ–μ’c’n,8301_01,“ψ–μ’c’n
5200_01,“ϊΤΕμ‘εw,5200_01,“ϊΤΕμ‘εw
5202_01,“ϊΤ•a‰@,5202_01,“ϊΤ•a‰@
5202_02,“ϊΤ•a‰@,5202_01,“ϊΤ•a‰@
5400_01,ΐ‚Μγ,5400_01,ΐ‚Μγ
5400_02,ΐ‚Μγ,5400_01,ΐ‚Μγ
5800_01,”_‹¦,5800_01,”_‹¦
5800_02,”_‹¦,5800_01,”_‹¦
8304_01,ƒm[ƒUƒ“ƒA[ƒNƒƒ][ƒg,8304_01,ƒm[ƒUƒ“ƒA[ƒNƒƒ][ƒg
5808_01,–μγ•Ο“d,5808_01,–μγ•Ο“d
5808_02,–μγ•Ο“d,5808_01,–μγ•Ο“d
5810_01,‚Μ‚Ό‚έ—c’t‰€,5810_01,‚Μ‚Ό‚έ—c’t‰€
5810_02,‚Μ‚Ό‚έ—c’t‰€,5810_01,‚Μ‚Ό‚έ—c’t‰€
5812_01,–μ•t‹φ‰€“όϋ,5812_01,–μ•t‹φ‰€“όϋ
5812_02,–μ•t‹φ‰€“όϋ,5812_01,–μ•t‹φ‰€“όϋ
5428_01,‚Μ‚Β‚―”T“’,5428_01,‚Μ‚Β‚―”T“’
5428_02,‚Μ‚Β‚―”T“’,5428_01,‚Μ‚Β‚―”T“’
5814_01,“o,5814_01,“o
5814_02,“o,5814_01,“o
5816_01,“o“•”,5816_01,“o“•”
5816_02,“o“•”,5816_01,“o“•”
8302_01,‚Μ‚ρ‚½‚Μ“’,8302_01,‚Μ‚ρ‚½‚Μ“’
6010_01,ƒp[ƒNƒSƒ‹ƒtκ,6010_01,ƒp[ƒNƒSƒ‹ƒtκ
6010_02,ƒp[ƒNƒSƒ‹ƒtκ,6010_01,ƒp[ƒNƒSƒ‹ƒtκ
8025_01,”\m,8025_01,”\m
8025_02,”\m,8025_01,”\m
1600_01,—Ρ—F‹΄,1600_01,—Ρ—F‹΄
1600_02,—Ρ—F‹΄,1600_01,—Ρ—F‹΄
3214_01,ƒnƒ[ƒ[ƒN,3214_01,ƒnƒ[ƒ[ƒN
3214_02,ƒnƒ[ƒ[ƒN,3214_01,ƒnƒ[ƒ[ƒN
6200_01,”κ‹“ΰ,6200_01,”κ‹“ΰ
6200_02,”κ‹“ΰ,6200_01,”κ‹“ΰ
6228_01,“‚U’–Ϊ,6228_01,“‚U’–Ϊ
6228_02,“‚U’–Ϊ,6228_01,“‚U’–Ϊ
6232_01,“‚W†ό,6232_01,“‚W†ό
6232_02,“‚W†ό,6232_01,“‚W†ό
6236_01,“‚X’–Ϊ,6236_01,“‚X’–Ϊ
6236_02,“‚X’–Ϊ,6236_01,“‚X’–Ϊ
6234_01,“‚X†ό,6234_01,“‚X†ό
6234_02,“‚X†ό,6234_01,“‚X†ό
6238_01,“‘“ΰ,6238_01,“‘“ΰ
6238_02,“‘“ΰ,6238_01,“‘“ΰ
6240_01,“‘“ΰ’†wZ,6240_01,“‘“ΰ’†wZ
6240_02,“‘“ΰ’†wZ,6240_01,“‘“ΰ’†wZ
2822_01,υ‰‘’c’n,2822_01,υ‰‘’c’n
6292_01,‚Π‚©‚θ–μ‚Q’–Ϊ,6292_01,‚Π‚©‚θ–μ‚Q’–Ϊ
6292_02,‚Π‚©‚θ–μ‚Q’–Ϊ,6292_01,‚Π‚©‚θ–μ‚Q’–Ϊ
6299_01,‚Π‚©‚θ–μ‚X†ό,6299_01,‚Π‚©‚θ–μ‚X†ό
6299_02,‚Π‚©‚θ–μ‚X†ό,6299_01,‚Π‚©‚θ–μ‚X†ό
6204_01,υ‚Μ‰‘,6204_01,υ‚Μ‰‘
6204_02,υ‚Μ‰‘,6204_01,υ‚Μ‰‘
335_01,”ό•x‚R‚Tό,335_01,”ό•x‚R‚Tό
335_02,”ό•x‚R‚Tό,335_01,”ό•x‚R‚Tό
337_01,”ό•x‚R‚Vό,337_01,”ό•x‚R‚Vό
337_02,”ό•x‚R‚Vό,337_01,”ό•x‚R‚Vό
4014_01,”ό‹Χ“όϋ,4014_01,”ό‹Χ“όϋ
4014_02,”ό‹Χ“όϋ,4014_01,”ό‹Χ“όϋ
6250_01,‚Π‚Θ‚έ,6250_01,‚Π‚Θ‚έ
6250_02,‚Π‚Θ‚έ,6250_01,‚Π‚Θ‚έ
6252_01,“ϊ‚Μo,6252_01,“ϊ‚Μo
6252_02,“ϊ‚Μo,6252_01,“ϊ‚Μo
6253_01,“ϊ‚Μo‚P‚U†ό,6253_01,“ϊ‚Μo‚P‚U†ό
6253_02,“ϊ‚Μo‚P‚U†ό,6253_01,“ϊ‚Μo‚P‚U†ό
6254_01,‚Π‚Ξ‚θƒ–‹u,6254_01,‚Π‚Ξ‚θƒ–‹u
6254_02,‚Π‚Ξ‚θƒ–‹u,6254_01,‚Π‚Ξ‚θƒ–‹u
6268_01,”ό–y,6268_01,”ό–y
2216_01,”ό–y–k‚Q’–Ϊ,2216_01,”ό–y–k‚Q’–Ϊ
2216_02,”ό–y–k‚Q’–Ϊ,2216_01,”ό–y–k‚Q’–Ϊ
2220_01,”ό–y–k‚S’–Ϊ,2220_01,”ό–y–k‚S’–Ϊ
2220_02,”ό–y–k‚S’–Ϊ,2220_01,”ό–y–k‚S’–Ϊ
9836_01,”ό–y–k’†wZ,9836_01,”ό–y–k’†wZ
9836_02,”ό–y–k’†wZ,9836_01,”ό–y–k’†wZ
6634_01,”ό–y‰h’¬‚Q’–Ϊ,6634_01,”ό–y‰h’¬‚Q’–Ϊ
6634_02,”ό–y‰h’¬‚Q’–Ϊ,6634_01,”ό–y‰h’¬‚Q’–Ϊ
6632_01,”ό–y‰h’¬‚S’–Ϊ,6632_01,”ό–y‰h’¬‚S’–Ϊ
6632_02,”ό–y‰h’¬‚S’–Ϊ,6632_01,”ό–y‰h’¬‚S’–Ϊ
7304_01,”ό–y“μ‚R’–Ϊ,7304_01,”ό–y“μ‚R’–Ϊ
7304_02,”ό–y“μ‚R’–Ϊ,7304_01,”ό–y“μ‚R’–Ϊ
8090_01,”ό–y—Γη•a‰@,8090_01,”ό–y—Γη•a‰@
8090_02,”ό–y—Γη•a‰@,8090_01,”ό–y—Γη•a‰@
6256_01,“ϊ‹g,6256_01,“ϊ‹g
6256_02,“ϊ‹g,6256_01,“ϊ‹g
231_01,“ϊ‹g‚R‚P†ό,231_01,“ϊ‹g‚R‚P†ό
231_02,“ϊ‹g‚R‚P†ό,231_01,“ϊ‹g‚R‚P†ό
9236_01,“ϊ‹g‚R‚U†ό,9236_01,“ϊ‹g‚R‚U†ό
9236_02,“ϊ‹g‚R‚U†ό,9236_01,“ϊ‹g‚R‚U†ό
6262_02,ƒqƒ‹ƒXƒgƒ[ƒg”όR,6262_02,ƒqƒ‹ƒXƒgƒ[ƒg”όR
2842_01,O“Ή,2842_01,O“Ή
2842_02,O“Ή,2842_01,O“Ή
7224_01,”ό‹Χ‹΄,7224_01,”ό‹Χ‹΄
7224_02,”ό‹Χ‹΄,7224_01,”ό‹Χ‹΄
9323_01,•R‚Q‚R†ό,9323_01,•R‚Q‚R†ό
9323_02,•R‚Q‚R†ό,9323_01,•R‚Q‚R†ό
9224_01,•R“όϋ,9224_01,•R“όϋ
9224_02,•R“όϋ,9224_01,•R“όϋ
6404_01,“΅‚Z,6404_01,“΅‚Z
6404_02,“΅‚Z,6404_01,“΅‚Z
8210_01,‘o—t’c’n,8210_01,‘o—t’c’n
8210_02,‘o—t’c’n,8210_01,‘o—t’c’n
2868_01,ƒvƒ‰ƒCƒ€‚Ά‚­‚½‚Ν‚η,2868_01,ƒvƒ‰ƒCƒ€‚Ά‚­‚½‚Ν‚η
2868_02,ƒvƒ‰ƒCƒ€‚Ά‚­‚½‚Ν‚η,2868_01,ƒvƒ‰ƒCƒ€‚Ά‚­‚½‚Ν‚η
6408_01,ƒvƒƒJƒbƒgƒZƒ“ƒ^[,6408_01,ƒvƒƒJƒbƒgƒZƒ“ƒ^[
6408_02,ƒvƒƒJƒbƒgƒZƒ“ƒ^[,6408_01,ƒvƒƒJƒbƒgƒZƒ“ƒ^[
6410_01,•ό,6410_01,•ό
6410_02,•ό,6410_01,•ό
6600_01,•½a,6600_01,•½a
6600_02,•½a,6600_01,•½a
6822_01,–ki‚S†ό,6822_01,–ki‚S†ό
6822_02,–ki‚S†ό,6822_01,–ki‚S†ό
6826_01,–ki‘ζκ,6826_01,–ki‘ζκ
6826_02,–ki‘ζκ,6826_01,–ki‘ζκ
6828_01,–kiΌ’¬,6828_01,–kiΌ’¬
6828_02,–kiΌ’¬,6828_01,–kiΌ’¬
6830_01,–ki‹΄,6830_01,–ki‹΄
6830_02,–ki‹΄,6830_01,–ki‹΄
6861_01,–k―‹L”O•a‰@,6861_01,–k―‹L”O•a‰@
9202_01,–k—z‚Q†ό,9202_01,–k—z‚Q†ό
9202_02,–k—z‚Q†ό,9202_01,–k—z‚Q†ό
6842_01,ƒzƒNƒƒ“Hκ,6842_01,ƒzƒNƒƒ“Hκ
6842_02,ƒzƒNƒƒ“Hκ,6842_01,ƒzƒNƒƒ“Hκ
7290_01,‚Ϊ‚½‚ρ‰€“όϋ,7290_01,‚Ϊ‚½‚ρ‰€“όϋ
7290_02,‚Ϊ‚½‚ρ‰€“όϋ,7290_01,‚Ϊ‚½‚ρ‰€“όϋ
6804_01,–kυ¬wZ,6804_01,–kυ¬wZ
6804_02,–kυ¬wZ,6804_01,–kυ¬wZ
9218_01,•δ”g‚P‚W†ό,9218_01,•δ”g‚P‚W†ό
9218_02,•δ”g‚P‚W†ό,9218_01,•δ”g‚P‚W†ό
219_01,•δ”g‚P‚X†ό,219_01,•δ”g‚P‚X†ό
219_02,•δ”g‚P‚X†ό,219_01,•δ”g‚P‚X†ό
9320_01,•δ”g‚Q‚O†ό,9320_01,•δ”g‚Q‚O†ό
9320_02,•δ”g‚Q‚O†ό,9320_01,•δ”g‚Q‚O†ό
221_01,•δ”g‚Q‚P†ό,221_01,•δ”g‚Q‚P†ό
221_02,•δ”g‚Q‚P†ό,221_01,•δ”g‚Q‚P†ό
9423_01,•δ”g‚Q‚R†ό,9423_01,•δ”g‚Q‚R†ό
9423_02,•δ”g‚Q‚R†ό,9423_01,•δ”g‚Q‚R†ό
4202_01,ƒ|ƒ“Gμ‹΄,4202_01,ƒ|ƒ“Gμ‹΄
4202_02,ƒ|ƒ“Gμ‹΄,4202_01,ƒ|ƒ“Gμ‹΄
6846_01,–{‘ς“όϋ,6846_01,–{‘ς“όϋ
6846_02,–{‘ς“όϋ,6846_01,–{‘ς“όϋ
7662_01,‚ά‚«‚Ξ‚Μƒp[ƒNƒSƒ‹ƒtκ,7662_01,‚ά‚«‚Ξ‚Μƒp[ƒNƒSƒ‹ƒtκ
7662_02,‚ά‚«‚Ξ‚Μƒp[ƒNƒSƒ‹ƒtκ,7662_01,‚ά‚«‚Ξ‚Μƒp[ƒNƒSƒ‹ƒtκ
7204_01,…•δ¶‰ό‘PƒZƒ“ƒ^[,7204_01,…•δ¶‰ό‘PƒZƒ“ƒ^[
7204_02,…•δ¶‰ό‘PƒZƒ“ƒ^[,7204_01,…•δ¶‰ό‘PƒZƒ“ƒ^[
8155_01,…•δ“‚Pό,8155_01,…•δ“‚Pό
8155_02,…•δ“‚Pό,8155_01,…•δ“‚Pό
6222_01,…•δ“‚Sό,6222_01,…•δ“‚Sό
6222_02,…•δ“‚Sό,6222_01,…•δ“‚Sό
7113_01,“Ή‚Μ‰w‚¨‚ρ‚Λ‚δ‰·ς,7113_01,“Ή‚Μ‰w‚¨‚ρ‚Λ‚δ‰·ς
7210_01,”ό•x‰οΩ,7210_01,”ό•x‰οΩ
7210_02,”ό•x‰οΩ,7210_01,”ό•x‰οΩ
4860_01,—Ξƒ–‹u‚R’–Ϊ,4860_01,—Ξƒ–‹u‚R’–Ϊ
4860_02,—Ξƒ–‹u‚R’–Ϊ,4860_01,—Ξƒ–‹u‚R’–Ϊ
7214_01,—Ξƒ–‹u’c’n,7214_01,—Ξƒ–‹u’c’n
7216_02,—Ξƒ–‹u’Κ,7216_02,—Ξƒ–‹u’Κ
1014_02,—Ξƒ–‹u—μ‰€“όϋ,1014_02,—Ξƒ–‹u—μ‰€“όϋ
8105_01,—Ξ•—,8105_01,—Ξ•—
9950_01,—Ξ΄‰€Vlƒz[ƒ€,9950_01,—Ξ΄‰€Vlƒz[ƒ€
9950_02,—Ξ΄‰€Vlƒz[ƒ€,9950_01,—Ξ΄‰€Vlƒz[ƒ€
9950_03,—Ξ΄‰€Vlƒz[ƒ€,9950_01,—Ξ΄‰€Vlƒz[ƒ€
7218_01,—Ξ¬wZ,7218_01,—Ξ¬wZ
7226_01,—Ξ¬ƒOƒ‰ƒEƒ“ƒh,7226_01,—Ξ¬ƒOƒ‰ƒEƒ“ƒh
7220_01,—Ξ’c’n,7220_01,—Ξ’c’n
7220_02,—Ξ’c’n,7220_01,—Ξ’c’n
7222_01,—Ξ‚ΜƒZƒ“ƒ^[,7222_01,—Ξ‚ΜƒZƒ“ƒ^[
7228_01,—Ξ’¬‚Q’–Ϊ,7228_01,—Ξ’¬‚Q’–Ϊ
7229_01,—Ξ’¬‚R’–Ϊ,7229_01,—Ξ’¬‚R’–Ϊ
7232_01,—Ξ’¬‚U’–Ϊ,7232_01,—Ξ’¬‚U’–Ϊ
7248_01,“μƒ–‹u,7248_01,“μƒ–‹u
7248_02,“μƒ–‹u,7248_01,“μƒ–‹u
7242_01,“μƒ–‹u‚P’–Ϊ,7242_01,“μƒ–‹u‚P’–Ϊ
7242_02,“μƒ–‹u‚P’–Ϊ,7242_01,“μƒ–‹u‚P’–Ϊ
7244_01,“μƒ–‹u‚R’–Ϊ,7244_01,“μƒ–‹u‚R’–Ϊ
7244_02,“μƒ–‹u‚R’–Ϊ,7244_01,“μƒ–‹u‚R’–Ϊ
7246_01,“μƒ–‹u‚V’–Ϊ,7246_01,“μƒ–‹u‚V’–Ϊ
7246_02,“μƒ–‹u‚V’–Ϊ,7246_01,“μƒ–‹u‚V’–Ϊ
5014_01,“μ¬wZ,5014_01,“μ¬wZ
5014_02,“μ¬wZ,5014_01,“μ¬wZ
5014_03,“μ¬wZ,5014_01,“μ¬wZ
5014_04,“μ¬wZ,5014_01,“μ¬wZ
7260_01,“μ’‡’¬‚Q’–Ϊ,7260_01,“μ’‡’¬‚Q’–Ϊ
7260_02,“μ’‡’¬‚Q’–Ϊ,7260_01,“μ’‡’¬‚Q’–Ϊ
500_01,“μ•Ί‘Ί‚P‹ζ,500_01,“μ•Ί‘Ί‚P‹ζ
500_02,“μ•Ί‘Ί‚P‹ζ,500_01,“μ•Ί‘Ί‚P‹ζ
9052_01,“μ•Ί‘Ί‚Q‹ζ,9052_01,“μ•Ί‘Ί‚Q‹ζ
9052_02,“μ•Ί‘Ί‚Q‹ζ,9052_01,“μ•Ί‘Ί‚Q‹ζ
7262_01,“μ’¬‚P’–Ϊ,7262_01,“μ’¬‚P’–Ϊ
7262_02,“μ’¬‚P’–Ϊ,7262_01,“μ’¬‚P’–Ϊ
7262_03,“μ’¬‚P’–Ϊ,7262_01,“μ’¬‚P’–Ϊ
7262_04,“μ’¬‚P’–Ϊ,7262_01,“μ’¬‚P’–Ϊ
7262_05,“μ’¬‚P’–Ϊ,7262_01,“μ’¬‚P’–Ϊ
7262_06,“μ’¬‚P’–Ϊ,7262_01,“μ’¬‚P’–Ϊ
7264_01,“μ’¬‚Q’–Ϊ,7264_01,“μ’¬‚Q’–Ϊ
7264_02,“μ’¬‚Q’–Ϊ,7264_01,“μ’¬‚Q’–Ϊ
7266_01,“μ’¬‚R’–Ϊ,7266_01,“μ’¬‚R’–Ϊ
7266_02,“μ’¬‚R’–Ϊ,7266_01,“μ’¬‚R’–Ϊ
7270_01,“μ’¬’c’n“όϋ,7270_01,“μ’¬’c’n“όϋ
7270_02,“μ’¬’c’n“όϋ,7270_01,“μ’¬’c’n“όϋ
7272_01,“μ’¬ƒrƒbƒOƒƒ“,7272_01,“μ’¬ƒrƒbƒOƒƒ“
7272_02,“μ’¬ƒrƒbƒOƒƒ“,7272_01,“μ’¬ƒrƒbƒOƒƒ“
7274_01,”ό–μ“όϋ,7274_01,”ό–μ“όϋ
7274_02,”ό–μ“όϋ,7274_01,”ό–μ“όϋ
2222_01,”όR–k,2222_01,”όR–k
2222_02,”όR–k,2222_01,”όR–k
7280_01,”όR¬wZ,7280_01,”όR¬wZ
7282_01,”όR‘ζ‚P’c’n,7282_01,”όR‘ζ‚P’c’n
7282_02,”όR‘ζ‚P’c’n,7282_01,”όR‘ζ‚P’c’n
7284_01,”όR‘ζ‚Q’c’n,7284_01,”όR‘ζ‚Q’c’n
7284_02,”όR‘ζ‚Q’c’n,7284_01,”όR‘ζ‚Q’c’n
7286_01,”όR’†‰›,7286_01,”όR’†‰›
7286_02,”όR’†‰›,7286_01,”όR’†‰›
7286_03,”όR’†‰›,7286_01,”όR’†‰›
7288_01,”όR’¬,7288_01,”όR’¬
7288_02,”όR’¬,7288_01,”όR’¬
7292_01,”όR‚Σ‚κ‚ ‚Άφ‰€,7292_01,”όR‚Σ‚κ‚ ‚Άφ‰€
7292_02,”όR‚Σ‚κ‚ ‚Άφ‰€,7292_01,”όR‚Σ‚κ‚ ‚Άφ‰€
7296_01,”ό–F’¬,7296_01,”ό–F’¬
7296_02,”ό–F’¬,7296_01,”ό–F’¬
9294_01,”ό–F’¬‚V’–Ϊ,9294_01,”ό–F’¬‚V’–Ϊ
9294_02,”ό–F’¬‚V’–Ϊ,9294_01,”ό–F’¬‚V’–Ϊ
7300_01,O—Φ,7300_01,O—Φ
7300_02,O—Φ,7300_01,O—Φ
7305_01,O—Φ’Κ‚U†ό,7305_01,O—Φ’Κ‚U†ό
7306_01,O—Φ’Κ‚W†ό,7306_01,O—Φ’Κ‚W†ό
7342_01,ƒ~ƒ“ƒgƒXƒ|ƒbƒg–k©,7342_01,ƒ~ƒ“ƒgƒXƒ|ƒbƒg–k©
5218_01,ƒƒbƒZ,5218_01,ƒƒbƒZ
5218_02,ƒƒbƒZ,5218_01,ƒƒbƒZ
7800_01,–ΨH’c’n,7800_01,–ΨH’c’n
7800_02,–ΨH’c’n,7800_01,–ΨH’c’n
7812_01,³’¬,7812_01,³’¬
7812_02,³’¬,7812_01,³’¬
7803_01,–{’¬‚P’–Ϊ,7803_01,–{’¬‚P’–Ϊ
7803_02,–{’¬‚P’–Ϊ,7803_01,–{’¬‚P’–Ϊ
7804_01,–{’¬‚R’–Ϊ,7804_01,–{’¬‚R’–Ϊ
7804_02,–{’¬‚R’–Ϊ,7804_01,–{’¬‚R’–Ϊ
7806_01,–{’¬‚S’–Ϊ,7806_01,–{’¬‚S’–Ϊ
7806_02,–{’¬‚S’–Ϊ,7806_01,–{’¬‚S’–Ϊ
6856_01,–{’¬‚T’–Ϊ,6856_01,–{’¬‚T’–Ϊ
6856_02,–{’¬‚T’–Ϊ,6856_01,–{’¬‚T’–Ϊ
6860_01,–{’¬‚U’–Ϊ,6860_01,–{’¬‚U’–Ϊ
6860_02,–{’¬‚U’–Ϊ,6860_01,–{’¬‚U’–Ϊ
7816_01,³–δ•Κ,7816_01,³–δ•Κ
7816_02,³–δ•Κ,7816_01,³–δ•Κ
7818_01,‚ΰ‚έ‚¶φ‰€,7818_01,‚ΰ‚έ‚¶φ‰€
7820_01,‚ΰ‚έ‚¶’c’n,7820_01,‚ΰ‚έ‚¶’c’n
7822_01,–δ•Κ,7822_01,–δ•Κ
7823_01,–δ•Κ‹σ`,7823_01,–δ•Κ‹σ`
8010_01,ΐ‘,8010_01,ΐ‘
8010_02,ΐ‘,8010_01,ΐ‘
8020_01,ΐ‘¬wZ,8020_01,ΐ‘¬wZ
8020_02,ΐ‘¬wZ,8020_01,ΐ‘¬wZ
8030_01,–ξ”‚Μ‘ς“όϋ,8030_01,–ξ”‚Μ‘ς“όϋ
8030_02,–ξ”‚Μ‘ς“όϋ,8030_01,–ξ”‚Μ‘ς“όϋ
8040_01,R‰Ί’¬,8040_01,R‰Ί’¬
8040_02,R‰Ί’¬,8040_01,R‰Ί’¬
9311_01,‘εa‚P‚P†ό,9311_01,‘εa‚P‚P†ό
9311_02,‘εa‚P‚P†ό,9311_01,‘εa‚P‚P†ό
212_01,‘εa‚P‚Q†ό,212_01,‘εa‚P‚Q†ό
212_02,‘εa‚P‚Q†ό,212_01,‘εa‚P‚Q†ό
5206_01,‘εa‰οΩ,5206_01,‘εa‰οΩ
5206_02,‘εa‰οΩ,5206_01,‘εa‰οΩ
8050_01,—N¤‰€,8050_01,—N¤‰€
8050_02,—N¤‰€,8050_01,—N¤‰€
8055_01,—[—zƒ–‹u‚S†ό,8055_01,—[—zƒ–‹u‚S†ό
8055_02,—[—zƒ–‹u‚S†ό,8055_01,—[—zƒ–‹u‚S†ό
8056_01,—[—zƒ–‹u‚T†ό,8056_01,—[—zƒ–‹u‚T†ό
8056_02,—[—zƒ–‹u‚T†ό,8056_01,—[—zƒ–‹u‚T†ό
8195_01,—[—zƒ–‹u‚U†ό,8195_01,—[—zƒ–‹u‚U†ό
8195_02,—[—zƒ–‹u‚U†ό,8195_01,—[—zƒ–‹u‚U†ό
8200_01,—[—zƒ–‹u‚V†ό,8200_01,—[—zƒ–‹u‚V†ό
8200_02,—[—zƒ–‹u‚V†ό,8200_01,—[—zƒ–‹u‚V†ό
8200_03,—[—zƒ–‹u‚V†ό,8200_01,—[—zƒ–‹u‚V†ό
8200_04,—[—zƒ–‹u‚V†ό,8200_01,—[—zƒ–‹u‚V†ό
7212_01,—[—zƒ–‹u‚W†ό,7212_01,—[—zƒ–‹u‚W†ό
7212_02,—[—zƒ–‹u‚W†ό,7212_01,—[—zƒ–‹u‚W†ό
7212_03,—[—zƒ–‹u‚W†ό,7212_01,—[—zƒ–‹u‚W†ό
1822_02,—[—zƒ–‹u‚X†ό,1822_02,—[—zƒ–‹u‚X†ό
1822_03,—[—zƒ–‹u‚X†ό,1822_02,—[—zƒ–‹u‚X†ό
8060_01,—N•Κ,8060_01,—N•Κ
9303_01,—N•Κ‚R†ό,9303_01,—N•Κ‚R†ό
9303_02,—N•Κ‚R†ό,9303_01,—N•Κ‚R†ό
9204_01,—N•Κ‚S†ό,9204_01,—N•Κ‚S†ό
9204_02,—N•Κ‚S†ό,9204_01,—N•Κ‚S†ό
9505_01,—N•Κ‚T†ό,9505_01,—N•Κ‚T†ό
9505_02,—N•Κ‚T†ό,9505_01,—N•Κ‚T†ό
6264_01,—N•Κ‚U†ό,6264_01,—N•Κ‚U†ό
6264_02,—N•Κ‚U†ό,6264_01,—N•Κ‚U†ό
1018_01,—N•Κ’¬,1018_01,—N•Κ’¬
1018_02,—N•Κ’¬,1018_01,—N•Κ’¬
2260_01,—N•Κ‹™‹¦,2260_01,—N•Κ‹™‹¦
2260_02,—N•Κ‹™‹¦,2260_01,—N•Κ‹™‹¦
8065_01,—N•Κ’΅Ι,8065_01,—N•Κ’΅Ι
8065_02,—N•Κ’΅Ι,8065_01,—N•Κ’΅Ι
2060_01,—N•Κ’¬–πκ,2060_01,—N•Κ’¬–πκ
2060_02,—N•Κ’¬–πκ,2060_01,—N•Κ’¬–πκ
8070_01,–L‘ε‹΄,8070_01,–L‘ε‹΄
8070_02,–L‘ε‹΄,8070_01,–L‘ε‹΄
8080_01,‹g–μ“όϋ,8080_01,‹g–μ“όϋ
8080_02,‹g–μ“όϋ,8080_01,‹g–μ“όϋ
8003_01,—¤•Κ,8003_01,—¤•Κ
9821_01,—¬•Xφ‰€,9821_01,—¬•Xφ‰€
8100_01,—Ξ‰€’Κ,8100_01,—Ξ‰€’Κ
8100_02,—Ξ‰€’Κ,8100_01,—Ξ‰€’Κ
8115_01,—Ξ—Λ‚Z,8115_01,—Ξ—Λ‚Z
8115_02,—Ξ—Λ‚Z,8115_01,—Ξ—Λ‚Z
8110_01,—Ξ—Λ‚Z“όϋ,8110_01,—Ξ—Λ‚Z“όϋ
8110_02,—Ξ—Λ‚Z“όϋ,8110_01,—Ξ—Λ‚Z“όϋ
8135_01,—―•ΣεA,8135_01,—―•ΣεA
4052_01,—―•ΣεA‰^“®φ‰€,4052_01,—―•ΣεA‰^“®φ‰€
4052_02,—―•ΣεA‰^“®φ‰€,4052_01,—―•ΣεA‰^“®φ‰€
8140_01,—―•ΣεA‚Z,8140_01,—―•ΣεA‚Z
8140_02,—―•ΣεA‚Z,8140_01,—―•ΣεA‚Z
201_01,—―•ΣεA’†wZ,201_01,—―•ΣεA’†wZ
201_02,—―•ΣεA’†wZ,201_01,—―•ΣεA’†wZ
4000_01,—―•ΣεA’¬‘ΜηΩ,4000_01,—―•ΣεA’¬‘ΜηΩ
4000_02,—―•ΣεA’¬‘ΜηΩ,4000_01,—―•ΣεA’¬‘ΜηΩ
4208_01,—―•ΣεA’¬–―‰οΩ,4208_01,—―•ΣεA’¬–―‰οΩ
4208_02,—―•ΣεA’¬–―‰οΩ,4208_01,—―•ΣεA’¬–―‰οΩ
8190_01,α—t‚T’–Ϊ,8190_01,α—t‚T’–Ϊ
8205_01,α—t‚V’–Ϊ,8205_01,α—t‚V’–Ϊ
1604_01,‰“y,1604_01,‰“y
1824_01,‰“y‰µ”„sκ,1824_01,‰“y‰µ”„sκ
1824_02,‰“y‰µ”„sκ,1824_01,‰“y‰µ”„sκ
9934_01,‰“yϊ¶•a‰@,9934_01,‰“yϊ¶•a‰@
9934_02,‰“yϊ¶•a‰@,9934_01,‰“yϊ¶•a‰@
2830_01,‰“y‚Z,2830_01,‰“y‚Z
2830_02,‰“y‚Z,2830_01,‰“y‚Z
9850_01,‰“yυ’¬,9850_01,‰“yυ’¬
9850_02,‰“yυ’¬,9850_01,‰“yυ’¬
9850_03,‰“yυ’¬,9850_01,‰“yυ’¬
9850_04,‰“yυ’¬,9850_01,‰“yυ’¬
5210_01,‰“yΌ‚Pό,5210_01,‰“yΌ‚Pό
5210_02,‰“yΌ‚Pό,5210_01,‰“yΌ‚Pό
5212_01,‰“yΌ‚Qό,5212_01,‰“yΌ‚Qό
5212_02,‰“yΌ‚Qό,5212_01,‰“yΌ‚Qό
6216_01,‰“y“‚Pό,6216_01,‰“y“‚Pό
6216_02,‰“y“‚Pό,6216_01,‰“y“‚Pό
6242_01,‰“y“¬wZ,6242_01,‰“y“¬wZ
6242_02,‰“y“¬wZ,6242_01,‰“y“¬wZ
6244_01,‰“y“‘ΜηΩ,6244_01,‰“y“‘ΜηΩ
6244_02,‰“y“‘ΜηΩ,6244_01,‰“y“‘ΜηΩ
1672_01,‰“y“’¬‚Q’–Ϊ,1672_01,‰“y“’¬‚Q’–Ϊ
1673_01,‰“y“’¬‚R’–Ϊ,1673_01,‰“y“’¬‚R’–Ϊ
7400_01,‰“y“’¬‚S’–Ϊ,7400_01,‰“y“’¬‚S’–Ϊ
7400_02,‰“y“’¬‚S’–Ϊ,7400_01,‰“y“’¬‚S’–Ϊ
1676_01,‰“y“’¬•ς,1676_01,‰“y“’¬•ς
7254_01,‰“y“μ¬wZ“όϋ,7254_01,‰“y“μ¬wZ“όϋ
7254_02,‰“y“μ¬wZ“όϋ,7254_01,‰“y“μ¬wZ“όϋ
7258_01,‰“y“μ’†wZ,7258_01,‰“y“μ’†wZ
7258_02,‰“y“μ’†wZ,7258_01,‰“y“μ’†wZ
9862_01,‰“y“μ’¬‚P’–Ϊ,9862_01,‰“y“μ’¬‚P’–Ϊ
9862_02,‰“y“μ’¬‚P’–Ϊ,9862_01,‰“y“μ’¬‚P’–Ϊ
9866_01,‰“y“μ’¬‚R’–Ϊ,9866_01,‰“y“μ’¬‚R’–Ϊ
9866_02,‰“y“μ’¬‚R’–Ϊ,9866_01,‰“y“μ’¬‚R’–Ϊ
8035_01,‰“y“μ’¬‚S’–Ϊ,8035_01,‰“y“μ’¬‚S’–Ϊ
8035_02,‰“y“μ’¬‚S’–Ϊ,8035_01,‰“y“μ’¬‚S’–Ϊ
506_01,‰·“’‰·ς“όϋ,506_01,‰·“’‰·ς“όϋ
506_02,‰·“’‰·ς“όϋ,506_01,‰·“’‰·ς“όϋ
2131_01,J¬,2131_01,J¬
2131_02,J¬,2131_01,J¬
2341_01,J¬‘ζκ,2341_01,J¬‘ζκ
2341_02,J¬‘ζκ,2341_01,J¬‘ζκ
2343_01,J¬‘ζO,2343_01,J¬‘ζO
2343_02,J¬‘ζO,2343_01,J¬‘ζO
2342_01,J¬“»,2342_01,J¬“»
2342_02,J¬“»,2342_01,J¬“»
1608_01,w“c‚P’–Ϊ,1608_01,w“c‚P’–Ϊ
1608_02,w“c‚P’–Ϊ,1608_01,w“c‚P’–Ϊ
2080_01,w“c‚Q’–Ϊ,2080_01,w“c‚Q’–Ϊ
2080_02,w“c‚Q’–Ϊ,2080_01,w“c‚Q’–Ϊ
2074_01,w“c‘ζ‚Pφ‰€,2074_01,w“c‘ζ‚Pφ‰€
2074_02,w“c‘ζ‚Pφ‰€,2074_01,w“c‘ζ‚Pφ‰€
4050_01,w“c’c’n’†‰›,4050_01,w“c’c’n’†‰›
4050_02,w“c’c’n’†‰›,4050_01,w“c’c’n’†‰›
8145_01,w“c—μ‰€,8145_01,w“c—μ‰€
8145_02,w“c—μ‰€,8145_01,w“c—μ‰€
1218_01,β©’Κ–k‚P’–Ϊ,1218_01,β©’Κ–k‚P’–Ϊ
1218_02,β©’Κ–k‚P’–Ϊ,1218_01,β©’Κ–k‚P’–Ϊ
1220_01,β©’Κ–k‚S’–Ϊ,1220_01,β©’Κ–k‚S’–Ϊ
1220_02,β©’Κ–k‚S’–Ϊ,1220_01,β©’Κ–k‚S’–Ϊ
1222_01,β©’Κ–k‚T’–Ϊ,1222_01,β©’Κ–k‚T’–Ϊ
1222_02,β©’Κ–k‚T’–Ϊ,1222_01,β©’Κ–k‚T’–Ϊ
1224_01,β©’Κ–k‚V’–Ϊ,1224_01,β©’Κ–k‚V’–Ϊ
1224_02,β©’Κ–k‚V’–Ϊ,1224_01,β©’Κ–k‚V’–Ϊ
1226_01,β©’Κ–k‚W’–Ϊ,1226_01,β©’Κ–k‚W’–Ϊ
1226_02,β©’Κ–k‚W’–Ϊ,1226_01,β©’Κ–k‚W’–Ϊ
2331_01,ξ²W—ƒZƒ“ƒ^[“όϋ,2331_01,ξ²W—ƒZƒ“ƒ^[“όϋ
4858_01,‹Zpκ–εw‰@,4858_01,‹Zpκ–εw‰@
4858_02,‹Zpκ–εw‰@,4858_01,‹Zpκ–εw‰@
6812_01,‹Ρ’¬,6812_01,‹Ρ’¬
6812_02,‹Ρ’¬,6812_01,‹Ρ’¬
5250_01,‹Ρ’¬’c’n“όϋ,5250_01,‹Ρ’¬’c’n“όϋ
5250_02,‹Ρ’¬’c’n“όϋ,5250_01,‹Ρ’¬’c’n“όϋ
2836_01,φέƒOƒ‰ƒEƒ“ƒh“όϋ,2836_01,φέƒOƒ‰ƒEƒ“ƒh“όϋ
2836_02,φέƒOƒ‰ƒEƒ“ƒh“όϋ,2836_01,φέƒOƒ‰ƒEƒ“ƒh“όϋ
2121_01,H‹Ζ‘εw,2121_01,H‹Ζ‘εw
2121_02,H‹Ζ‘εw,2121_01,H‹Ζ‘εw
7170_01,Εγ,7170_01,Εγ
7170_02,Εγ,7170_01,Εγ
7117_01,Εγ‚P‚V”Τ,7117_01,Εγ‚P‚V”Τ
7117_02,Εγ‚P‚V”Τ,7117_01,Εγ‚P‚V”Τ
7106_01,Εγ‚U”Τ,7106_01,Εγ‚U”Τ
7106_02,Εγ‚U”Τ,7106_01,Εγ‚U”Τ
1924_01,Oy’¬,1924_01,Oy’¬
1924_02,Oy’¬,1924_01,Oy’¬
7049_01,O—Φ’Κ,7049_01,O—Φ’Κ
2850_01,υ’¬,2850_01,υ’¬
2850_02,υ’¬,2850_01,υ’¬
2850_03,υ’¬,2850_01,υ’¬
2850_04,υ’¬,2850_01,υ’¬
2852_01,υ’¬φ–―Ω“όϋ,2852_01,υ’¬φ–―Ω“όϋ
2852_02,υ’¬φ–―Ω“όϋ,2852_01,υ’¬φ–―Ω“όϋ
7604_01,—–•Κ‹σ`,7604_01,—–•Κ‹σ`
2866_01,¬ό‚P‚Qό,2866_01,¬ό‚P‚Qό
2866_02,¬ό‚P‚Qό,2866_01,¬ό‚P‚Qό
7000_01,Ό‰Y‘ξ‘O,7000_01,Ό‰Y‘ξ‘O
7000_02,Ό‰Y‘ξ‘O,7000_01,Ό‰Y‘ξ‘O
7611_01,Ό΄γ‰@,7611_01,Ό΄γ‰@
2048_01,γm ,2048_01,γm 
2048_02,γm ,2048_01,γm 
4824_01,νC‘‡x,4824_01,νC‘‡x
4824_02,νC‘‡x,4824_01,νC‘‡x
7202_01,…’J,7202_01,…’J
7202_02,…’J,7202_01,…’J
5470_01,Ό’B”ό,5470_01,Ό’B”ό
5470_02,Ό’B”ό,5470_01,Ό’B”ό
240_01,Ό’¬‚S‚O†,240_01,Ό’¬‚S‚O†
240_02,Ό’¬‚S‚O†,240_01,Ό’¬‚S‚O†
5236_01,Ό’¬Z–―ƒZƒ“ƒ^[“όϋ,5236_01,Ό’¬Z–―ƒZƒ“ƒ^[“όϋ
5236_02,Ό’¬Z–―ƒZƒ“ƒ^[“όϋ,5236_01,Ό’¬Z–―ƒZƒ“ƒ^[“όϋ
5234_01,Ό’¬f—Γ,5234_01,Ό’¬f—Γ
5234_02,Ό’¬f—Γ,5234_01,Ό’¬f—Γ
1165_01,Β—t’Κ,1165_01,Β—t’Κ
1165_02,Β—t’Κ,1165_01,Β—t’Κ
3000_01,Δ“΅‘ξ‘Oiγm j,3000_01,Δ“΅‘ξ‘Oiγm j
3000_02,Δ“΅‘ξ‘Oiγm j,3000_01,Δ“΅‘ξ‘Oiγm j
7830_01,‘”β’Κ,7830_01,‘”β’Κ
4808_01,‘ε’Κ,4808_01,‘ε’Κ
4808_02,‘ε’Κ,4808_01,‘ε’Κ
4808_03,‘ε’Κ,4808_01,‘ε’Κ
4808_04,‘ε’Κ,4808_01,‘ε’Κ
4808_05,‘ε’Κ,4808_01,‘ε’Κ
4808_06,‘ε’Κ,4808_01,‘ε’Κ
4808_07,‘ε’Κ,4808_01,‘ε’Κ
1802_01,‘ε’Κ“μ‚Q’–Ϊ,1802_01,‘ε’Κ“μ‚Q’–Ϊ
1802_02,‘ε’Κ“μ‚Q’–Ϊ,1802_01,‘ε’Κ“μ‚Q’–Ϊ
1804_01,‘ε’Κ“μ‚R’–Ϊ,1804_01,‘ε’Κ“μ‚R’–Ϊ
1804_02,‘ε’Κ“μ‚R’–Ϊ,1804_01,‘ε’Κ“μ‚R’–Ϊ
1806_01,‘ε’Κ“μ‚S’–Ϊ,1806_01,‘ε’Κ“μ‚S’–Ϊ
1806_02,‘ε’Κ“μ‚S’–Ϊ,1806_01,‘ε’Κ“μ‚S’–Ϊ
2082_01,‘ε’Κ–k‚P‚P’–Ϊ,2082_01,‘ε’Κ–k‚P‚P’–Ϊ
2082_02,‘ε’Κ–k‚P‚P’–Ϊ,2082_01,‘ε’Κ–k‚P‚P’–Ϊ
2086_01,‘ε’Κ–k‚X’–Ϊ,2086_01,‘ε’Κ–k‚X’–Ϊ
2086_02,‘ε’Κ–k‚X’–Ϊ,2086_01,‘ε’Κ–k‚X’–Ϊ
4470_01,’B”ό,4470_01,’B”ό
4470_02,’B”ό,4470_01,’B”ό
4173_01,’†‰›O—Φ‚R’–Ϊ,4173_01,’†‰›O—Φ‚R’–Ϊ
4174_01,’†‰›O—Φ‚S’–Ϊ,4174_01,’†‰›O—Φ‚S’–Ϊ
4200_01,’†‰›¬wZ,4200_01,’†‰›¬wZ
4200_02,’†‰›¬wZ,4200_01,’†‰›¬wZ
4200_03,’†‰›¬wZ,4200_01,’†‰›¬wZ
4200_04,’†‰›¬wZ,4200_01,’†‰›¬wZ
5563_01,’†–μ–qκ,5563_01,’†–μ–qκ
5563_02,’†–μ–qκ,5563_01,’†–μ–qκ
4632_01,’Γ•Κ™“¶Ω,4632_01,’Γ•Κ™“¶Ω
4632_02,’Γ•Κ™“¶Ω,4632_01,’Γ•Κ™“¶Ω
4657_01,’Γ•ΚΌ’¬,4657_01,’Γ•ΚΌ’¬
4657_02,’Γ•ΚΌ’¬,4657_01,’Γ•ΚΌ’¬
4641_01,’Γ•Κ’†wZ“όϋ,4641_01,’Γ•Κ’†wZ“όϋ
4641_02,’Γ•Κ’†wZ“όϋ,4641_01,’Γ•Κ’†wZ“όϋ
4677_01,’Γ•Κ—Ξ’¬,4677_01,’Γ•Κ—Ξ’¬
4677_02,’Γ•Κ—Ξ’¬,4677_01,’Γ•Κ—Ξ’¬
6206_01,“‚P‚O†ό,6206_01,“‚P‚O†ό
6206_02,“‚P‚O†ό,6206_01,“‚P‚O†ό
6210_01,“‚P‚Q†ό,6210_01,“‚P‚Q†ό
6210_02,“‚P‚Q†ό,6210_01,“‚P‚Q†ό
9317_01,“‚P‚V†ό,9317_01,“‚P‚V†ό
9317_02,“‚P‚V†ό,9317_01,“‚P‚V†ό
9318_01,“‚P‚W†ό,9318_01,“‚P‚W†ό
9318_02,“‚P‚W†ό,9318_01,“‚P‚W†ό
7252_01,“μƒ–‹u‚S’–Ϊ,7252_01,“μƒ–‹u‚S’–Ϊ
7252_02,“μƒ–‹u‚S’–Ϊ,7252_01,“μƒ–‹u‚S’–Ϊ
7250_01,“μƒ–‹u’c’n,7250_01,“μƒ–‹u’c’n
7250_02,“μƒ–‹u’c’n,7250_01,“μƒ–‹u’c’n
205_01,“μέ’Κ‚T†ό,205_01,“μέ’Κ‚T†ό
205_02,“μέ’Κ‚T†ό,205_01,“μέ’Κ‚T†ό
7302_01,“μ‘ε’Κ,7302_01,“μ‘ε’Κ
7302_02,“μ‘ε’Κ,7302_01,“μ‘ε’Κ
6000_01,”—z‚Z,6000_01,”—z‚Z
6000_02,”—z‚Z,6000_01,”—z‚Z
6000_03,”—z‚Z,6000_01,”—z‚Z
6000_04,”—z‚Z,6000_01,”—z‚Z
3232_01,”’’’c’n,3232_01,”’’’c’n
3232_02,”’’’c’n,3232_01,”’’’c’n
7200_01,”ό—Ά“όϋ,7200_01,”ό—Ά“όϋ
7200_02,”ό—Ά“όϋ,7200_01,”ό—Ά“όϋ
9511_01,–L’n‚P‚P†ό,9511_01,–L’n‚P‚P†ό
9412_01,–L’n‚P‚Q†ό,9412_01,–L’n‚P‚Q†ό
9306_01,–L’n‚U†ό,9306_01,–L’n‚U†ό
9306_02,–L’n‚U†ό,9306_01,–L’n‚U†ό
9707_01,–L’n‚V†ό,9707_01,–L’n‚V†ό
9707_02,–L’n‚V†ό,9707_01,–L’n‚V†ό
9608_01,–L’n‚W†ό,9608_01,–L’n‚W†ό
9608_02,–L’n‚W†ό,9608_01,–L’n‚W†ό
9309_01,–L’n‚X†ό,9309_01,–L’n‚X†ό
9309_02,–L’n‚X†ό,9309_01,–L’n‚X†ό
6820_01,–L’n‰οΩ,6820_01,–L’n‰οΩ
6816_01,–L’n¬wZ,6816_01,–L’n¬wZ
6825_01,–L’n_Π,6825_01,–L’n_Π
3004_01,–k‚Pό•ς,3004_01,–k‚Pό•ς
3004_02,–k‚Pό•ς,3004_01,–k‚Pό•ς
2238_01,–k©,2238_01,–k©
9844_01,–k©—X•Φ‹Η,9844_01,–k©—X•Φ‹Η
9844_02,–k©—X•Φ‹Η,9844_01,–k©—X•Φ‹Η
6810_01,–kυ’†wZ,6810_01,–kυ’†wZ
6810_02,–kυ’†wZ,6810_01,–kυ’†wZ
7240_01,–kυ’Κ,7240_01,–kυ’Κ
7240_02,–kυ’Κ,7240_01,–kυ’Κ
2228_01,–kγ,2228_01,–kγ
2228_02,–kγ,2228_01,–kγ
2228_03,–kγ,2228_01,–kγ
2244_01,–kγ‚Tό,2244_01,–kγ‚Tό
2244_02,–kγ‚Tό,2244_01,–kγ‚Tό
5214_01,–ki‚R†ό,5214_01,–ki‚R†ό
5214_02,–ki‚R†ό,5214_01,–ki‚R†ό
5214_03,–ki‚R†ό,5214_01,–ki‚R†ό
5214_04,–ki‚R†ό,5214_01,–ki‚R†ό
552_01,–k“l‚Z,552_01,–k“l‚Z
552_02,–k“l‚Z,552_01,–k“l‚Z
6838_01,–k—z,6838_01,–k—z
6840_01,–k—z‰οΩ,6840_01,–k—z‰οΩ
6840_02,–k—z‰οΩ,6840_01,–k—z‰οΩ
1316_01,–ƒ¶–k©•a‰@,1316_01,–ƒ¶–k©•a‰@
9910_01,––L’c’n,9910_01,––L’c’n
9910_02,––L’c’n,9910_01,––L’c’n
7402_01,–³‰Αμ‹΄,7402_01,–³‰Αμ‹΄
7402_02,–³‰Αμ‹΄,7402_01,–³‰Αμ‹΄
2828_01,–³‰Αμ’¬,2828_01,–³‰Αμ’¬
2828_02,–³‰Αμ’¬,2828_01,–³‰Αμ’¬
6814_01,–μ•t‹©“®ΤwZ,6814_01,–μ•t‹©“®ΤwZ
6814_02,–μ•t‹©“®ΤwZ,6814_01,–μ•t‹©“®ΤwZ
2834_01,—N•Κ‚P‚P†ό,2834_01,—N•Κ‚P‚P†ό
2834_02,—N•Κ‚P‚P†ό,2834_01,—N•Κ‚P‚P†ό
9321_01,—N•Κ‚Q‚P†ό,9321_01,—N•Κ‚Q‚P†ό
9321_02,—N•Κ‚Q‚P†ό,9321_01,—N•Κ‚Q‚P†ό
9225_01,—N•Κ‚Q‚T†ό,9225_01,—N•Κ‚Q‚T†ό
9225_02,—N•Κ‚Q‚T†ό,9225_01,—N•Κ‚Q‚T†ό
9328_01,—N•Κ‚Q‚W†ό,9328_01,—N•Κ‚Q‚W†ό
9328_02,—N•Κ‚Q‚W†ό,9328_01,—N•Κ‚Q‚W†ό
9807_01,—N•Κ‚V†ό,9807_01,—N•Κ‚V†ό
9807_02,—N•Κ‚V†ό,9807_01,—N•Κ‚V†ό
1832_01,—¤γ‹£‹Zκ“όϋ,1832_01,—¤γ‹£‹Zκ“όϋ
1832_02,—¤γ‹£‹Zκ“όϋ,1832_01,—¤γ‹£‹Zκ“όϋ
8005_01,—―•ΣεA‘‡x,8005_01,—―•ΣεA‘‡x
8005_02,—―•ΣεA‘‡x,8005_01,—―•ΣεA‘‡x
6747_01,—Ρ‘ξ‘O,6747_01,—Ρ‘ξ‘O
6747_02,—Ρ‘ξ‘O,6747_01,—Ρ‘ξ‘O
