{"type": "FeatureCollection", "features": [{"type": "Feature", "geometry": {"type": "Point", "coordinates": [141.759128546214, 43.2027053555077]}, "properties": {"similar_stop_name": "岩見沢ターミナル", "similar_stop_id": "S0102000001"}}, {"type": "Feature", "geometry": {"type": "Point", "coordinates": [141.761940878926, 43.2012212537665]}, "properties": {"similar_stop_name": "４条西５丁目", "similar_stop_id": "S0102000002"}}, {"type": "Feature", "geometry": {"type": "Point", "coordinates": [141.764232486436, 43.1987650305388]}, "properties": {"similar_stop_name": "７条西５丁目［岩見沢市］", "similar_stop_id": "S0102000003"}}, {"type": "Feature", "geometry": {"type": "Point", "coordinates": [141.765829660321, 43.1971680550241]}, "properties": {"similar_stop_name": "市民会館前［岩見沢市］", "similar_stop_id": "S0102000004"}}, {"type": "Feature", "geometry": {"type": "Point", "coordinates": [141.767392121627, 43.1954669243292]}, "properties": {"similar_stop_name": "市立病院通［岩見沢市］", "similar_stop_id": "S0102000005"}}, {"type": "Feature", "geometry": {"type": "Point", "coordinates": [141.769440678799, 43.1932884371018]}, "properties": {"similar_stop_name": "スポーツセンター前", "similar_stop_id": "S0102000006"}}, {"type": "Feature", "geometry": {"type": "Point", "coordinates": [141.771801787177, 43.1898167143739]}, "properties": {"similar_stop_name": "春日町１丁目", "similar_stop_id": "S0102000007"}}, {"type": "Feature", "geometry": {"type": "Point", "coordinates": [141.773294792187, 43.188410684437]}, "properties": {"similar_stop_name": "教大前［岩見沢市］", "similar_stop_id": "S0102000008"}}, {"type": "Feature", "geometry": {"type": "Point", "coordinates": [141.776384680156, 43.190111969215]}, "properties": {"similar_stop_name": "春日町［岩見沢市］", "similar_stop_id": "S0102000009"}}, {"type": "Feature", "geometry": {"type": "Point", "coordinates": [141.778780206947, 43.1915007689226]}, "properties": {"similar_stop_name": "市立図書館前", "similar_stop_id": "S0102000010"}}, {"type": "Feature", "geometry": {"type": "Point", "coordinates": [141.781488160917, 43.193601298175]}, "properties": {"similar_stop_name": "福祉センター前［岩見沢市］", "similar_stop_id": "S0102000011"}}, {"type": "Feature", "geometry": {"type": "Point", "coordinates": [141.784578189019, 43.1930372328786]}, "properties": {"similar_stop_name": "東山通", "similar_stop_id": "S0102000012"}}, {"type": "Feature", "geometry": {"type": "Point", "coordinates": [141.787702980737, 43.1917527700428]}, "properties": {"similar_stop_name": "東高校前", "similar_stop_id": "S0102000013"}}, {"type": "Feature", "geometry": {"type": "Point", "coordinates": [141.792077564998, 43.1919612230249]}, "properties": {"similar_stop_name": "見晴中央", "similar_stop_id": "S0102000014"}}, {"type": "Feature", "geometry": {"type": "Point", "coordinates": [141.79346618795, 43.1941919011442]}, "properties": {"similar_stop_name": "見晴通り", "similar_stop_id": "S0102000015"}}, {"type": "Feature", "geometry": {"type": "Point", "coordinates": [141.793118784417, 43.1976376520671]}, "properties": {"similar_stop_name": "若駒通り", "similar_stop_id": "S0102000016"}}, {"type": "Feature", "geometry": {"type": "Point", "coordinates": [141.792875559419, 43.2007362263341]}, "properties": {"similar_stop_name": "かえで団地", "similar_stop_id": "S0102000017"}}, {"type": "Feature", "geometry": {"type": "Point", "coordinates": [141.792562913541, 43.2035570542155]}, "properties": {"similar_stop_name": "かえで団地入口", "similar_stop_id": "S0102000018"}}, {"type": "Feature", "geometry": {"type": "Point", "coordinates": [141.788084049222, 43.2053362037601]}, "properties": {"similar_stop_name": "新駒橋", "similar_stop_id": "S0102000019"}}, {"type": "Feature", "geometry": {"type": "Point", "coordinates": [141.783813628061, 43.2050322796872]}, "properties": {"similar_stop_name": "日の出町［岩見沢市］", "similar_stop_id": "S0102000020"}}, {"type": "Feature", "geometry": {"type": "Point", "coordinates": [141.780689053985, 43.2028015441026]}, "properties": {"similar_stop_name": "８条東１０丁目［岩見沢市］", "similar_stop_id": "S0102000021"}}, {"type": "Feature", "geometry": {"type": "Point", "coordinates": [141.778119955261, 43.2010395200479]}, "properties": {"similar_stop_name": "１０条東７丁目［岩見沢市］", "similar_stop_id": "S0102000022"}}, {"type": "Feature", "geometry": {"type": "Point", "coordinates": [141.774613450929, 43.1991472724186]}, "properties": {"similar_stop_name": "１０条東２丁目［岩見沢市］", "similar_stop_id": "S0102000023"}}, {"type": "Feature", "geometry": {"type": "Point", "coordinates": [141.771627660517, 43.1984094158422]}, "properties": {"similar_stop_name": "１０条通［岩見沢市］", "similar_stop_id": "S0102000024"}}, {"type": "Feature", "geometry": {"type": "Point", "coordinates": [141.77062074438, 43.1994509227594]}, "properties": {"similar_stop_name": "９条通［岩見沢市］", "similar_stop_id": "S0102000025"}}, {"type": "Feature", "geometry": {"type": "Point", "coordinates": [141.769440220773, 43.2006920524753]}, "properties": {"similar_stop_name": "中央橋［岩見沢市］", "similar_stop_id": "S0102000026"}}, {"type": "Feature", "geometry": {"type": "Point", "coordinates": [141.768086091307, 43.2021067664823]}, "properties": {"similar_stop_name": "６条通［岩見沢市］", "similar_stop_id": "S0102000027"}}, {"type": "Feature", "geometry": {"type": "Point", "coordinates": [141.76669724282, 43.2035214793362]}, "properties": {"similar_stop_name": "中央通［岩見沢市］", "similar_stop_id": "S0102000028"}}, {"type": "Feature", "geometry": {"type": "Point", "coordinates": [141.764128114034, 43.2022455074442]}, "properties": {"similar_stop_name": "４条西２丁目［岩見沢市］", "similar_stop_id": "S0102000029"}}, {"type": "Feature", "geometry": {"type": "Point", "coordinates": [140.99485934304, 43.1974118306201]}, "properties": {"similar_stop_name": "小樽駅前［小樽市］", "similar_stop_id": "S0102000030"}}, {"type": "Feature", "geometry": {"type": "Point", "coordinates": [140.995623273097, 43.1955631223311]}, "properties": {"similar_stop_name": "稲穂２丁目", "similar_stop_id": "S0102000031"}}, {"type": "Feature", "geometry": {"type": "Point", "coordinates": [140.997671894922, 43.192247620577]}, "properties": {"similar_stop_name": "市役所通［小樽市］", "similar_stop_id": "S0102000032"}}, {"type": "Feature", "geometry": {"type": "Point", "coordinates": [140.998783023855, 43.1902513720821]}, "properties": {"similar_stop_name": "花園公園通", "similar_stop_id": "S0102000033"}}, {"type": "Feature", "geometry": {"type": "Point", "coordinates": [141.002151032735, 43.1858596553736]}, "properties": {"similar_stop_name": "入船十字街", "similar_stop_id": "S0102000034"}}, {"type": "Feature", "geometry": {"type": "Point", "coordinates": [141.004477305919, 43.1842019467707]}, "properties": {"similar_stop_name": "住吉神社前", "similar_stop_id": "S0102000035"}}, {"type": "Feature", "geometry": {"type": "Point", "coordinates": [141.005241086404, 43.1848182159676]}, "properties": {"similar_stop_name": "小樽協会病院前", "similar_stop_id": "S0102000036"}}, {"type": "Feature", "geometry": {"type": "Point", "coordinates": [141.006490918061, 43.1856775269109]}, "properties": {"similar_stop_name": "市立病院前［小樽市］", "similar_stop_id": "S0102000037"}}, {"type": "Feature", "geometry": {"type": "Point", "coordinates": [141.008504732957, 43.1838115001981]}, "properties": {"similar_stop_name": "若松", "similar_stop_id": "S0102000038"}}, {"type": "Feature", "geometry": {"type": "Point", "coordinates": [141.007671445495, 43.1843322430246]}, "properties": {"similar_stop_name": "若松１丁目", "similar_stop_id": "S0102000039"}}, {"type": "Feature", "geometry": {"type": "Point", "coordinates": [141.01093494354, 43.185773145794]}, "properties": {"similar_stop_name": "信香町", "similar_stop_id": "S0102000040"}}, {"type": "Feature", "geometry": {"type": "Point", "coordinates": [141.013712430965, 43.1863026854526]}, "properties": {"similar_stop_name": "田中酒造亀甲蔵前", "similar_stop_id": "S0102000041"}}, {"type": "Feature", "geometry": {"type": "Point", "coordinates": [141.01694132169, 43.1859035334629]}, "properties": {"similar_stop_name": "新南樽市場", "similar_stop_id": "S0102000042"}}, {"type": "Feature", "geometry": {"type": "Point", "coordinates": [141.020343891693, 43.1841156673785]}, "properties": {"similar_stop_name": "ウイングベイ小樽", "similar_stop_id": "S0102000043"}}, {"type": "Feature", "geometry": {"type": "Point", "coordinates": [141.023503385555, 43.1830395122647]}, "properties": {"similar_stop_name": "グランドパーク小樽", "similar_stop_id": "S0102000044"}}, {"type": "Feature", "geometry": {"type": "Point", "coordinates": [141.018399483643, 43.1864937867449]}, "properties": {"similar_stop_name": "勝納埠頭", "similar_stop_id": "S0102000045"}}, {"type": "Feature", "geometry": {"type": "Point", "coordinates": [141.021767316221, 43.1850097019811]}, "properties": {"similar_stop_name": "小樽港マリーナ", "similar_stop_id": "S0102000046"}}, {"type": "Feature", "geometry": {"type": "Point", "coordinates": [141.027739183039, 43.1817203661824]}, "properties": {"similar_stop_name": "ぱるて築港", "similar_stop_id": "S0102000047"}}, {"type": "Feature", "geometry": {"type": "Point", "coordinates": [141.01826036214, 43.1905384284615]}, "properties": {"similar_stop_name": "新日本海フェリー", "similar_stop_id": "S0102000048"}}, {"type": "Feature", "geometry": {"type": "Point", "coordinates": [141.018399639045, 43.1839333347214]}, "properties": {"similar_stop_name": "済生会小樽病院", "similar_stop_id": "S0102000049"}}, {"type": "Feature", "geometry": {"type": "Point", "coordinates": [141.651036381012, 42.8285544218147]}, "properties": {"similar_stop_name": "千歳駅前", "similar_stop_id": "S0102000050"}}, {"type": "Feature", "geometry": {"type": "Point", "coordinates": [141.653189126353, 42.8258291276582]}, "properties": {"similar_stop_name": "清水町６丁目", "similar_stop_id": "S0102000051"}}, {"type": "Feature", "geometry": {"type": "Point", "coordinates": [141.654890445922, 42.8243970650256]}, "properties": {"similar_stop_name": "東雲町５丁目", "similar_stop_id": "S0102000052"}}, {"type": "Feature", "geometry": {"type": "Point", "coordinates": [141.653432356083, 42.8225830005279]}, "properties": {"similar_stop_name": "ハローワーク前［千歳市］", "similar_stop_id": "S0102000053"}}, {"type": "Feature", "geometry": {"type": "Point", "coordinates": [141.651279833461, 42.8216281843196]}, "properties": {"similar_stop_name": "市役所前［千歳市］", "similar_stop_id": "S0102000054"}}, {"type": "Feature", "geometry": {"type": "Point", "coordinates": [141.648189687773, 42.8241277806121]}, "properties": {"similar_stop_name": "仲の橋通", "similar_stop_id": "S0102000055"}}, {"type": "Feature", "geometry": {"type": "Point", "coordinates": [141.644509259622, 42.8275994621622]}, "properties": {"similar_stop_name": "千歳高校", "similar_stop_id": "S0102000056"}}, {"type": "Feature", "geometry": {"type": "Point", "coordinates": [141.643259211413, 42.8302900678881]}, "properties": {"similar_stop_name": "北栄緑地", "similar_stop_id": "S0102000057"}}, {"type": "Feature", "geometry": {"type": "Point", "coordinates": [141.639336023699, 42.8292397190867]}, "properties": {"similar_stop_name": "げんきっこセンター前", "similar_stop_id": "S0102000058"}}, {"type": "Feature", "geometry": {"type": "Point", "coordinates": [141.636558630402, 42.8270957901701]}, "properties": {"similar_stop_name": "北斗１丁目", "similar_stop_id": "S0102000059"}}, {"type": "Feature", "geometry": {"type": "Point", "coordinates": [141.633329688477, 42.8282760970666]}, "properties": {"similar_stop_name": "橋爪斎苑前", "similar_stop_id": "S0102000060"}}, {"type": "Feature", "geometry": {"type": "Point", "coordinates": [141.630482664911, 42.8293088648915]}, "properties": {"similar_stop_name": "北斗３丁目", "similar_stop_id": "S0102000061"}}, {"type": "Feature", "geometry": {"type": "Point", "coordinates": [141.627705079958, 42.8303329554885]}, "properties": {"similar_stop_name": "北部隊前", "similar_stop_id": "S0102000062"}}, {"type": "Feature", "geometry": {"type": "Point", "coordinates": [141.622879025624, 42.8321207754218]}, "properties": {"similar_stop_name": "北桜コミュニティセンター", "similar_stop_id": "S0102000063"}}, {"type": "Feature", "geometry": {"type": "Point", "coordinates": [141.618400168002, 42.8338044526736]}, "properties": {"similar_stop_name": "自由ヶ丘３丁目", "similar_stop_id": "S0102000064"}}, {"type": "Feature", "geometry": {"type": "Point", "coordinates": [141.61520594732, 42.8349500426976]}, "properties": {"similar_stop_name": "桜木小学校前", "similar_stop_id": "S0102000065"}}, {"type": "Feature", "geometry": {"type": "Point", "coordinates": [141.612532523754, 42.8359047006732]}, "properties": {"similar_stop_name": "桜木３丁目［千歳市］", "similar_stop_id": "S0102000066"}}, {"type": "Feature", "geometry": {"type": "Point", "coordinates": [141.60874806059, 42.8373627335496]}, "properties": {"similar_stop_name": "勇舞すこやか公園前", "similar_stop_id": "S0102000067"}}, {"type": "Feature", "geometry": {"type": "Point", "coordinates": [141.607463428425, 42.8378227052348]}, "properties": {"similar_stop_name": "桜木４丁目", "similar_stop_id": "S0102000068"}}, {"type": "Feature", "geometry": {"type": "Point", "coordinates": [141.609338033189, 42.8415115563834]}, "properties": {"similar_stop_name": "桜木５丁目", "similar_stop_id": "S0102000069"}}, {"type": "Feature", "geometry": {"type": "Point", "coordinates": [141.612671058545, 42.8415463836318]}, "properties": {"similar_stop_name": "桜木３号公園", "similar_stop_id": "S0102000070"}}, {"type": "Feature", "geometry": {"type": "Point", "coordinates": [141.615552802101, 42.840496257942]}, "properties": {"similar_stop_name": "桜木１丁目", "similar_stop_id": "S0102000071"}}, {"type": "Feature", "geometry": {"type": "Point", "coordinates": [141.619476139877, 42.8390642681609]}, "properties": {"similar_stop_name": "せせらぎ公園", "similar_stop_id": "S0102000072"}}, {"type": "Feature", "geometry": {"type": "Point", "coordinates": [141.623607766687, 42.8380489014658]}, "properties": {"similar_stop_name": "自由ヶ丘１丁目", "similar_stop_id": "S0102000073"}}, {"type": "Feature", "geometry": {"type": "Point", "coordinates": [141.627565870832, 42.8358357573493]}, "properties": {"similar_stop_name": "開発局前［千歳市］", "similar_stop_id": "S0102000074"}}, {"type": "Feature", "geometry": {"type": "Point", "coordinates": [141.629128166035, 42.8368513106926]}, "properties": {"similar_stop_name": "信濃小学校前", "similar_stop_id": "S0102000075"}}, {"type": "Feature", "geometry": {"type": "Point", "coordinates": [141.630620954335, 42.8390038769617]}, "properties": {"similar_stop_name": "富士３丁目［千歳市］", "similar_stop_id": "S0102000076"}}, {"type": "Feature", "geometry": {"type": "Point", "coordinates": [141.632252597741, 42.8415036279969]}, "properties": {"similar_stop_name": "ホーマック富士店前", "similar_stop_id": "S0102000077"}}, {"type": "Feature", "geometry": {"type": "Point", "coordinates": [141.635064654206, 42.8445675855847]}, "properties": {"similar_stop_name": "北光３丁目［千歳市］", "similar_stop_id": "S0102000078"}}, {"type": "Feature", "geometry": {"type": "Point", "coordinates": [141.639265724428, 42.8434654261763]}, "properties": {"similar_stop_name": "市民病院", "similar_stop_id": "S0102000079"}}, {"type": "Feature", "geometry": {"type": "Point", "coordinates": [141.639370055511, 42.8405925133219]}, "properties": {"similar_stop_name": "富丘４丁目［千歳市］", "similar_stop_id": "S0102000080"}}, {"type": "Feature", "geometry": {"type": "Point", "coordinates": [141.6368357886, 42.8369123199327]}, "properties": {"similar_stop_name": "信濃３丁目［千歳市］", "similar_stop_id": "S0102000081"}}, {"type": "Feature", "geometry": {"type": "Point", "coordinates": [141.635134708132, 42.8343952075873]}, "properties": {"similar_stop_name": "新富２丁目［千歳市］", "similar_stop_id": "S0102000082"}}, {"type": "Feature", "geometry": {"type": "Point", "coordinates": [141.637217964897, 42.8325031437036]}, "properties": {"similar_stop_name": "尾谷内科前", "similar_stop_id": "S0102000083"}}, {"type": "Feature", "geometry": {"type": "Point", "coordinates": [141.639995547791, 42.8315137711501]}, "properties": {"similar_stop_name": "ほっとす前", "similar_stop_id": "S0102000084"}}, {"type": "Feature", "geometry": {"type": "Point", "coordinates": [141.642425742258, 42.8337965607769]}, "properties": {"similar_stop_name": "北栄団地前", "similar_stop_id": "S0102000085"}}, {"type": "Feature", "geometry": {"type": "Point", "coordinates": [141.645307500677, 42.8325034089595]}, "properties": {"similar_stop_name": "北栄２丁目", "similar_stop_id": "S0102000086"}}, {"type": "Feature", "geometry": {"type": "Point", "coordinates": [141.648918464516, 42.8294657004421]}, "properties": {"similar_stop_name": "イオン千歳店前", "similar_stop_id": "S0102000087"}}, {"type": "Feature", "geometry": {"type": "Point", "coordinates": [141.35063273722, 43.0696351520804]}, "properties": {"similar_stop_name": "札幌駅北口", "similar_stop_id": "S0102000088"}}, {"type": "Feature", "geometry": {"type": "Point", "coordinates": [141.347577336227, 43.071735491498]}, "properties": {"similar_stop_name": "北大正門前", "similar_stop_id": "S0102000089"}}, {"type": "Feature", "geometry": {"type": "Point", "coordinates": [141.346431344742, 43.0760752046805]}, "properties": {"similar_stop_name": "北大病院前", "similar_stop_id": "S0102000090"}}, {"type": "Feature", "geometry": {"type": "Point", "coordinates": [141.345111697929, 43.0814043752957]}, "properties": {"similar_stop_name": "北１８条西５丁目", "similar_stop_id": "S0102000091"}}, {"type": "Feature", "geometry": {"type": "Point", "coordinates": [141.343965686799, 43.0860652299579]}, "properties": {"similar_stop_name": "北２１条西５丁目", "similar_stop_id": "S0102000092"}}, {"type": "Feature", "geometry": {"type": "Point", "coordinates": [141.342889150108, 43.0901272012831]}, "properties": {"similar_stop_name": "北２４条西５丁目", "similar_stop_id": "S0102000093"}}, {"type": "Feature", "geometry": {"type": "Point", "coordinates": [141.341916777817, 43.0940676629757]}, "properties": {"similar_stop_name": "北２７条西５丁目", "similar_stop_id": "S0102000094"}}, {"type": "Feature", "geometry": {"type": "Point", "coordinates": [141.341326414006, 43.0963763909464]}, "properties": {"similar_stop_name": "北３０条西５丁目", "similar_stop_id": "S0102000095"}}, {"type": "Feature", "geometry": {"type": "Point", "coordinates": [141.340770779768, 43.0985115300249]}, "properties": {"similar_stop_name": "北３２条西５丁目", "similar_stop_id": "S0102000096"}}, {"type": "Feature", "geometry": {"type": "Point", "coordinates": [141.339728957216, 43.1026516179185]}, "properties": {"similar_stop_name": "北３５条西５丁目", "similar_stop_id": "S0102000097"}}, {"type": "Feature", "geometry": {"type": "Point", "coordinates": [141.338964955995, 43.1056547002541]}, "properties": {"similar_stop_name": "北３８条西５丁目", "similar_stop_id": "S0102000098"}}, {"type": "Feature", "geometry": {"type": "Point", "coordinates": [141.338131478649, 43.1092827043674]}, "properties": {"similar_stop_name": "地下鉄麻生駅", "similar_stop_id": "S0102000099"}}, {"type": "Feature", "geometry": {"type": "Point", "coordinates": [141.337436899536, 43.11254617397]}, "properties": {"similar_stop_name": "新琴似駅前", "similar_stop_id": "S0102000100"}}, {"type": "Feature", "geometry": {"type": "Point", "coordinates": [141.340630822112, 43.1162611048269]}, "properties": {"similar_stop_name": "新琴似１２条１丁目", "similar_stop_id": "S0102000101"}}, {"type": "Feature", "geometry": {"type": "Point", "coordinates": [141.336846323984, 43.1183267021904]}, "properties": {"similar_stop_name": "新琴似１２条３丁目", "similar_stop_id": "S0102000102"}}, {"type": "Feature", "geometry": {"type": "Point", "coordinates": [141.334520071951, 43.1196111921934]}, "properties": {"similar_stop_name": "新琴似１２条４丁目", "similar_stop_id": "S0102000103"}}, {"type": "Feature", "geometry": {"type": "Point", "coordinates": [141.331534134917, 43.1212862381452]}, "properties": {"similar_stop_name": "新琴似１２条６丁目", "similar_stop_id": "S0102000104"}}, {"type": "Feature", "geometry": {"type": "Point", "coordinates": [141.328860682221, 43.1227443068003]}, "properties": {"similar_stop_name": "新琴似１２条８丁目", "similar_stop_id": "S0102000105"}}, {"type": "Feature", "geometry": {"type": "Point", "coordinates": [141.325701145933, 43.1244887830741]}, "properties": {"similar_stop_name": "新琴似１２条１０丁目", "similar_stop_id": "S0102000106"}}, {"type": "Feature", "geometry": {"type": "Point", "coordinates": [141.328825574738, 43.1291150591347]}, "properties": {"similar_stop_name": "屯田４条７丁目", "similar_stop_id": "S0102000107"}}, {"type": "Feature", "geometry": {"type": "Point", "coordinates": [141.329276808581, 43.1309724870305]}, "properties": {"similar_stop_name": "屯田５条７丁目", "similar_stop_id": "S0102000108"}}, {"type": "Feature", "geometry": {"type": "Point", "coordinates": [141.33056107784, 43.1364492939209]}, "properties": {"similar_stop_name": "屯田小学校", "similar_stop_id": "S0102000109"}}, {"type": "Feature", "geometry": {"type": "Point", "coordinates": [141.328026557311, 43.1369873400156]}, "properties": {"similar_stop_name": "北陵高校前", "similar_stop_id": "S0102000110"}}, {"type": "Feature", "geometry": {"type": "Point", "coordinates": [141.321811818104, 43.1375860222012]}, "properties": {"similar_stop_name": "屯田７条１０丁目", "similar_stop_id": "S0102000111"}}, {"type": "Feature", "geometry": {"type": "Point", "coordinates": [141.314520771146, 43.1384884517195]}, "properties": {"similar_stop_name": "屯田７条１２丁目", "similar_stop_id": "S0102000112"}}, {"type": "Feature", "geometry": {"type": "Point", "coordinates": [141.313166987057, 43.1342701702088]}, "properties": {"similar_stop_name": "安春川２番橋", "similar_stop_id": "S0102000113"}}, {"type": "Feature", "geometry": {"type": "Point", "coordinates": [141.313965425284, 43.1358932629154]}, "properties": {"similar_stop_name": "屯田６条１２丁目", "similar_stop_id": "S0102000114"}}, {"type": "Feature", "geometry": {"type": "Point", "coordinates": [141.002150357978, 43.1969780926108]}, "properties": {"similar_stop_name": "小樽運河ターミナル", "similar_stop_id": "S0102000115"}}, {"type": "Feature", "geometry": {"type": "Point", "coordinates": [140.999060426571, 43.1960058884119]}, "properties": {"similar_stop_name": "稲穂十字街", "similar_stop_id": "S0102000116"}}, {"type": "Feature", "geometry": {"type": "Point", "coordinates": [140.996769015152, 43.195311454108]}, "properties": {"similar_stop_name": "産業会館前", "similar_stop_id": "S0102000117"}}, {"type": "Feature", "geometry": {"type": "Point", "coordinates": [140.995518959656, 43.1981409298951]}, "properties": {"similar_stop_name": "小樽駅前通", "similar_stop_id": "S0102000118"}}, {"type": "Feature", "geometry": {"type": "Point", "coordinates": [140.996699382243, 43.1985228661662]}, "properties": {"similar_stop_name": "中央通［小樽市］", "similar_stop_id": "S0102000119"}}, {"type": "Feature", "geometry": {"type": "Point", "coordinates": [140.995275684336, 43.202133491127]}, "properties": {"similar_stop_name": "稲穂４丁目［小樽市］", "similar_stop_id": "S0102000120"}}, {"type": "Feature", "geometry": {"type": "Point", "coordinates": [140.997254574711, 43.2036524675953]}, "properties": {"similar_stop_name": "色内川下", "similar_stop_id": "S0102000121"}}, {"type": "Feature", "geometry": {"type": "Point", "coordinates": [140.99725444506, 43.2057876241194]}, "properties": {"similar_stop_name": "錦町［小樽市］", "similar_stop_id": "S0102000122"}}, {"type": "Feature", "geometry": {"type": "Point", "coordinates": [140.99763610096, 43.2099537955864]}, "properties": {"similar_stop_name": "手宮", "similar_stop_id": "S0102000123"}}, {"type": "Feature", "geometry": {"type": "Point", "coordinates": [141.003572931129, 43.211889516606]}, "properties": {"similar_stop_name": "総合博物館", "similar_stop_id": "S0102000124"}}, {"type": "Feature", "geometry": {"type": "Point", "coordinates": [141.008815515923, 43.2116119430884]}, "properties": {"similar_stop_name": "手宮１丁目", "similar_stop_id": "S0102000125"}}, {"type": "Feature", "geometry": {"type": "Point", "coordinates": [141.013085807014, 43.2139989438901]}, "properties": {"similar_stop_name": "日粉前", "similar_stop_id": "S0102000126"}}, {"type": "Feature", "geometry": {"type": "Point", "coordinates": [141.012321765492, 43.2176790262182]}, "properties": {"similar_stop_name": "高島２丁目", "similar_stop_id": "S0102000127"}}, {"type": "Feature", "geometry": {"type": "Point", "coordinates": [141.013016046682, 43.2193021149225]}, "properties": {"similar_stop_name": "高島３丁目", "similar_stop_id": "S0102000128"}}, {"type": "Feature", "geometry": {"type": "Point", "coordinates": [141.015168262196, 43.2252563205278]}, "properties": {"similar_stop_name": "豊井", "similar_stop_id": "S0102000129"}}, {"type": "Feature", "geometry": {"type": "Point", "coordinates": [141.012772370895, 43.2298737355033]}, "properties": {"similar_stop_name": "祝津郵便局", "similar_stop_id": "S0102000130"}}, {"type": "Feature", "geometry": {"type": "Point", "coordinates": [141.012598641834, 43.2320783223151]}, "properties": {"similar_stop_name": "祝津３丁目", "similar_stop_id": "S0102000131"}}, {"type": "Feature", "geometry": {"type": "Point", "coordinates": [141.008987832354, 43.2326423722416]}, "properties": {"similar_stop_name": "小樽貴賓館", "similar_stop_id": "S0102000132"}}, {"type": "Feature", "geometry": {"type": "Point", "coordinates": [141.012841582905, 43.2335885628448]}, "properties": {"similar_stop_name": "祝津漁港", "similar_stop_id": "S0102000133"}}, {"type": "Feature", "geometry": {"type": "Point", "coordinates": [141.014126073129, 43.2354373376664]}, "properties": {"similar_stop_name": "祝津", "similar_stop_id": "S0102000134"}}, {"type": "Feature", "geometry": {"type": "Point", "coordinates": [141.012945552416, 43.2366697879594]}, "properties": {"similar_stop_name": "おたる水族館", "similar_stop_id": "S0102000135"}}, {"type": "Feature", "geometry": {"type": "Point", "coordinates": [141.776280186961, 43.1955453341914]}, "properties": {"similar_stop_name": "市役所前［岩見沢市］", "similar_stop_id": "S0102000136"}}, {"type": "Feature", "geometry": {"type": "Point", "coordinates": [141.779995227825, 43.1938442747898]}, "properties": {"similar_stop_name": "競技場前［岩見沢市］", "similar_stop_id": "S0102000137"}}, {"type": "Feature", "geometry": {"type": "Point", "coordinates": [141.767497018307, 43.1835065736542]}, "properties": {"similar_stop_name": "緑が丘１丁目［岩見沢市］", "similar_stop_id": "S0102000138"}}, {"type": "Feature", "geometry": {"type": "Point", "coordinates": [141.763434980429, 43.1820830008012]}, "properties": {"similar_stop_name": "駒園８丁目", "similar_stop_id": "S0102000139"}}, {"type": "Feature", "geometry": {"type": "Point", "coordinates": [141.761734091509, 43.1765280629874]}, "properties": {"similar_stop_name": "木工団地［岩見沢市］", "similar_stop_id": "S0102000140"}}, {"type": "Feature", "geometry": {"type": "Point", "coordinates": [141.759581544157, 43.1760072216035]}, "properties": {"similar_stop_name": "南町７条３丁目", "similar_stop_id": "S0102000141"}}, {"type": "Feature", "geometry": {"type": "Point", "coordinates": [141.757810759681, 43.1778558970057]}, "properties": {"similar_stop_name": "南町２丁目通［岩見沢市］", "similar_stop_id": "S0102000142"}}, {"type": "Feature", "geometry": {"type": "Point", "coordinates": [141.755414983431, 43.1805030659322]}, "properties": {"similar_stop_name": "南町５条２丁目［岩見沢市］", "similar_stop_id": "S0102000143"}}, {"type": "Feature", "geometry": {"type": "Point", "coordinates": [141.755935562826, 43.1838360120446]}, "properties": {"similar_stop_name": "南町５条１丁目［岩見沢市］", "similar_stop_id": "S0102000144"}}, {"type": "Feature", "geometry": {"type": "Point", "coordinates": [141.757810331654, 43.184782139844]}, "properties": {"similar_stop_name": "美園５条８丁目", "similar_stop_id": "S0102000145"}}, {"type": "Feature", "geometry": {"type": "Point", "coordinates": [141.760171153939, 43.185936591791]}, "properties": {"similar_stop_name": "美園児童館", "similar_stop_id": "S0102000146"}}, {"type": "Feature", "geometry": {"type": "Point", "coordinates": [141.76395540845, 43.1878635665698]}, "properties": {"similar_stop_name": "美園小学校前", "similar_stop_id": "S0102000147"}}, {"type": "Feature", "geometry": {"type": "Point", "coordinates": [141.764302374892, 43.1914829305012]}, "properties": {"similar_stop_name": "美園町", "similar_stop_id": "S0102000148"}}, {"type": "Feature", "geometry": {"type": "Point", "coordinates": [141.765933965572, 43.194772515869]}, "properties": {"similar_stop_name": "市立病院前［岩見沢市］", "similar_stop_id": "S0102000149"}}, {"type": "Feature", "geometry": {"type": "Point", "coordinates": [141.350459319547, 43.0667188339415]}, "properties": {"similar_stop_name": "札幌駅前［札幌市］", "similar_stop_id": "S0102000150"}}, {"type": "Feature", "geometry": {"type": "Point", "coordinates": [141.353341197798, 43.0634293971317]}, "properties": {"similar_stop_name": "北１条", "similar_stop_id": "S0102000151"}}, {"type": "Feature", "geometry": {"type": "Point", "coordinates": [141.355007996574, 43.0587251618259]}, "properties": {"similar_stop_name": "南１条", "similar_stop_id": "S0102000152"}}, {"type": "Feature", "geometry": {"type": "Point", "coordinates": [141.356223325162, 43.0560432355889]}, "properties": {"similar_stop_name": "南４条", "similar_stop_id": "S0102000153"}}, {"type": "Feature", "geometry": {"type": "Point", "coordinates": [141.354522036445, 43.0569805661298]}, "properties": {"similar_stop_name": "南３条", "similar_stop_id": "S0102000154"}}, {"type": "Feature", "geometry": {"type": "Point", "coordinates": [141.471565031244, 42.9717082853377]}, "properties": {"similar_stop_name": "三井アウトレットパーク", "similar_stop_id": "S0102000155"}}, {"type": "Feature", "geometry": {"type": "Point", "coordinates": [141.336749461006, 42.9983152327832]}, "properties": {"similar_stop_name": "藻岩高校前", "similar_stop_id": "S0102000156"}}, {"type": "Feature", "geometry": {"type": "Point", "coordinates": [141.337582678498, 42.9989575431384]}, "properties": {"similar_stop_name": "五輪大橋", "similar_stop_id": "S0102000157"}}, {"type": "Feature", "geometry": {"type": "Point", "coordinates": [141.33477083037, 42.9924825427819]}, "properties": {"similar_stop_name": "川沿５条２丁目", "similar_stop_id": "S0102000158"}}, {"type": "Feature", "geometry": {"type": "Point", "coordinates": [141.334667012356, 42.9868842605022]}, "properties": {"similar_stop_name": "藻南公園前", "similar_stop_id": "S0102000159"}}, {"type": "Feature", "geometry": {"type": "Point", "coordinates": [141.335569933315, 42.9831434245183]}, "properties": {"similar_stop_name": "川沿１０条２丁目", "similar_stop_id": "S0102000160"}}, {"type": "Feature", "geometry": {"type": "Point", "coordinates": [141.344180834077, 42.973492098983]}, "properties": {"similar_stop_name": "石山陸橋", "similar_stop_id": "S0102000161"}}, {"type": "Feature", "geometry": {"type": "Point", "coordinates": [141.342757691513, 42.9679198119931]}, "properties": {"similar_stop_name": "石山東３丁目", "similar_stop_id": "S0102000162"}}, {"type": "Feature", "geometry": {"type": "Point", "coordinates": [141.343209325462, 42.9631808183868]}, "properties": {"similar_stop_name": "石山東４丁目", "similar_stop_id": "S0102000163"}}, {"type": "Feature", "geometry": {"type": "Point", "coordinates": [141.343244187808, 42.9608113153416]}, "properties": {"similar_stop_name": "石山東５丁目", "similar_stop_id": "S0102000164"}}, {"type": "Feature", "geometry": {"type": "Point", "coordinates": [141.343834646827, 42.9569142379681]}, "properties": {"similar_stop_name": "石山東６丁目", "similar_stop_id": "S0102000165"}}, {"type": "Feature", "geometry": {"type": "Point", "coordinates": [141.344494473, 42.954188895687]}, "properties": {"similar_stop_name": "石山東７丁目", "similar_stop_id": "S0102000166"}}, {"type": "Feature", "geometry": {"type": "Point", "coordinates": [141.346230607661, 42.9511511264147]}, "properties": {"similar_stop_name": "常盤橋", "similar_stop_id": "S0102000167"}}, {"type": "Feature", "geometry": {"type": "Point", "coordinates": [141.34678636436, 42.9469763037674]}, "properties": {"similar_stop_name": "常盤中学校前", "similar_stop_id": "S0102000168"}}, {"type": "Feature", "geometry": {"type": "Point", "coordinates": [141.346196301547, 42.9443203566937]}, "properties": {"similar_stop_name": "札幌市立大学前", "similar_stop_id": "S0102000169"}}, {"type": "Feature", "geometry": {"type": "Point", "coordinates": [141.344599432746, 42.9409092600352]}, "properties": {"similar_stop_name": "芸術の森入口", "similar_stop_id": "S0102000170"}}, {"type": "Feature", "geometry": {"type": "Point", "coordinates": [141.346578865252, 42.9334883497188]}, "properties": {"similar_stop_name": "サンブライト真駒内", "similar_stop_id": "S0102000172"}}, {"type": "Feature", "geometry": {"type": "Point", "coordinates": [140.99541405855, 43.2103963777733]}, "properties": {"similar_stop_name": "常盤通", "similar_stop_id": "S0102000173"}}, {"type": "Feature", "geometry": {"type": "Point", "coordinates": [140.994094588698, 43.2128352738307]}, "properties": {"similar_stop_name": "梅広会館", "similar_stop_id": "S0102000174"}}, {"type": "Feature", "geometry": {"type": "Point", "coordinates": [140.993712500517, 43.2157862907209]}, "properties": {"similar_stop_name": "梅ヶ枝町", "similar_stop_id": "S0102000175"}}, {"type": "Feature", "geometry": {"type": "Point", "coordinates": [140.993781780303, 43.2183901423522]}, "properties": {"similar_stop_name": "赤岩１丁目", "similar_stop_id": "S0102000176"}}, {"type": "Feature", "geometry": {"type": "Point", "coordinates": [140.992496959258, 43.2219834127228]}, "properties": {"similar_stop_name": "赤岩仲通", "similar_stop_id": "S0102000177"}}, {"type": "Feature", "geometry": {"type": "Point", "coordinates": [140.992809335767, 43.2235370529938]}, "properties": {"similar_stop_name": "赤岩中央", "similar_stop_id": "S0102000178"}}, {"type": "Feature", "geometry": {"type": "Point", "coordinates": [140.994198085941, 43.2236933290948]}, "properties": {"similar_stop_name": "赤岩２丁目", "similar_stop_id": "S0102000179"}}, {"type": "Feature", "geometry": {"type": "Point", "coordinates": [140.996281209094, 43.2239624612412]}, "properties": {"similar_stop_name": "赤岩", "similar_stop_id": "S0102000180"}}, {"type": "Feature", "geometry": {"type": "Point", "coordinates": [140.998051805398, 43.2251516100065]}, "properties": {"similar_stop_name": "高島小学校前", "similar_stop_id": "S0102000181"}}, {"type": "Feature", "geometry": {"type": "Point", "coordinates": [140.9998224075, 43.2262452842989]}, "properties": {"similar_stop_name": "ことぶき団地入口", "similar_stop_id": "S0102000182"}}, {"type": "Feature", "geometry": {"type": "Point", "coordinates": [140.999370952961, 43.2280158871843]}, "properties": {"similar_stop_name": "高島墓地前", "similar_stop_id": "S0102000183"}}, {"type": "Feature", "geometry": {"type": "Point", "coordinates": [141.00204433327, 43.2277208711744]}, "properties": {"similar_stop_name": "祝津山道口", "similar_stop_id": "S0102000184"}}, {"type": "Feature", "geometry": {"type": "Point", "coordinates": [141.007113243811, 43.2287452167409]}, "properties": {"similar_stop_name": "記念碑前", "similar_stop_id": "S0102000185"}}, {"type": "Feature", "geometry": {"type": "Point", "coordinates": [141.010897555351, 43.2297087640701]}, "properties": {"similar_stop_name": "祝津２丁目", "similar_stop_id": "S0102000186"}}, {"type": "Feature", "geometry": {"type": "Point", "coordinates": [141.012112671505, 43.2305073173938]}, "properties": {"similar_stop_name": "祝津漁港入口", "similar_stop_id": "S0102000187"}}, {"type": "Feature", "geometry": {"type": "Point", "coordinates": [141.758816792731, 43.191100850799]}, "properties": {"similar_stop_name": "一心橋", "similar_stop_id": "S0102000188"}}, {"type": "Feature", "geometry": {"type": "Point", "coordinates": [141.754095127307, 43.1891304475038]}, "properties": {"similar_stop_name": "１０条西２０丁目［岩見沢市］", "similar_stop_id": "S0102000189"}}, {"type": "Feature", "geometry": {"type": "Point", "coordinates": [141.738332826906, 43.1869253323523]}, "properties": {"similar_stop_name": "大和３条８丁目", "similar_stop_id": "S0102000190"}}, {"type": "Feature", "geometry": {"type": "Point", "coordinates": [141.732777761763, 43.1872723286643]}, "properties": {"similar_stop_name": "大和１条９丁目", "similar_stop_id": "S0102000191"}}, {"type": "Feature", "geometry": {"type": "Point", "coordinates": [141.729410021904, 43.1871854222426]}, "properties": {"similar_stop_name": "上幌向南１条１丁目", "similar_stop_id": "S0102000192"}}, {"type": "Feature", "geometry": {"type": "Point", "coordinates": [141.724549423052, 43.1861437212261]}, "properties": {"similar_stop_name": "東１４号［岩見沢市］", "similar_stop_id": "S0102000193"}}, {"type": "Feature", "geometry": {"type": "Point", "coordinates": [141.718022449398, 43.1828626535932]}, "properties": {"similar_stop_name": "土木現業所前［岩見沢市］", "similar_stop_id": "S0102000194"}}, {"type": "Feature", "geometry": {"type": "Point", "coordinates": [141.714272910168, 43.1809964366704]}, "properties": {"similar_stop_name": "上幌向駅前", "similar_stop_id": "S0102000195"}}, {"type": "Feature", "geometry": {"type": "Point", "coordinates": [141.712675890851, 43.1800937156543]}, "properties": {"similar_stop_name": "試験場前［岩見沢市］", "similar_stop_id": "S0102000196"}}, {"type": "Feature", "geometry": {"type": "Point", "coordinates": [141.70732932959, 43.1773681752574]}, "properties": {"similar_stop_name": "１１号［岩見沢市］", "similar_stop_id": "S0102000197"}}, {"type": "Feature", "geometry": {"type": "Point", "coordinates": [141.701635582891, 43.1745645078994]}, "properties": {"similar_stop_name": "上幌向工業団地［岩見沢市］", "similar_stop_id": "S0102000198"}}, {"type": "Feature", "geometry": {"type": "Point", "coordinates": [141.6960112742, 43.1717608428716]}, "properties": {"similar_stop_name": "協和入口", "similar_stop_id": "S0102000199"}}, {"type": "Feature", "geometry": {"type": "Point", "coordinates": [141.690317533315, 43.168861701062]}, "properties": {"similar_stop_name": "８号［岩見沢市］", "similar_stop_id": "S0102000200"}}, {"type": "Feature", "geometry": {"type": "Point", "coordinates": [141.68458907551, 43.1659278401331]}, "properties": {"similar_stop_name": "７号［岩見沢市］", "similar_stop_id": "S0102000201"}}, {"type": "Feature", "geometry": {"type": "Point", "coordinates": [141.678930054638, 43.1630113405376]}, "properties": {"similar_stop_name": "お茶の水", "similar_stop_id": "S0102000202"}}, {"type": "Feature", "geometry": {"type": "Point", "coordinates": [141.674208418447, 43.1605635650398]}, "properties": {"similar_stop_name": "５号［岩見沢市］", "similar_stop_id": "S0102000203"}}, {"type": "Feature", "geometry": {"type": "Point", "coordinates": [141.670563037161, 43.1586799927326]}, "properties": {"similar_stop_name": "クボタ営業所前", "similar_stop_id": "S0102000204"}}, {"type": "Feature", "geometry": {"type": "Point", "coordinates": [141.667438421409, 43.1571175792078]}, "properties": {"similar_stop_name": "樽見橋", "similar_stop_id": "S0102000205"}}, {"type": "Feature", "geometry": {"type": "Point", "coordinates": [141.661258632189, 43.1539233184653]}, "properties": {"similar_stop_name": "３号［岩見沢市］", "similar_stop_id": "S0102000206"}}, {"type": "Feature", "geometry": {"type": "Point", "coordinates": [141.658724223745, 43.152621309512]}, "properties": {"similar_stop_name": "幌向南１条", "similar_stop_id": "S0102000207"}}, {"type": "Feature", "geometry": {"type": "Point", "coordinates": [141.655460737205, 43.1509720964248]}, "properties": {"similar_stop_name": "幌向駅前", "similar_stop_id": "S0102000208"}}, {"type": "Feature", "geometry": {"type": "Point", "coordinates": [141.650565510575, 43.1484461998035]}, "properties": {"similar_stop_name": "東１号［岩見沢市］", "similar_stop_id": "S0102000209"}}, {"type": "Feature", "geometry": {"type": "Point", "coordinates": [141.654940333235, 43.1447749147274]}, "properties": {"similar_stop_name": "幌向南２条４丁目", "similar_stop_id": "S0102000210"}}, {"type": "Feature", "geometry": {"type": "Point", "coordinates": [141.659974429608, 43.1474049699816]}, "properties": {"similar_stop_name": "幌向南２条", "similar_stop_id": "S0102000211"}}, {"type": "Feature", "geometry": {"type": "Point", "coordinates": [141.661675770663, 43.1456344076759]}, "properties": {"similar_stop_name": "幌向南３条", "similar_stop_id": "S0102000212"}}, {"type": "Feature", "geometry": {"type": "Point", "coordinates": [141.662856293268, 43.1444019573167]}, "properties": {"similar_stop_name": "幌向南４条", "similar_stop_id": "S0102000213"}}, {"type": "Feature", "geometry": {"type": "Point", "coordinates": [141.665703176724, 43.1456432200786]}, "properties": {"similar_stop_name": "南４条つくし公園", "similar_stop_id": "S0102000214"}}, {"type": "Feature", "geometry": {"type": "Point", "coordinates": [141.360007666647, 43.0565554499231]}, "properties": {"similar_stop_name": "南４条東１丁目", "similar_stop_id": "S0102000215"}}, {"type": "Feature", "geometry": {"type": "Point", "coordinates": [141.365875290508, 43.0547416259728]}, "properties": {"similar_stop_name": "豊平橋", "similar_stop_id": "S0102000216"}}, {"type": "Feature", "geometry": {"type": "Point", "coordinates": [141.370979178424, 43.0515737747929]}, "properties": {"similar_stop_name": "豊平３条４丁目", "similar_stop_id": "S0102000217"}}, {"type": "Feature", "geometry": {"type": "Point", "coordinates": [141.373895684469, 43.0497858928323]}, "properties": {"similar_stop_name": "豊平３条８丁目", "similar_stop_id": "S0102000218"}}, {"type": "Feature", "geometry": {"type": "Point", "coordinates": [141.37663859017, 43.0480848002076]}, "properties": {"similar_stop_name": "豊平３条１０丁目", "similar_stop_id": "S0102000219"}}, {"type": "Feature", "geometry": {"type": "Point", "coordinates": [141.380423104373, 43.0457588175219]}, "properties": {"similar_stop_name": "豊平３条１２丁目", "similar_stop_id": "S0102000220"}}, {"type": "Feature", "geometry": {"type": "Point", "coordinates": [141.38333961205, 43.0439448970448]}, "properties": {"similar_stop_name": "美園３条２丁目", "similar_stop_id": "S0102000221"}}, {"type": "Feature", "geometry": {"type": "Point", "coordinates": [141.386429719049, 43.042061546228]}, "properties": {"similar_stop_name": "美園３条４丁目", "similar_stop_id": "S0102000222"}}, {"type": "Feature", "geometry": {"type": "Point", "coordinates": [141.389207345941, 43.0403257367172]}, "properties": {"similar_stop_name": "豊平郵便局", "similar_stop_id": "S0102000223"}}, {"type": "Feature", "geometry": {"type": "Point", "coordinates": [141.392679513604, 43.035951381333]}, "properties": {"similar_stop_name": "月寒中央通２丁目［札幌市］", "similar_stop_id": "S0102000224"}}, {"type": "Feature", "geometry": {"type": "Point", "coordinates": [141.394450347581, 43.0332521141477]}, "properties": {"similar_stop_name": "月寒中央通４丁目［札幌市］", "similar_stop_id": "S0102000225"}}, {"type": "Feature", "geometry": {"type": "Point", "coordinates": [141.39604757064, 43.0308132263317]}, "properties": {"similar_stop_name": "月寒中央駅前", "similar_stop_id": "S0102000226"}}, {"type": "Feature", "geometry": {"type": "Point", "coordinates": [141.39917262354, 43.0251976907202]}, "properties": {"similar_stop_name": "月寒中央通１０丁目［札幌市］", "similar_stop_id": "S0102000227"}}, {"type": "Feature", "geometry": {"type": "Point", "coordinates": [141.4005961824, 43.0238958119705]}, "properties": {"similar_stop_name": "月寒中央通１１丁目［札幌市］", "similar_stop_id": "S0102000228"}}, {"type": "Feature", "geometry": {"type": "Point", "coordinates": [141.403616908932, 43.0210663930857]}, "properties": {"similar_stop_name": "福住駅", "similar_stop_id": "S0102000229"}}, {"type": "Feature", "geometry": {"type": "Point", "coordinates": [141.411915050281, 43.0161974638149]}, "properties": {"similar_stop_name": "札幌ドーム", "similar_stop_id": "S0102000230"}}, {"type": "Feature", "geometry": {"type": "Point", "coordinates": [141.415074584391, 43.0144963847399]}, "properties": {"similar_stop_name": "日糧パン前", "similar_stop_id": "S0102000231"}}, {"type": "Feature", "geometry": {"type": "Point", "coordinates": [141.420109008331, 43.0117625062306]}, "properties": {"similar_stop_name": "月寒東１条１９丁目", "similar_stop_id": "S0102000232"}}, {"type": "Feature", "geometry": {"type": "Point", "coordinates": [141.425317045347, 43.0087335303146]}, "properties": {"similar_stop_name": "北野１条１丁目", "similar_stop_id": "S0102000233"}}, {"type": "Feature", "geometry": {"type": "Point", "coordinates": [141.429969560686, 43.0059909597919]}, "properties": {"similar_stop_name": "清田２条１丁目", "similar_stop_id": "S0102000234"}}, {"type": "Feature", "geometry": {"type": "Point", "coordinates": [141.435524813312, 43.0025453791007]}, "properties": {"similar_stop_name": "清田団地入口", "similar_stop_id": "S0102000235"}}, {"type": "Feature", "geometry": {"type": "Point", "coordinates": [141.441635666822, 42.9975114676011]}, "properties": {"similar_stop_name": "真栄", "similar_stop_id": "S0102000236"}}, {"type": "Feature", "geometry": {"type": "Point", "coordinates": [141.442815964323, 42.9999678054767]}, "properties": {"similar_stop_name": "清田区役所", "similar_stop_id": "S0102000237"}}, {"type": "Feature", "geometry": {"type": "Point", "coordinates": [141.44628798668, 42.9979889925272]}, "properties": {"similar_stop_name": "平岡しんたく団地", "similar_stop_id": "S0102000238"}}, {"type": "Feature", "geometry": {"type": "Point", "coordinates": [141.45028089035, 42.9944305271334]}, "properties": {"similar_stop_name": "観音前［札幌市］", "similar_stop_id": "S0102000239"}}, {"type": "Feature", "geometry": {"type": "Point", "coordinates": [141.453475212774, 42.9915924343066]}, "properties": {"similar_stop_name": "日の丸団地", "similar_stop_id": "S0102000240"}}, {"type": "Feature", "geometry": {"type": "Point", "coordinates": [141.460592750469, 42.989318637591]}, "properties": {"similar_stop_name": "桂台団地", "similar_stop_id": "S0102000241"}}, {"type": "Feature", "geometry": {"type": "Point", "coordinates": [141.461808076536, 42.9866801085173]}, "properties": {"similar_stop_name": "里塚市営団地前", "similar_stop_id": "S0102000242"}}, {"type": "Feature", "geometry": {"type": "Point", "coordinates": [141.463613673424, 42.9832604434964]}, "properties": {"similar_stop_name": "美里団地", "similar_stop_id": "S0102000243"}}, {"type": "Feature", "geometry": {"type": "Point", "coordinates": [141.467155246228, 42.9794328986514]}, "properties": {"similar_stop_name": "三里塚小学校", "similar_stop_id": "S0102000244"}}, {"type": "Feature", "geometry": {"type": "Point", "coordinates": [141.471113393565, 42.9764906767289]}, "properties": {"similar_stop_name": "三井アウトレットパーク入口", "similar_stop_id": "S0102000245"}}, {"type": "Feature", "geometry": {"type": "Point", "coordinates": [141.477085348663, 42.9718299791209]}, "properties": {"similar_stop_name": "大曲［北広島市］", "similar_stop_id": "S0102000246"}}, {"type": "Feature", "geometry": {"type": "Point", "coordinates": [141.478994723688, 42.974650880147]}, "properties": {"similar_stop_name": "大曲中央３丁目", "similar_stop_id": "S0102000247"}}, {"type": "Feature", "geometry": {"type": "Point", "coordinates": [141.481563779108, 42.9771593406666]}, "properties": {"similar_stop_name": "大曲末広２丁目", "similar_stop_id": "S0102000248"}}, {"type": "Feature", "geometry": {"type": "Point", "coordinates": [141.483403802489, 42.9785568009226]}, "properties": {"similar_stop_name": "大曲末広３丁目", "similar_stop_id": "S0102000249"}}, {"type": "Feature", "geometry": {"type": "Point", "coordinates": [141.483473015898, 42.9822542714847]}, "properties": {"similar_stop_name": "大曲光２丁目", "similar_stop_id": "S0102000250"}}, {"type": "Feature", "geometry": {"type": "Point", "coordinates": [141.483021502459, 42.9849883001417]}, "properties": {"similar_stop_name": "大曲光４丁目", "similar_stop_id": "S0102000251"}}, {"type": "Feature", "geometry": {"type": "Point", "coordinates": [141.007495280978, 43.2266361111766]}, "properties": {"similar_stop_name": "かもめヶ丘団地", "similar_stop_id": "S0102000252"}}, {"type": "Feature", "geometry": {"type": "Point", "coordinates": [141.004301192813, 43.2256639035552]}, "properties": {"similar_stop_name": "団地中央［小樽市］", "similar_stop_id": "S0102000253"}}, {"type": "Feature", "geometry": {"type": "Point", "coordinates": [140.998399054935, 43.2241708380351]}, "properties": {"similar_stop_name": "かもめが丘公園", "similar_stop_id": "S0102000254"}}, {"type": "Feature", "geometry": {"type": "Point", "coordinates": [141.00100464858, 43.1966916319416]}, "properties": {"similar_stop_name": "本局前", "similar_stop_id": "S0102000255"}}, {"type": "Feature", "geometry": {"type": "Point", "coordinates": [141.762149453473, 43.1970117021288]}, "properties": {"similar_stop_name": "７条西９丁目［岩見沢市］", "similar_stop_id": "S0102000256"}}, {"type": "Feature", "geometry": {"type": "Point", "coordinates": [141.76003166121, 43.1959093352356]}, "properties": {"similar_stop_name": "７条西１１丁目［岩見沢市］", "similar_stop_id": "S0102000257"}}, {"type": "Feature", "geometry": {"type": "Point", "coordinates": [141.756490430842, 43.1941299200559]}, "properties": {"similar_stop_name": "７条西１４丁目［岩見沢市］", "similar_stop_id": "S0102000258"}}, {"type": "Feature", "geometry": {"type": "Point", "coordinates": [141.752949200994, 43.192341825388]}, "properties": {"similar_stop_name": "７条西１８丁目［岩見沢市］", "similar_stop_id": "S0102000259"}}, {"type": "Feature", "geometry": {"type": "Point", "coordinates": [141.749130228602, 43.1903974905027]}, "properties": {"similar_stop_name": "７条西２２丁目", "similar_stop_id": "S0102000260"}}, {"type": "Feature", "geometry": {"type": "Point", "coordinates": [141.743991932768, 43.1884617914788]}, "properties": {"similar_stop_name": "やまと公園", "similar_stop_id": "S0102000261"}}, {"type": "Feature", "geometry": {"type": "Point", "coordinates": [141.740867094087, 43.1905100505883]}, "properties": {"similar_stop_name": "大和５丁目", "similar_stop_id": "S0102000262"}}, {"type": "Feature", "geometry": {"type": "Point", "coordinates": [141.738506275609, 43.1892948421767]}, "properties": {"similar_stop_name": "大和７丁目", "similar_stop_id": "S0102000263"}}, {"type": "Feature", "geometry": {"type": "Point", "coordinates": [141.742047936152, 43.1841132965593]}, "properties": {"similar_stop_name": "イオン岩見沢店", "similar_stop_id": "S0102000264"}}, {"type": "Feature", "geometry": {"type": "Point", "coordinates": [141.00774102777, 43.1819540627326]}, "properties": {"similar_stop_name": "奥沢口", "similar_stop_id": "S0102000265"}}, {"type": "Feature", "geometry": {"type": "Point", "coordinates": [141.009025682171, 43.1811035136296]}, "properties": {"similar_stop_name": "龍徳寺前", "similar_stop_id": "S0102000266"}}, {"type": "Feature", "geometry": {"type": "Point", "coordinates": [141.018503941931, 43.1815291170466]}, "properties": {"similar_stop_name": "潮見台", "similar_stop_id": "S0102000267"}}, {"type": "Feature", "geometry": {"type": "Point", "coordinates": [141.021871703408, 43.1812167645548]}, "properties": {"similar_stop_name": "若竹町", "similar_stop_id": "S0102000268"}}, {"type": "Feature", "geometry": {"type": "Point", "coordinates": [141.02746151115, 43.1804010733853]}, "properties": {"similar_stop_name": "小樽築港駅", "similar_stop_id": "S0102000269"}}, {"type": "Feature", "geometry": {"type": "Point", "coordinates": [141.03909251956, 43.1780145894032]}, "properties": {"similar_stop_name": "東小樽", "similar_stop_id": "S0102000270"}}, {"type": "Feature", "geometry": {"type": "Point", "coordinates": [141.046036256061, 43.179047675523]}, "properties": {"similar_stop_name": "海上技術学校下", "similar_stop_id": "S0102000271"}}, {"type": "Feature", "geometry": {"type": "Point", "coordinates": [141.05339674125, 43.1780931700536]}, "properties": {"similar_stop_name": "朝里橋", "similar_stop_id": "S0102000272"}}, {"type": "Feature", "geometry": {"type": "Point", "coordinates": [141.054993884135, 43.1769562076756]}, "properties": {"similar_stop_name": "朝里車庫前", "similar_stop_id": "S0102000273"}}, {"type": "Feature", "geometry": {"type": "Point", "coordinates": [141.057354844424, 43.1758279496388]}, "properties": {"similar_stop_name": "朝里町", "similar_stop_id": "S0102000274"}}, {"type": "Feature", "geometry": {"type": "Point", "coordinates": [141.056313360426, 43.1744131574738]}, "properties": {"similar_stop_name": "新光１丁目", "similar_stop_id": "S0102000275"}}, {"type": "Feature", "geometry": {"type": "Point", "coordinates": [141.054230382916, 43.1717398041211]}, "properties": {"similar_stop_name": "小樽自動車学校前", "similar_stop_id": "S0102000276"}}, {"type": "Feature", "geometry": {"type": "Point", "coordinates": [141.052529289051, 43.1694830791281]}, "properties": {"similar_stop_name": "新光町十字街", "similar_stop_id": "S0102000277"}}, {"type": "Feature", "geometry": {"type": "Point", "coordinates": [141.051001775398, 43.1674693857454]}, "properties": {"similar_stop_name": "新光４丁目", "similar_stop_id": "S0102000278"}}, {"type": "Feature", "geometry": {"type": "Point", "coordinates": [141.049265966704, 43.1651432236349]}, "properties": {"similar_stop_name": "宏楽園", "similar_stop_id": "S0102000279"}}, {"type": "Feature", "geometry": {"type": "Point", "coordinates": [141.047738475652, 43.162756311806]}, "properties": {"similar_stop_name": "新光南", "similar_stop_id": "S0102000280"}}, {"type": "Feature", "geometry": {"type": "Point", "coordinates": [141.047078901587, 43.1613241730607]}, "properties": {"similar_stop_name": "木工団地［小樽市］", "similar_stop_id": "S0102000281"}}, {"type": "Feature", "geometry": {"type": "Point", "coordinates": [141.04412798162, 43.158112662571]}, "properties": {"similar_stop_name": "新光５丁目", "similar_stop_id": "S0102000282"}}, {"type": "Feature", "geometry": {"type": "Point", "coordinates": [141.041593675358, 43.1551355120963]}, "properties": {"similar_stop_name": "文治沢", "similar_stop_id": "S0102000283"}}, {"type": "Feature", "geometry": {"type": "Point", "coordinates": [141.041038390312, 43.1515248225225]}, "properties": {"similar_stop_name": "温泉橋［小樽市］", "similar_stop_id": "S0102000284"}}, {"type": "Feature", "geometry": {"type": "Point", "coordinates": [141.041281557988, 43.1493028787086]}, "properties": {"similar_stop_name": "朝里川温泉２丁目", "similar_stop_id": "S0102000285"}}, {"type": "Feature", "geometry": {"type": "Point", "coordinates": [141.04103860918, 43.1479141509875]}, "properties": {"similar_stop_name": "温泉街［小樽市］", "similar_stop_id": "S0102000286"}}, {"type": "Feature", "geometry": {"type": "Point", "coordinates": [141.040031951827, 43.144720062668]}, "properties": {"similar_stop_name": "温泉坂上［小樽市］", "similar_stop_id": "S0102000287"}}, {"type": "Feature", "geometry": {"type": "Point", "coordinates": [141.039858580882, 43.1410225904746]}, "properties": {"similar_stop_name": "朝里川温泉", "similar_stop_id": "S0102000289"}}, {"type": "Feature", "geometry": {"type": "Point", "coordinates": [141.772913075065, 43.1853034099587]}, "properties": {"similar_stop_name": "大正池入口", "similar_stop_id": "S0102000290"}}, {"type": "Feature", "geometry": {"type": "Point", "coordinates": [141.772080159211, 43.1797918983666]}, "properties": {"similar_stop_name": "緑ヶ丘４丁目", "similar_stop_id": "S0102000292"}}, {"type": "Feature", "geometry": {"type": "Point", "coordinates": [141.771629015208, 43.1765023520101]}, "properties": {"similar_stop_name": "緑ヶ丘霊園", "similar_stop_id": "S0102000293"}}, {"type": "Feature", "geometry": {"type": "Point", "coordinates": [141.771281996062, 43.1737335792375]}, "properties": {"similar_stop_name": "緑ヶ丘６丁目", "similar_stop_id": "S0102000294"}}, {"type": "Feature", "geometry": {"type": "Point", "coordinates": [141.772809804796, 43.170956189014]}, "properties": {"similar_stop_name": "南が丘", "similar_stop_id": "S0102000295"}}, {"type": "Feature", "geometry": {"type": "Point", "coordinates": [141.775066685711, 43.1686214775417]}, "properties": {"similar_stop_name": "スキー場入口［岩見沢市］", "similar_stop_id": "S0102000296"}}, {"type": "Feature", "geometry": {"type": "Point", "coordinates": [141.778469375987, 43.1649675195954]}, "properties": {"similar_stop_name": "グリーンランド", "similar_stop_id": "S0102000297"}}, {"type": "Feature", "geometry": {"type": "Point", "coordinates": [141.782809536276, 43.1604022448801]}, "properties": {"similar_stop_name": "いわみざわ公園", "similar_stop_id": "S0102000298"}}, {"type": "Feature", "geometry": {"type": "Point", "coordinates": [141.7871496939, 43.1558803676434]}, "properties": {"similar_stop_name": "ローズパークゴルフ場入口", "similar_stop_id": "S0102000299"}}, {"type": "Feature", "geometry": {"type": "Point", "coordinates": [141.793607555137, 43.1539016548082]}, "properties": {"similar_stop_name": "旧渡船場［岩見沢市］", "similar_stop_id": "S0102000300"}}, {"type": "Feature", "geometry": {"type": "Point", "coordinates": [141.800481763283, 43.1564796947633]}, "properties": {"similar_stop_name": "観音前［岩見沢市］", "similar_stop_id": "S0102000301"}}, {"type": "Feature", "geometry": {"type": "Point", "coordinates": [141.806349083676, 43.159639228108]}, "properties": {"similar_stop_name": "高徳寺", "similar_stop_id": "S0102000302"}}, {"type": "Feature", "geometry": {"type": "Point", "coordinates": [141.810549950798, 43.1618266019693]}, "properties": {"similar_stop_name": "上志文中央", "similar_stop_id": "S0102000303"}}, {"type": "Feature", "geometry": {"type": "Point", "coordinates": [141.814056453985, 43.1637448882576]}, "properties": {"similar_stop_name": "萩の山スキー場", "similar_stop_id": "S0102000304"}}, {"type": "Feature", "geometry": {"type": "Point", "coordinates": [141.823881893182, 43.1644829715673]}, "properties": {"similar_stop_name": "城宝前", "similar_stop_id": "S0102000305"}}, {"type": "Feature", "geometry": {"type": "Point", "coordinates": [141.839088853802, 43.1640581799671]}, "properties": {"similar_stop_name": "宮村", "similar_stop_id": "S0102000306"}}, {"type": "Feature", "geometry": {"type": "Point", "coordinates": [141.845477169019, 43.1638327246882]}, "properties": {"similar_stop_name": "新宮村橋", "similar_stop_id": "S0102000307"}}, {"type": "Feature", "geometry": {"type": "Point", "coordinates": [141.852212694451, 43.1632861393427]}, "properties": {"similar_stop_name": "第２朝日橋", "similar_stop_id": "S0102000308"}}, {"type": "Feature", "geometry": {"type": "Point", "coordinates": [141.858809425477, 43.1614202649597]}, "properties": {"similar_stop_name": "宮村東", "similar_stop_id": "S0102000309"}}, {"type": "Feature", "geometry": {"type": "Point", "coordinates": [141.866447573825, 43.1620367630283]}, "properties": {"similar_stop_name": "第１朝日橋", "similar_stop_id": "S0102000310"}}, {"type": "Feature", "geometry": {"type": "Point", "coordinates": [141.870301502175, 43.1601621182002]}, "properties": {"similar_stop_name": "朝日医院前［岩見沢市］", "similar_stop_id": "S0102000311"}}, {"type": "Feature", "geometry": {"type": "Point", "coordinates": [141.872974911537, 43.1594504876317]}, "properties": {"similar_stop_name": "旧朝日駅前", "similar_stop_id": "S0102000312"}}, {"type": "Feature", "geometry": {"type": "Point", "coordinates": [141.890369296785, 43.1570121244073]}, "properties": {"similar_stop_name": "２の沢", "similar_stop_id": "S0102000313"}}, {"type": "Feature", "geometry": {"type": "Point", "coordinates": [141.896896341836, 43.1591561783639]}, "properties": {"similar_stop_name": "１の沢", "similar_stop_id": "S0102000314"}}, {"type": "Feature", "geometry": {"type": "Point", "coordinates": [141.901236067488, 43.1616299808709]}, "properties": {"similar_stop_name": "西町口［岩見沢市］", "similar_stop_id": "S0102000315"}}, {"type": "Feature", "geometry": {"type": "Point", "coordinates": [141.905402307128, 43.1623418384682]}, "properties": {"similar_stop_name": "西町［岩見沢市］", "similar_stop_id": "S0102000316"}}, {"type": "Feature", "geometry": {"type": "Point", "coordinates": [141.9075201562, 43.1625328578635]}, "properties": {"similar_stop_name": "西町中央", "similar_stop_id": "S0102000317"}}, {"type": "Feature", "geometry": {"type": "Point", "coordinates": [141.912241885298, 43.163487760027]}, "properties": {"similar_stop_name": "美流渡本町", "similar_stop_id": "S0102000318"}}, {"type": "Feature", "geometry": {"type": "Point", "coordinates": [141.914012613994, 43.1625504324725]}, "properties": {"similar_stop_name": "美流渡交通センター", "similar_stop_id": "S0102000319"}}, {"type": "Feature", "geometry": {"type": "Point", "coordinates": [141.916859669255, 43.1610229344344]}, "properties": {"similar_stop_name": "錦町［岩見沢市］", "similar_stop_id": "S0102000320"}}, {"type": "Feature", "geometry": {"type": "Point", "coordinates": [141.919949740004, 43.1597818680788]}, "properties": {"similar_stop_name": "美流渡橋", "similar_stop_id": "S0102000321"}}, {"type": "Feature", "geometry": {"type": "Point", "coordinates": [141.923734207011, 43.1582891191891]}, "properties": {"similar_stop_name": "滝の上［岩見沢市］", "similar_stop_id": "S0102000322"}}, {"type": "Feature", "geometry": {"type": "Point", "coordinates": [141.929011642464, 43.1559892260702]}, "properties": {"similar_stop_name": "メープルロッジ前", "similar_stop_id": "S0102000323"}}, {"type": "Feature", "geometry": {"type": "Point", "coordinates": [141.938698459699, 43.1526479390166]}, "properties": {"similar_stop_name": "毛陽交流センター", "similar_stop_id": "S0102000324"}}, {"type": "Feature", "geometry": {"type": "Point", "coordinates": [141.3572297934, 43.062344586605]}, "properties": {"similar_stop_name": "札幌ターミナル", "similar_stop_id": "S0102000325"}}, {"type": "Feature", "geometry": {"type": "Point", "coordinates": [141.354972726967, 43.0677778807058]}, "properties": {"similar_stop_name": "北５条西１丁目", "similar_stop_id": "S0102000326"}}, {"type": "Feature", "geometry": {"type": "Point", "coordinates": [141.354417086507, 43.0700171738976]}, "properties": {"similar_stop_name": "北７条西１丁目", "similar_stop_id": "S0102000327"}}, {"type": "Feature", "geometry": {"type": "Point", "coordinates": [141.35379197896, 43.0727338373851]}, "properties": {"similar_stop_name": "北９条西１丁目", "similar_stop_id": "S0102000328"}}, {"type": "Feature", "geometry": {"type": "Point", "coordinates": [141.351569573327, 43.0791218776717]}, "properties": {"similar_stop_name": "北１５条西１丁目", "similar_stop_id": "S0102000329"}}, {"type": "Feature", "geometry": {"type": "Point", "coordinates": [141.349555622245, 43.0832011773899]}, "properties": {"similar_stop_name": "北１８条西２丁目", "similar_stop_id": "S0102000330"}}, {"type": "Feature", "geometry": {"type": "Point", "coordinates": [141.34854855158, 43.08680313745]}, "properties": {"similar_stop_name": "北２１条西２丁目", "similar_stop_id": "S0102000331"}}, {"type": "Feature", "geometry": {"type": "Point", "coordinates": [141.34736783561, 43.091229644418]}, "properties": {"similar_stop_name": "北２４条西２丁目", "similar_stop_id": "S0102000332"}}, {"type": "Feature", "geometry": {"type": "Point", "coordinates": [141.346708026369, 43.0936598831466]}, "properties": {"similar_stop_name": "北２６条西２丁目", "similar_stop_id": "S0102000333"}}, {"type": "Feature", "geometry": {"type": "Point", "coordinates": [141.355007293903, 43.0702775782417]}, "properties": {"similar_stop_name": "北７条東１丁目", "similar_stop_id": "S0102000334"}}, {"type": "Feature", "geometry": {"type": "Point", "coordinates": [141.354034944454, 43.073844821505]}, "properties": {"similar_stop_name": "北１０条東１丁目", "similar_stop_id": "S0102000335"}}, {"type": "Feature", "geometry": {"type": "Point", "coordinates": [141.352750037218, 43.0788354927392]}, "properties": {"similar_stop_name": "北１５条東１丁目", "similar_stop_id": "S0102000336"}}, {"type": "Feature", "geometry": {"type": "Point", "coordinates": [141.351881851609, 43.0822899058474]}, "properties": {"similar_stop_name": "北１８条東１丁目", "similar_stop_id": "S0102000337"}}, {"type": "Feature", "geometry": {"type": "Point", "coordinates": [141.350701125097, 43.0868900028727]}, "properties": {"similar_stop_name": "北２１条東１丁目", "similar_stop_id": "S0102000338"}}, {"type": "Feature", "geometry": {"type": "Point", "coordinates": [141.349971829747, 43.0901100739516]}, "properties": {"similar_stop_name": "北２４条東１丁目", "similar_stop_id": "S0102000339"}}, {"type": "Feature", "geometry": {"type": "Point", "coordinates": [141.349312006758, 43.0927659797152]}, "properties": {"similar_stop_name": "北２６条東１丁目", "similar_stop_id": "S0102000340"}}, {"type": "Feature", "geometry": {"type": "Point", "coordinates": [141.347193910157, 43.0966543269153]}, "properties": {"similar_stop_name": "運輸支局前", "similar_stop_id": "S0102000341"}}, {"type": "Feature", "geometry": {"type": "Point", "coordinates": [141.344659096029, 43.1020094961276]}, "properties": {"similar_stop_name": "北３３条西２丁目", "similar_stop_id": "S0102000342"}}, {"type": "Feature", "geometry": {"type": "Point", "coordinates": [141.347193612462, 43.1015408859928]}, "properties": {"similar_stop_name": "札幌禎心会病院", "similar_stop_id": "S0102000343"}}, {"type": "Feature", "geometry": {"type": "Point", "coordinates": [141.346568521108, 43.1039884848239]}, "properties": {"similar_stop_name": "北３６条東１丁目", "similar_stop_id": "S0102000344"}}, {"type": "Feature", "geometry": {"type": "Point", "coordinates": [141.343443660895, 43.1064360018587]}, "properties": {"similar_stop_name": "麻生町１丁目", "similar_stop_id": "S0102000345"}}, {"type": "Feature", "geometry": {"type": "Point", "coordinates": [141.341152133138, 43.1076336980169]}, "properties": {"similar_stop_name": "麻生町２丁目", "similar_stop_id": "S0102000346"}}, {"type": "Feature", "geometry": {"type": "Point", "coordinates": [141.334694185466, 43.1111052871036]}, "properties": {"similar_stop_name": "新琴似駅通", "similar_stop_id": "S0102000347"}}, {"type": "Feature", "geometry": {"type": "Point", "coordinates": [141.330770811342, 43.11317087996]}, "properties": {"similar_stop_name": "新琴似８条３丁目", "similar_stop_id": "S0102000348"}}, {"type": "Feature", "geometry": {"type": "Point", "coordinates": [141.325979433949, 43.1156964579629]}, "properties": {"similar_stop_name": "新琴似８条６丁目", "similar_stop_id": "S0102000349"}}, {"type": "Feature", "geometry": {"type": "Point", "coordinates": [141.321917177501, 43.1178662002797]}, "properties": {"similar_stop_name": "新琴似８条９丁目", "similar_stop_id": "S0102000350"}}, {"type": "Feature", "geometry": {"type": "Point", "coordinates": [141.32004229171, 43.1188382430379]}, "properties": {"similar_stop_name": "新琴似８条１１丁目", "similar_stop_id": "S0102000351"}}, {"type": "Feature", "geometry": {"type": "Point", "coordinates": [141.313896824899, 43.1221536113064]}, "properties": {"similar_stop_name": "新琴似８条１３丁目", "similar_stop_id": "S0102000352"}}, {"type": "Feature", "geometry": {"type": "Point", "coordinates": [141.310147049147, 43.1241671328217]}, "properties": {"similar_stop_name": "新琴似８条１５丁目", "similar_stop_id": "S0102000353"}}, {"type": "Feature", "geometry": {"type": "Point", "coordinates": [141.307612414411, 43.1265799510937]}, "properties": {"similar_stop_name": "中央バス自動車学校前", "similar_stop_id": "S0102000354"}}, {"type": "Feature", "geometry": {"type": "Point", "coordinates": [141.303723785943, 43.1282115700371]}, "properties": {"similar_stop_name": "４番第６横線", "similar_stop_id": "S0102000355"}}, {"type": "Feature", "geometry": {"type": "Point", "coordinates": [141.296745033488, 43.1320129630607]}, "properties": {"similar_stop_name": "４番第７横線", "similar_stop_id": "S0102000356"}}, {"type": "Feature", "geometry": {"type": "Point", "coordinates": [141.291363409983, 43.1349204197499]}, "properties": {"similar_stop_name": "４番第８横線", "similar_stop_id": "S0102000357"}}, {"type": "Feature", "geometry": {"type": "Point", "coordinates": [141.289488370347, 43.138418197088]}, "properties": {"similar_stop_name": "石狩南高校前", "similar_stop_id": "S0102000358"}}, {"type": "Feature", "geometry": {"type": "Point", "coordinates": [141.282926334518, 43.1407701271487]}, "properties": {"similar_stop_name": "花川南９条３丁目", "similar_stop_id": "S0102000359"}}, {"type": "Feature", "geometry": {"type": "Point", "coordinates": [141.28535655446, 43.1425842221464]}, "properties": {"similar_stop_name": "花川南８条３丁目", "similar_stop_id": "S0102000360"}}, {"type": "Feature", "geometry": {"type": "Point", "coordinates": [141.288133947526, 43.1446760725088]}, "properties": {"similar_stop_name": "花川南７条３丁目", "similar_stop_id": "S0102000361"}}, {"type": "Feature", "geometry": {"type": "Point", "coordinates": [141.290355862386, 43.1463426092042]}, "properties": {"similar_stop_name": "花川南６条３丁目", "similar_stop_id": "S0102000362"}}, {"type": "Feature", "geometry": {"type": "Point", "coordinates": [141.292612494123, 43.1480438650408]}, "properties": {"similar_stop_name": "花川南５条３丁目", "similar_stop_id": "S0102000363"}}, {"type": "Feature", "geometry": {"type": "Point", "coordinates": [141.295042713998, 43.1498579600625]}, "properties": {"similar_stop_name": "花川南４条３丁目", "similar_stop_id": "S0102000364"}}, {"type": "Feature", "geometry": {"type": "Point", "coordinates": [141.297472932797, 43.1516894140905]}, "properties": {"similar_stop_name": "花川南３条３丁目", "similar_stop_id": "S0102000365"}}, {"type": "Feature", "geometry": {"type": "Point", "coordinates": [141.299937870587, 43.1535208692603]}, "properties": {"similar_stop_name": "花川南２条３丁目", "similar_stop_id": "S0102000366"}}, {"type": "Feature", "geometry": {"type": "Point", "coordinates": [141.30198619722, 43.1550745668012]}, "properties": {"similar_stop_name": "花川南１条３丁目", "similar_stop_id": "S0102000367"}}, {"type": "Feature", "geometry": {"type": "Point", "coordinates": [141.304242828879, 43.1567758226643]}, "properties": {"similar_stop_name": "花川北１条２丁目", "similar_stop_id": "S0102000368"}}, {"type": "Feature", "geometry": {"type": "Point", "coordinates": [141.303652458469, 43.1591887044007]}, "properties": {"similar_stop_name": "花川北２条２丁目", "similar_stop_id": "S0102000369"}}, {"type": "Feature", "geometry": {"type": "Point", "coordinates": [141.304971588399, 43.1623394061165]}, "properties": {"similar_stop_name": "花川北２条１丁目", "similar_stop_id": "S0102000370"}}, {"type": "Feature", "geometry": {"type": "Point", "coordinates": [141.307193504168, 43.163988583846]}, "properties": {"similar_stop_name": "花川北３条１丁目", "similar_stop_id": "S0102000371"}}, {"type": "Feature", "geometry": {"type": "Point", "coordinates": [141.310491672571, 43.1662366823107]}, "properties": {"similar_stop_name": "花川北４条１丁目", "similar_stop_id": "S0102000372"}}, {"type": "Feature", "geometry": {"type": "Point", "coordinates": [141.31299132711, 43.1681028566462]}, "properties": {"similar_stop_name": "花畔団地", "similar_stop_id": "S0102000373"}}, {"type": "Feature", "geometry": {"type": "Point", "coordinates": [141.312991171753, 43.1706459501728]}, "properties": {"similar_stop_name": "花川北６条１丁目", "similar_stop_id": "S0102000374"}}, {"type": "Feature", "geometry": {"type": "Point", "coordinates": [141.31476176051, 43.1719652921421]}, "properties": {"similar_stop_name": "石狩庁舎前", "similar_stop_id": "S0102000375"}}, {"type": "Feature", "geometry": {"type": "Point", "coordinates": [140.991456584585, 43.2023069570033]}, "properties": {"similar_stop_name": "稲北十字街", "similar_stop_id": "S0102000376"}}, {"type": "Feature", "geometry": {"type": "Point", "coordinates": [140.985068210915, 43.2036086741722]}, "properties": {"similar_stop_name": "長橋２丁目１", "similar_stop_id": "S0102000377"}}, {"type": "Feature", "geometry": {"type": "Point", "coordinates": [140.983852909723, 43.2058566246794]}, "properties": {"similar_stop_name": "長橋２丁目９", "similar_stop_id": "S0102000378"}}, {"type": "Feature", "geometry": {"type": "Point", "coordinates": [140.981769672715, 43.2074622641334]}, "properties": {"similar_stop_name": "長橋２丁目１７", "similar_stop_id": "S0102000379"}}, {"type": "Feature", "geometry": {"type": "Point", "coordinates": [140.983158286432, 43.2098665301796]}, "properties": {"similar_stop_name": "興聖寺前", "similar_stop_id": "S0102000380"}}, {"type": "Feature", "geometry": {"type": "Point", "coordinates": [140.985241346901, 43.2111685225476]}, "properties": {"similar_stop_name": "桜陽高校下", "similar_stop_id": "S0102000381"}}, {"type": "Feature", "geometry": {"type": "Point", "coordinates": [140.986977176853, 43.2131388249798]}, "properties": {"similar_stop_name": "清水町", "similar_stop_id": "S0102000382"}}, {"type": "Feature", "geometry": {"type": "Point", "coordinates": [140.986699295237, 43.2152739724407]}, "properties": {"similar_stop_name": "清水町中央", "similar_stop_id": "S0102000383"}}, {"type": "Feature", "geometry": {"type": "Point", "coordinates": [140.986872767355, 43.2172963010894]}, "properties": {"similar_stop_name": "中野植物園", "similar_stop_id": "S0102000384"}}, {"type": "Feature", "geometry": {"type": "Point", "coordinates": [140.988712869177, 43.2173744763651]}, "properties": {"similar_stop_name": "北手宮", "similar_stop_id": "S0102000385"}}, {"type": "Feature", "geometry": {"type": "Point", "coordinates": [141.006664501972, 43.185859802016]}, "properties": {"similar_stop_name": "双葉高校前", "similar_stop_id": "S0102000387"}}, {"type": "Feature", "geometry": {"type": "Point", "coordinates": [141.003921605585, 43.18743938159]}, "properties": {"similar_stop_name": "量徳寺前", "similar_stop_id": "S0102000388"}}, {"type": "Feature", "geometry": {"type": "Point", "coordinates": [141.005553308767, 43.1889149493174]}, "properties": {"similar_stop_name": "南小樽駅下", "similar_stop_id": "S0102000389"}}, {"type": "Feature", "geometry": {"type": "Point", "coordinates": [141.007775450274, 43.1868406214248]}, "properties": {"similar_stop_name": "南小樽駅前", "similar_stop_id": "S0102000390"}}, {"type": "Feature", "geometry": {"type": "Point", "coordinates": [141.006873020262, 43.1824921634302]}, "properties": {"similar_stop_name": "奥沢十字街", "similar_stop_id": "S0102000391"}}, {"type": "Feature", "geometry": {"type": "Point", "coordinates": [141.00336660821, 43.1790896861507]}, "properties": {"similar_stop_name": "奥沢１丁目", "similar_stop_id": "S0102000392"}}, {"type": "Feature", "geometry": {"type": "Point", "coordinates": [141.000554536516, 43.1763381938142]}, "properties": {"similar_stop_name": "第一ゴム前", "similar_stop_id": "S0102000393"}}, {"type": "Feature", "geometry": {"type": "Point", "coordinates": [140.998054899427, 43.174185597022]}, "properties": {"similar_stop_name": "保育園前［小樽市］", "similar_stop_id": "S0102000394"}}, {"type": "Feature", "geometry": {"type": "Point", "coordinates": [140.995624711878, 43.1718420535255]}, "properties": {"similar_stop_name": "三馬本社前", "similar_stop_id": "S0102000395"}}, {"type": "Feature", "geometry": {"type": "Point", "coordinates": [140.993437547795, 43.169654748897]}, "properties": {"similar_stop_name": "天満宮下", "similar_stop_id": "S0102000396"}}, {"type": "Feature", "geometry": {"type": "Point", "coordinates": [140.9910073928, 43.1667730765065]}, "properties": {"similar_stop_name": "三馬天神工場", "similar_stop_id": "S0102000397"}}, {"type": "Feature", "geometry": {"type": "Point", "coordinates": [140.989722855211, 43.1656967769928]}, "properties": {"similar_stop_name": "向陽ヶ坂通", "similar_stop_id": "S0102000398"}}, {"type": "Feature", "geometry": {"type": "Point", "coordinates": [140.987223219583, 43.1635181417288]}, "properties": {"similar_stop_name": "宏栄社前", "similar_stop_id": "S0102000399"}}, {"type": "Feature", "geometry": {"type": "Point", "coordinates": [140.985626249403, 43.1618082286888]}, "properties": {"similar_stop_name": "天神町", "similar_stop_id": "S0102000400"}}, {"type": "Feature", "geometry": {"type": "Point", "coordinates": [141.291988023566, 43.1403104098806]}, "properties": {"similar_stop_name": "花川南７条５丁目", "similar_stop_id": "S0102000401"}}, {"type": "Feature", "geometry": {"type": "Point", "coordinates": [141.294765418243, 43.1423762217675]}, "properties": {"similar_stop_name": "花川南６条５丁目", "similar_stop_id": "S0102000402"}}, {"type": "Feature", "geometry": {"type": "Point", "coordinates": [141.297334505734, 43.1443291933462]}, "properties": {"similar_stop_name": "花川南５条５丁目", "similar_stop_id": "S0102000403"}}, {"type": "Feature", "geometry": {"type": "Point", "coordinates": [141.299764728291, 43.1460998908839]}, "properties": {"similar_stop_name": "花川南４条５丁目", "similar_stop_id": "S0102000404"}}, {"type": "Feature", "geometry": {"type": "Point", "coordinates": [141.303236468647, 43.1487298930227]}, "properties": {"similar_stop_name": "花川南３条５丁目", "similar_stop_id": "S0102000405"}}, {"type": "Feature", "geometry": {"type": "Point", "coordinates": [141.30584027614, 43.1506655067587]}, "properties": {"similar_stop_name": "花川南１条５丁目", "similar_stop_id": "S0102000406"}}, {"type": "Feature", "geometry": {"type": "Point", "coordinates": [141.308825973102, 43.1529222745057]}, "properties": {"similar_stop_name": "花川北１条５丁目", "similar_stop_id": "S0102000407"}}, {"type": "Feature", "geometry": {"type": "Point", "coordinates": [141.311221478164, 43.1546669324352]}, "properties": {"similar_stop_name": "花川北２条５丁目", "similar_stop_id": "S0102000408"}}, {"type": "Feature", "geometry": {"type": "Point", "coordinates": [141.312297607923, 43.1572794972215]}, "properties": {"similar_stop_name": "花川北３条４丁目", "similar_stop_id": "S0102000409"}}, {"type": "Feature", "geometry": {"type": "Point", "coordinates": [141.313443095109, 43.1612113483045]}, "properties": {"similar_stop_name": "花川北中学校前", "similar_stop_id": "S0102000410"}}, {"type": "Feature", "geometry": {"type": "Point", "coordinates": [141.316046900888, 43.1631730005642]}, "properties": {"similar_stop_name": "花川北４条４丁目", "similar_stop_id": "S0102000411"}}, {"type": "Feature", "geometry": {"type": "Point", "coordinates": [141.316810583341, 43.1653949776058]}, "properties": {"similar_stop_name": "花川北５条２丁目", "similar_stop_id": "S0102000412"}}, {"type": "Feature", "geometry": {"type": "Point", "coordinates": [140.981144707146, 43.2078528212404]}, "properties": {"similar_stop_name": "長橋十字街", "similar_stop_id": "S0102000413"}}, {"type": "Feature", "geometry": {"type": "Point", "coordinates": [140.978124077389, 43.2091286093191]}, "properties": {"similar_stop_name": "苗圃通", "similar_stop_id": "S0102000414"}}, {"type": "Feature", "geometry": {"type": "Point", "coordinates": [140.974200824467, 43.2092413153612]}, "properties": {"similar_stop_name": "長橋小学校", "similar_stop_id": "S0102000415"}}, {"type": "Feature", "geometry": {"type": "Point", "coordinates": [140.970659457816, 43.2097272522269]}, "properties": {"similar_stop_name": "長橋４丁目", "similar_stop_id": "S0102000416"}}, {"type": "Feature", "geometry": {"type": "Point", "coordinates": [140.967118041139, 43.211037741396]}, "properties": {"similar_stop_name": "開発局前［小樽市］", "similar_stop_id": "S0102000417"}}, {"type": "Feature", "geometry": {"type": "Point", "coordinates": [140.963750228923, 43.212192005244]}, "properties": {"similar_stop_name": "長橋中学校", "similar_stop_id": "S0102000418"}}, {"type": "Feature", "geometry": {"type": "Point", "coordinates": [140.960868450992, 43.2138670547449]}, "properties": {"similar_stop_name": "おたもい入口", "similar_stop_id": "S0102000419"}}, {"type": "Feature", "geometry": {"type": "Point", "coordinates": [140.954688190374, 43.2184843468768]}, "properties": {"similar_stop_name": "おたもい１丁目", "similar_stop_id": "S0102000421"}}, {"type": "Feature", "geometry": {"type": "Point", "coordinates": [140.948959474259, 43.2198468420197]}, "properties": {"similar_stop_name": "中央自動車学校前", "similar_stop_id": "S0102000422"}}, {"type": "Feature", "geometry": {"type": "Point", "coordinates": [140.944897484628, 43.2176681562403]}, "properties": {"similar_stop_name": "新道踏切", "similar_stop_id": "S0102000423"}}, {"type": "Feature", "geometry": {"type": "Point", "coordinates": [140.942015915887, 43.2158974451821]}, "properties": {"similar_stop_name": "マイラシーク塩谷", "similar_stop_id": "S0102000424"}}, {"type": "Feature", "geometry": {"type": "Point", "coordinates": [140.938439998918, 43.2136059417382]}, "properties": {"similar_stop_name": "塩谷１丁目", "similar_stop_id": "S0102000425"}}, {"type": "Feature", "geometry": {"type": "Point", "coordinates": [140.935975049071, 43.21198279568]}, "properties": {"similar_stop_name": "塩谷団地", "similar_stop_id": "S0102000426"}}, {"type": "Feature", "geometry": {"type": "Point", "coordinates": [140.932468534774, 43.2102728208562]}, "properties": {"similar_stop_name": "寅吉沢", "similar_stop_id": "S0102000427"}}, {"type": "Feature", "geometry": {"type": "Point", "coordinates": [140.926983034351, 43.2086235383288]}, "properties": {"similar_stop_name": "塩谷小学校下", "similar_stop_id": "S0102000428"}}, {"type": "Feature", "geometry": {"type": "Point", "coordinates": [140.923580573875, 43.208614748458]}, "properties": {"similar_stop_name": "塩谷", "similar_stop_id": "S0102000429"}}, {"type": "Feature", "geometry": {"type": "Point", "coordinates": [140.921636181537, 43.2107411623089]}, "properties": {"similar_stop_name": "塩谷本通", "similar_stop_id": "S0102000430"}}, {"type": "Feature", "geometry": {"type": "Point", "coordinates": [140.920733325204, 43.2134230977835]}, "properties": {"similar_stop_name": "塩谷海岸", "similar_stop_id": "S0102000431"}}, {"type": "Feature", "geometry": {"type": "Point", "coordinates": [140.914379930107, 43.2104545035352]}, "properties": {"similar_stop_name": "塩谷文庫歌", "similar_stop_id": "S0102000432"}}, {"type": "Feature", "geometry": {"type": "Point", "coordinates": [140.894902682484, 43.2087179725145]}, "properties": {"similar_stop_name": "桃内", "similar_stop_id": "S0102000433"}}, {"type": "Feature", "geometry": {"type": "Point", "coordinates": [140.871710748831, 43.2029279961981]}, "properties": {"similar_stop_name": "忍路", "similar_stop_id": "S0102000434"}}, {"type": "Feature", "geometry": {"type": "Point", "coordinates": [140.866746103206, 43.2001243577191]}, "properties": {"similar_stop_name": "忍路中央小学校", "similar_stop_id": "S0102000435"}}, {"type": "Feature", "geometry": {"type": "Point", "coordinates": [140.858448360678, 43.1985444204818]}, "properties": {"similar_stop_name": "蘭島神社通", "similar_stop_id": "S0102000436"}}, {"type": "Feature", "geometry": {"type": "Point", "coordinates": [140.855601444112, 43.1978760070041]}, "properties": {"similar_stop_name": "蘭島", "similar_stop_id": "S0102000437"}}, {"type": "Feature", "geometry": {"type": "Point", "coordinates": [140.852233756382, 43.196981909743]}, "properties": {"similar_stop_name": "あけぼの通", "similar_stop_id": "S0102000438"}}, {"type": "Feature", "geometry": {"type": "Point", "coordinates": [140.84737307504, 43.1973636502838]}, "properties": {"similar_stop_name": "蘭島西", "similar_stop_id": "S0102000439"}}, {"type": "Feature", "geometry": {"type": "Point", "coordinates": [140.843484545314, 43.1974156014061]}, "properties": {"similar_stop_name": "栄町［余市町］", "similar_stop_id": "S0102000440"}}, {"type": "Feature", "geometry": {"type": "Point", "coordinates": [140.838901749731, 43.1955840791472]}, "properties": {"similar_stop_name": "フゴッペ洞窟前", "similar_stop_id": "S0102000441"}}, {"type": "Feature", "geometry": {"type": "Point", "coordinates": [140.829180546165, 43.193717672673]}, "properties": {"similar_stop_name": "東大浜中", "similar_stop_id": "S0102000442"}}, {"type": "Feature", "geometry": {"type": "Point", "coordinates": [140.819841237335, 43.192085625072]}, "properties": {"similar_stop_name": "大浜中", "similar_stop_id": "S0102000443"}}, {"type": "Feature", "geometry": {"type": "Point", "coordinates": [140.81154340168, 43.1920506387298]}, "properties": {"similar_stop_name": "旭中学校", "similar_stop_id": "S0102000444"}}, {"type": "Feature", "geometry": {"type": "Point", "coordinates": [140.806856332783, 43.1921459616439]}, "properties": {"similar_stop_name": "大川１２丁目", "similar_stop_id": "S0102000445"}}, {"type": "Feature", "geometry": {"type": "Point", "coordinates": [140.803141394992, 43.1922499955011]}, "properties": {"similar_stop_name": "大川小学校", "similar_stop_id": "S0102000446"}}, {"type": "Feature", "geometry": {"type": "Point", "coordinates": [140.798037697265, 43.1923626639726]}, "properties": {"similar_stop_name": "大川６丁目", "similar_stop_id": "S0102000447"}}, {"type": "Feature", "geometry": {"type": "Point", "coordinates": [140.794982421288, 43.1924493601835]}, "properties": {"similar_stop_name": "大川十字街", "similar_stop_id": "S0102000448"}}, {"type": "Feature", "geometry": {"type": "Point", "coordinates": [140.792482968167, 43.1872502605835]}, "properties": {"similar_stop_name": "余市駅前十字街", "similar_stop_id": "S0102000449"}}, {"type": "Feature", "geometry": {"type": "Point", "coordinates": [140.7897747757, 43.1890989059626]}, "properties": {"similar_stop_name": "余市宇宙記念館前", "similar_stop_id": "S0102000450"}}, {"type": "Feature", "geometry": {"type": "Point", "coordinates": [140.785052679346, 43.1943064516405]}, "properties": {"similar_stop_name": "余市役場前", "similar_stop_id": "S0102000451"}}, {"type": "Feature", "geometry": {"type": "Point", "coordinates": [140.780365284699, 43.1998004217968]}, "properties": {"similar_stop_name": "浜中町", "similar_stop_id": "S0102000452"}}, {"type": "Feature", "geometry": {"type": "Point", "coordinates": [140.771893636614, 43.2033761008001]}, "properties": {"similar_stop_name": "水産試験場", "similar_stop_id": "S0102000453"}}, {"type": "Feature", "geometry": {"type": "Point", "coordinates": [140.771338022818, 43.2051987772004]}, "properties": {"similar_stop_name": "富沢６丁目", "similar_stop_id": "S0102000454"}}, {"type": "Feature", "geometry": {"type": "Point", "coordinates": [140.771268473219, 43.2070475077924]}, "properties": {"similar_stop_name": "富沢８丁目", "similar_stop_id": "S0102000455"}}, {"type": "Feature", "geometry": {"type": "Point", "coordinates": [140.768004835808, 43.207924031523]}, "properties": {"similar_stop_name": "余市富沢町", "similar_stop_id": "S0102000456"}}, {"type": "Feature", "geometry": {"type": "Point", "coordinates": [140.7620677738, 43.2098420085042]}, "properties": {"similar_stop_name": "余市梅川車庫前", "similar_stop_id": "S0102000457"}}, {"type": "Feature", "geometry": {"type": "Point", "coordinates": [141.367957386387, 43.0719184276091]}, "properties": {"similar_stop_name": "サッポロビール園", "similar_stop_id": "S0102000458"}}, {"type": "Feature", "geometry": {"type": "Point", "coordinates": [140.992568099133, 43.193957315916]}, "properties": {"similar_stop_name": "富岡１丁目", "similar_stop_id": "S0102000459"}}, {"type": "Feature", "geometry": {"type": "Point", "coordinates": [140.980798503182, 43.1916047896429]}, "properties": {"similar_stop_name": "小樽商大前", "similar_stop_id": "S0102000461"}}, {"type": "Feature", "geometry": {"type": "Point", "coordinates": [141.634023740437, 42.8337094902348]}, "properties": {"similar_stop_name": "マミーズこどもクリニック", "similar_stop_id": "S0102000462"}}, {"type": "Feature", "geometry": {"type": "Point", "coordinates": [141.631523913023, 42.8346467948649]}, "properties": {"similar_stop_name": "信濃２丁目", "similar_stop_id": "S0102000463"}}, {"type": "Feature", "geometry": {"type": "Point", "coordinates": [141.036210883996, 43.1773374948259]}, "properties": {"similar_stop_name": "桜町入口", "similar_stop_id": "S0102000464"}}, {"type": "Feature", "geometry": {"type": "Point", "coordinates": [141.035134775803, 43.1743603918255]}, "properties": {"similar_stop_name": "弥生通", "similar_stop_id": "S0102000465"}}, {"type": "Feature", "geometry": {"type": "Point", "coordinates": [141.033329570762, 43.1713485471249]}, "properties": {"similar_stop_name": "桜町［小樽市］", "similar_stop_id": "S0102000466"}}, {"type": "Feature", "geometry": {"type": "Point", "coordinates": [141.345804515608, 43.1070610031695]}, "properties": {"similar_stop_name": "北３９条東１丁目", "similar_stop_id": "S0102000467"}}, {"type": "Feature", "geometry": {"type": "Point", "coordinates": [141.345109968212, 43.1098037027391]}, "properties": {"similar_stop_name": "北４２条東１丁目", "similar_stop_id": "S0102000468"}}, {"type": "Feature", "geometry": {"type": "Point", "coordinates": [141.34382505686, 43.1148551302109]}, "properties": {"similar_stop_name": "下水道科学館前", "similar_stop_id": "S0102000469"}}, {"type": "Feature", "geometry": {"type": "Point", "coordinates": [141.343685906157, 43.1193597865887]}, "properties": {"similar_stop_name": "北営業所", "similar_stop_id": "S0102000470"}}, {"type": "Feature", "geometry": {"type": "Point", "coordinates": [141.34517843507, 43.1257305890051]}, "properties": {"similar_stop_name": "屯田団地橋", "similar_stop_id": "S0102000471"}}, {"type": "Feature", "geometry": {"type": "Point", "coordinates": [141.342157830315, 43.1265637222142]}, "properties": {"similar_stop_name": "屯田４条１丁目", "similar_stop_id": "S0102000472"}}, {"type": "Feature", "geometry": {"type": "Point", "coordinates": [141.33674162286, 43.1272492255185]}, "properties": {"similar_stop_name": "屯田４条３丁目", "similar_stop_id": "S0102000473"}}, {"type": "Feature", "geometry": {"type": "Point", "coordinates": [141.332679467959, 43.1277525036333]}, "properties": {"similar_stop_name": "屯田４条５丁目", "similar_stop_id": "S0102000474"}}, {"type": "Feature", "geometry": {"type": "Point", "coordinates": [140.962361544605, 43.2109507919611]}, "properties": {"similar_stop_name": "長橋５丁目", "similar_stop_id": "S0102000475"}}, {"type": "Feature", "geometry": {"type": "Point", "coordinates": [140.79418424038, 43.1865559557892]}, "properties": {"similar_stop_name": "余市駅前", "similar_stop_id": "S0102000476"}}, {"type": "Feature", "geometry": {"type": "Point", "coordinates": [140.758075071331, 43.2101630208997]}, "properties": {"similar_stop_name": "梅川町", "similar_stop_id": "S0102000477"}}, {"type": "Feature", "geometry": {"type": "Point", "coordinates": [140.741444136269, 43.2191457628038]}, "properties": {"similar_stop_name": "梅川霊園前", "similar_stop_id": "S0102000478"}}, {"type": "Feature", "geometry": {"type": "Point", "coordinates": [140.735818865528, 43.2323210568403]}, "properties": {"similar_stop_name": "白岩町", "similar_stop_id": "S0102000479"}}, {"type": "Feature", "geometry": {"type": "Point", "coordinates": [140.726617771911, 43.2416512182529]}, "properties": {"similar_stop_name": "潮見町", "similar_stop_id": "S0102000480"}}, {"type": "Feature", "geometry": {"type": "Point", "coordinates": [140.710230088808, 43.2470232972226]}, "properties": {"similar_stop_name": "豊浜町", "similar_stop_id": "S0102000481"}}, {"type": "Feature", "geometry": {"type": "Point", "coordinates": [140.681100393892, 43.2548339034247]}, "properties": {"similar_stop_name": "沖町", "similar_stop_id": "S0102000482"}}, {"type": "Feature", "geometry": {"type": "Point", "coordinates": [140.654644208867, 43.260205657901]}, "properties": {"similar_stop_name": "古平家族旅行村", "similar_stop_id": "S0102000483"}}, {"type": "Feature", "geometry": {"type": "Point", "coordinates": [140.648915515413, 43.2612383331552]}, "properties": {"similar_stop_name": "沢江", "similar_stop_id": "S0102000484"}}, {"type": "Feature", "geometry": {"type": "Point", "coordinates": [140.642457638116, 43.2636857427059]}, "properties": {"similar_stop_name": "古平浜町", "similar_stop_id": "S0102000485"}}, {"type": "Feature", "geometry": {"type": "Point", "coordinates": [140.639610587272, 43.2652566396197]}, "properties": {"similar_stop_name": "古平役場前", "similar_stop_id": "S0102000486"}}, {"type": "Feature", "geometry": {"type": "Point", "coordinates": [140.635304897197, 43.2741529837199]}, "properties": {"similar_stop_name": "港町［古平町］", "similar_stop_id": "S0102000487"}}, {"type": "Feature", "geometry": {"type": "Point", "coordinates": [140.638221067788, 43.2778505428147]}, "properties": {"similar_stop_name": "古平新地町", "similar_stop_id": "S0102000488"}}, {"type": "Feature", "geometry": {"type": "Point", "coordinates": [140.637595973671, 43.2803762558284]}, "properties": {"similar_stop_name": "古平丸山町", "similar_stop_id": "S0102000489"}}, {"type": "Feature", "geometry": {"type": "Point", "coordinates": [140.631866691558, 43.2911560042896]}, "properties": {"similar_stop_name": "群来町", "similar_stop_id": "S0102000490"}}, {"type": "Feature", "geometry": {"type": "Point", "coordinates": [140.623915842007, 43.2945407510431]}, "properties": {"similar_stop_name": "厚苫", "similar_stop_id": "S0102000491"}}, {"type": "Feature", "geometry": {"type": "Point", "coordinates": [140.612493255232, 43.2952781398685]}, "properties": {"similar_stop_name": "美国小泊", "similar_stop_id": "S0102000492"}}, {"type": "Feature", "geometry": {"type": "Point", "coordinates": [140.602424743158, 43.2954427257531]}, "properties": {"similar_stop_name": "美国橋", "similar_stop_id": "S0102000493"}}, {"type": "Feature", "geometry": {"type": "Point", "coordinates": [140.598848567888, 43.2974475738637]}, "properties": {"similar_stop_name": "美国船澗", "similar_stop_id": "S0102000494"}}, {"type": "Feature", "geometry": {"type": "Point", "coordinates": [140.597737509395, 43.2982981285722]}, "properties": {"similar_stop_name": "美国", "similar_stop_id": "S0102000495"}}, {"type": "Feature", "geometry": {"type": "Point", "coordinates": [141.657841714453, 42.8219148231974]}, "properties": {"similar_stop_name": "朝日町７丁目", "similar_stop_id": "S0102000496"}}, {"type": "Feature", "geometry": {"type": "Point", "coordinates": [141.662077380469, 42.8228523487364]}, "properties": {"similar_stop_name": "青葉ヶ丘南", "similar_stop_id": "S0102000497"}}, {"type": "Feature", "geometry": {"type": "Point", "coordinates": [141.665757514016, 42.8242498698718]}, "properties": {"similar_stop_name": "青葉ヶ丘", "similar_stop_id": "S0102000498"}}, {"type": "Feature", "geometry": {"type": "Point", "coordinates": [141.668639125948, 42.8253783001472]}, "properties": {"similar_stop_name": "日の出５丁目", "similar_stop_id": "S0102000499"}}, {"type": "Feature", "geometry": {"type": "Point", "coordinates": [141.671173554844, 42.8263852059606]}, "properties": {"similar_stop_name": "千歳脳神経外科前", "similar_stop_id": "S0102000500"}}, {"type": "Feature", "geometry": {"type": "Point", "coordinates": [141.67395101438, 42.827435517284]}, "properties": {"similar_stop_name": "日の出３丁目［千歳市］", "similar_stop_id": "S0102000501"}}, {"type": "Feature", "geometry": {"type": "Point", "coordinates": [141.677943631354, 42.8286334200902]}, "properties": {"similar_stop_name": "梅ヶ丘１丁目", "similar_stop_id": "S0102000502"}}, {"type": "Feature", "geometry": {"type": "Point", "coordinates": [141.67978367104, 42.8297791752311]}, "properties": {"similar_stop_name": "弥生１丁目", "similar_stop_id": "S0102000503"}}, {"type": "Feature", "geometry": {"type": "Point", "coordinates": [141.678672493524, 42.8325565805852]}, "properties": {"similar_stop_name": "祝梅小学校前", "similar_stop_id": "S0102000504"}}, {"type": "Feature", "geometry": {"type": "Point", "coordinates": [141.681449890969, 42.8346310736002]}, "properties": {"similar_stop_name": "弥生３丁目", "similar_stop_id": "S0102000505"}}, {"type": "Feature", "geometry": {"type": "Point", "coordinates": [141.6823527222, 42.8323831112618]}, "properties": {"similar_stop_name": "寿３丁目", "similar_stop_id": "S0102000506"}}, {"type": "Feature", "geometry": {"type": "Point", "coordinates": [141.683359727894, 42.8298487286453]}, "properties": {"similar_stop_name": "温水プール前", "similar_stop_id": "S0102000507"}}, {"type": "Feature", "geometry": {"type": "Point", "coordinates": [141.686553839566, 42.8305084759234]}, "properties": {"similar_stop_name": "寿１丁目", "similar_stop_id": "S0102000508"}}, {"type": "Feature", "geometry": {"type": "Point", "coordinates": [141.695407023215, 42.8333382854429]}, "properties": {"similar_stop_name": "水道前", "similar_stop_id": "S0102000509"}}, {"type": "Feature", "geometry": {"type": "Point", "coordinates": [141.698323354164, 42.8344667169505]}, "properties": {"similar_stop_name": "東千歳駐屯地", "similar_stop_id": "S0102000510"}}, {"type": "Feature", "geometry": {"type": "Point", "coordinates": [141.680964148348, 42.8292844821478]}, "properties": {"similar_stop_name": "北洋銀行祝梅支店前", "similar_stop_id": "S0102000511"}}, {"type": "Feature", "geometry": {"type": "Point", "coordinates": [141.562250661203, 42.9793492206547]}, "properties": {"similar_stop_name": "北広島駅", "similar_stop_id": "S0102000512"}}, {"type": "Feature", "geometry": {"type": "Point", "coordinates": [141.55947289232, 42.9834024576044]}, "properties": {"similar_stop_name": "北進通入口", "similar_stop_id": "S0102000513"}}, {"type": "Feature", "geometry": {"type": "Point", "coordinates": [141.768259511323, 43.2049362899224]}, "properties": {"similar_stop_name": "３条東３丁目［岩見沢市］", "similar_stop_id": "S0102000514"}}, {"type": "Feature", "geometry": {"type": "Point", "coordinates": [141.763016718031, 43.2085033916482]}, "properties": {"similar_stop_name": "元町［岩見沢市］", "similar_stop_id": "S0102000515"}}, {"type": "Feature", "geometry": {"type": "Point", "coordinates": [141.760655736368, 43.209926751795]}, "properties": {"similar_stop_name": "北本町", "similar_stop_id": "S0102000516"}}, {"type": "Feature", "geometry": {"type": "Point", "coordinates": [141.758503015667, 43.2122093895339]}, "properties": {"similar_stop_name": "桜木１条１丁目［岩見沢市］", "similar_stop_id": "S0102000517"}}, {"type": "Feature", "geometry": {"type": "Point", "coordinates": [141.754301740476, 43.2166271169023]}, "properties": {"similar_stop_name": "みずほ公園", "similar_stop_id": "S0102000518"}}, {"type": "Feature", "geometry": {"type": "Point", "coordinates": [141.751767085825, 43.2193089990546]}, "properties": {"similar_stop_name": "岩見沢土地改良区", "similar_stop_id": "S0102000519"}}, {"type": "Feature", "geometry": {"type": "Point", "coordinates": [141.747774137146, 43.2235271047275]}, "properties": {"similar_stop_name": "西川向", "similar_stop_id": "S0102000520"}}, {"type": "Feature", "geometry": {"type": "Point", "coordinates": [141.743850636735, 43.2275803021373]}, "properties": {"similar_stop_name": "六分水", "similar_stop_id": "S0102000521"}}, {"type": "Feature", "geometry": {"type": "Point", "coordinates": [141.735378639823, 43.2365546263411]}, "properties": {"similar_stop_name": "三谷農場", "similar_stop_id": "S0102000522"}}, {"type": "Feature", "geometry": {"type": "Point", "coordinates": [141.732288444326, 43.2398266961153]}, "properties": {"similar_stop_name": "新稔町", "similar_stop_id": "S0102000523"}}, {"type": "Feature", "geometry": {"type": "Point", "coordinates": [141.725309777219, 43.2421525714635]}, "properties": {"similar_stop_name": "村界［岩見沢市］", "similar_stop_id": "S0102000524"}}, {"type": "Feature", "geometry": {"type": "Point", "coordinates": [141.713678752477, 43.244625844349]}, "properties": {"similar_stop_name": "開拓入口", "similar_stop_id": "S0102000525"}}, {"type": "Feature", "geometry": {"type": "Point", "coordinates": [141.705901180994, 43.2528797926955]}, "properties": {"similar_stop_name": "赤川", "similar_stop_id": "S0102000526"}}, {"type": "Feature", "geometry": {"type": "Point", "coordinates": [141.702498492443, 43.2565077115949]}, "properties": {"similar_stop_name": "千間通入口", "similar_stop_id": "S0102000527"}}, {"type": "Feature", "geometry": {"type": "Point", "coordinates": [141.698540265736, 43.2606824206586]}, "properties": {"similar_stop_name": "北村温泉", "similar_stop_id": "S0102000528"}}, {"type": "Feature", "geometry": {"type": "Point", "coordinates": [141.696908367571, 43.262366189869]}, "properties": {"similar_stop_name": "北村支所前", "similar_stop_id": "S0102000529"}}, {"type": "Feature", "geometry": {"type": "Point", "coordinates": [141.68857525534, 43.271210325653]}, "properties": {"similar_stop_name": "豊里［岩見沢市］", "similar_stop_id": "S0102000531"}}, {"type": "Feature", "geometry": {"type": "Point", "coordinates": [141.683297610824, 43.27692126261]}, "properties": {"similar_stop_name": "北都入口", "similar_stop_id": "S0102000532"}}, {"type": "Feature", "geometry": {"type": "Point", "coordinates": [141.67843662519, 43.2821374817549]}, "properties": {"similar_stop_name": "牧場入口", "similar_stop_id": "S0102000533"}}, {"type": "Feature", "geometry": {"type": "Point", "coordinates": [141.676839308833, 43.2860345247484]}, "properties": {"similar_stop_name": "雁里沼入口", "similar_stop_id": "S0102000534"}}, {"type": "Feature", "geometry": {"type": "Point", "coordinates": [141.679408328664, 43.2890550760392]}, "properties": {"similar_stop_name": "開北橋", "similar_stop_id": "S0102000535"}}, {"type": "Feature", "geometry": {"type": "Point", "coordinates": [141.681144025313, 43.2931518578375]}, "properties": {"similar_stop_name": "１０号線［岩見沢市］", "similar_stop_id": "S0102000536"}}, {"type": "Feature", "geometry": {"type": "Point", "coordinates": [141.685414068873, 43.2995227527109]}, "properties": {"similar_stop_name": "９号線［岩見沢市］", "similar_stop_id": "S0102000537"}}, {"type": "Feature", "geometry": {"type": "Point", "coordinates": [141.688573221779, 43.3039928001553]}, "properties": {"similar_stop_name": "基線中央［岩見沢市］", "similar_stop_id": "S0102000538"}}, {"type": "Feature", "geometry": {"type": "Point", "coordinates": [141.693572320119, 43.3110754382228]}, "properties": {"similar_stop_name": "豊正公民館", "similar_stop_id": "S0102000539"}}, {"type": "Feature", "geometry": {"type": "Point", "coordinates": [141.695169256777, 43.3132974432698]}, "properties": {"similar_stop_name": "東豊線", "similar_stop_id": "S0102000540"}}, {"type": "Feature", "geometry": {"type": "Point", "coordinates": [141.697807671632, 43.3170036774153]}, "properties": {"similar_stop_name": "３号線［岩見沢市］", "similar_stop_id": "S0102000541"}}, {"type": "Feature", "geometry": {"type": "Point", "coordinates": [141.700341937469, 43.3205797156027]}, "properties": {"similar_stop_name": "２号線［岩見沢市］", "similar_stop_id": "S0102000542"}}, {"type": "Feature", "geometry": {"type": "Point", "coordinates": [141.704889722066, 43.3271155301859]}, "properties": {"similar_stop_name": "大富", "similar_stop_id": "S0102000543"}}, {"type": "Feature", "geometry": {"type": "Point", "coordinates": [141.703431452214, 43.3282611759167]}, "properties": {"similar_stop_name": "分岐点［岩見沢市］", "similar_stop_id": "S0102000544"}},