stop_id,stop_name,similar_stop_id,similar_stop_name
S0107000001,wO,S0107000001,wO
S010700000100000,wO,S0107000001,wO
S010700000100001,wO,S0107000001,wO
S0107000002,Q΋,S0107000002,Q΋
S010700000200000,Q΋,S0107000002,Q΋
S0107000003,T΋,S0107000003,T΋
S010700000300000,T΋,S0107000003,T΋
S0107000004,sOmsn,S0107000004,sOmsn
S010700000400000,sOmsn,S0107000004,sOmsn
S010700000400001,sOmsn,S0107000004,sOmsn
S0107000005,֌O,S0107000005,֌O
S010700000500000,֌O,S0107000005,֌O
S010700000500001,֌O,S0107000005,֌O
S0107000006,{,S0107000006,{
S010700000600000,{,S0107000006,{
S010700000600001,{,S0107000006,{
S0107000007,咬PR,S0107000007,咬PR
S010700000700000,咬PR,S0107000007,咬PR
S010700000700001,咬PR,S0107000007,咬PR
S0107000008,썑_БO,S0107000008,썑_БO
S010700000800000,썑_БO,S0107000008,썑_БO
S010700000800001,썑_БO,S0107000008,썑_БO
S0107000009,kO,S0107000009,kO
S010700000900000,kO,S0107000009,kO
S010700000900001,kO,S0107000009,kO
S0107000010,ԍ璬S,S0107000010,ԍ璬S
S010700001000000,ԍ璬S,S0107000010,ԍ璬S
S010700001000001,ԍ璬S,S0107000010,ԍ璬S
S0107000011,ԍ璬U,S0107000011,ԍ璬U
S010700001100000,ԍ璬U,S0107000011,ԍ璬U
S010700001100001,ԍ璬U,S0107000011,ԍ璬U
S0107000012,ԍ璬V,S0107000012,ԍ璬V
S010700001200000,ԍ璬V,S0107000012,ԍ璬V
S010700001200001,ԍ璬V,S0107000012,ԍ璬V
S0107000013,LPQ,S0107000013,LPQ
S010700001300000,LPQ,S0107000013,LPQ
S010700001300001,LPQ,S0107000013,LPQ
S0107000014,LPR,S0107000014,LPR
S010700001400000,LPR,S0107000014,LPR
S010700001400001,LPR,S0107000014,LPR
S0107000015,LPT,S0107000015,LPT
S010700001500000,LPT,S0107000015,LPT
S0107000016,LPV,S0107000016,LPV
S010700001600000,LPV,S0107000016,LPV
S0107000017,LQV,S0107000017,LQV
S010700001700000,LQV,S0107000017,LQV
S0107000018,LQW,S0107000018,LQW
S010700001800000,LQW,S0107000018,LQW
S0107000019,LQPO,S0107000019,LQPO
S010700001900000,LQPO,S0107000019,LQPO
S0107000020,LPPO,S0107000020,LPPO
S010700002000000,LPPO,S0107000020,LPPO
S0107000021,LQPO,S0107000021,LQPO
S010700002100000,LQPO,S0107000021,LQPO
S0107000022,LRPO,S0107000022,LRPO
S010700002200000,LRPO,S0107000022,LRPO
S0107000023,LRPOڒ,S0107000023,LRPOڒ
S010700002300000,LRPOڒ,S0107000023,LRPOڒ
S0107000024,LSPO,S0107000024,LSPO
S010700002400000,LSPO,S0107000024,LSPO
S0107000025,LSPP,S0107000025,LSPP
S010700002500000,LSPP,S0107000025,LSPP
S0107000026,LUPP,S0107000026,LUPP
S010700002600000,LUPP,S0107000026,LUPP
S0107000027,LUPO,S0107000027,LUPO
S010700002700000,LUPO,S0107000027,LUPO
S0107000028,LUW,S0107000028,LUW
S010700002800000,LUW,S0107000028,LUW
S0107000029,LUV,S0107000029,LUV
S010700002900000,LUV,S0107000029,LUV
S0107000030,LUT,S0107000030,LUT
S010700003000000,LUT,S0107000030,LUT
S0107000031,LUR,S0107000031,LUR
S010700003100000,LUR,S0107000031,LUR
S0107000032,LSR,S0107000032,LSR
S010700003200000,LSR,S0107000032,LSR
S0107000033,LRR,S0107000033,LRR
S010700003300000,LRR,S0107000033,LRR
S0107000034,LQR,S0107000034,LQR
S010700003400000,LQR,S0107000034,LQR
S0107000035,LPRڒ,S0107000035,LPRڒ
S010700003500000,LPRڒ,S0107000035,LPRڒ
S0107000036,Ua,S0107000036,Ua
S010700003600000,Ua,S0107000036,Ua
S0107000037,Sa,S0107000037,Sa
S010700003700000,Sa,S0107000037,Sa
S0107000038,Qa,S0107000038,Qa
S010700003800000,Qa,S0107000038,Qa
S0107000039,LQV,S0107000039,LQV
S010700003900000,LQV,S0107000039,LQV
S0107000040,LRV,S0107000040,LRV
S010700004000000,LRV,S0107000040,LRV
S0107000041,LRVڒ,S0107000041,LRVڒ
S010700004100000,LRVڒ,S0107000041,LRVڒ
S0107000042,LSV,S0107000042,LSV
S010700004200000,LSV,S0107000042,LSV
S0107000043,T,S0107000043,T
S010700004300000,T,S0107000043,T
S0107000044,S,S0107000044,S
S010700004400000,S,S0107000044,S
S0107000045,΂uwO,S0107000045,΂uwO
S010700004500000,΂uwO,S0107000045,΂uwO
S0107000046,_yPSU,S0107000046,_yPSU
S010700004600000,_yPSU,S0107000046,_yPSU
S0107000047,_yPSS,S0107000047,_yPSS
S010700004700000,_yPSS,S0107000047,_yPSS
S0107000048,_yPTS,S0107000048,_yPTS
S010700004800000,_yPTS,S0107000048,_yPTS
S0107000049,_yPTR,S0107000049,_yPTR
S010700004900000,_yPTR,S0107000049,_yPTR
S0107000050,_yVPS,S0107000050,_yVPS
S010700005000000,_yVPS,S0107000050,_yVPS
S0107000051,_yVPQ,S0107000051,_yVPQ
S010700005100000,_yVPQ,S0107000051,_yVPQ
S0107000052,_yUPP,S0107000052,_yUPP
S010700005200000,_yUPP,S0107000052,_yUPP
S0107000053,_ySPP,S0107000053,_ySPP
S010700005300000,_ySPP,S0107000053,_ySPP
S0107000054,_ySPO,S0107000054,_ySPO
S010700005400000,_ySPO,S0107000054,_ySPO
S0107000055,_ySW,S0107000055,_ySW
S010700005500000,_ySW,S0107000055,_ySW
S0107000056,A[iO,S0107000056,A[iO
S010700005600000,A[iO,S0107000056,A[iO
S0107000057,_yST,S0107000057,_yST
S010700005700000,_yST,S0107000057,_yST
S0107000058,_ySS,S0107000058,_ySS
S010700005800000,_ySS,S0107000058,_ySS
S0107000059,_yR,S0107000059,_yR
S010700005900000,_yR,S0107000059,_yR
S0107000060,PQ,S0107000060,PQ
S010700006000000,PQ,S0107000060,PQ
S0107000061,PT,S0107000061,PT
S010700006100000,PT,S0107000061,PT
S0107000062,LPPP,S0107000062,LPPP
S010700006200000,LPPP,S0107000062,LPPP
S0107000063,LPPQ,S0107000063,LPPQ
S010700006300000,LPPQ,S0107000063,LPPQ
S0107000064,PPP,S0107000064,PPP
S010700006400000,PPP,S0107000064,PPP
S0107000065,PPQ,S0107000065,PPQ
S010700006500000,PPQ,S0107000065,PPQ
S0107000066,_O,S0107000066,_O
S010700006600000,_O,S0107000066,_O
S0107000067,PPR,S0107000067,PPR
S010700006700000,PPR,S0107000067,PPR
S0107000068,_c_Z^[,S0107000068,_c_Z^[
S010700006800000,_c_Z^[,S0107000068,_c_Z^[
S0107000069,QPR,S0107000069,QPR
S010700006900000,QPR,S0107000069,QPR
S0107000070,鐲xO,S0107000070,鐲xO
S010700007000000,鐲xO,S0107000070,鐲xO
S0107000071,RPR,S0107000071,RPR
S010700007100000,RPR,S0107000071,RPR
S0107000072,RPS,S0107000072,RPS
S010700007200000,RPS,S0107000072,RPS
S0107000073,RPT,S0107000073,RPT
S010700007300000,RPT,S0107000073,RPT
S0107000074,RPU,S0107000074,RPU
S010700007400000,RPU,S0107000074,RPU
S0107000075,QwZO,S0107000075,QwZO
S010700007500000,QwZO,S0107000075,QwZO
S0107000076,RPV,S0107000076,RPV
S010700007600000,RPV,S0107000076,RPV
S0107000077,RPW,S0107000077,RPW
S010700007700000,RPW,S0107000077,RPW
S0107000078,RPX,S0107000078,RPX
S010700007800000,RPX,S0107000078,RPX
S0107000079,RQO,S0107000079,RQO
S010700007900000,RQO,S0107000079,RQO
S0107000080,SQO,S0107000080,SQO
S010700008000000,SQO,S0107000080,SQO
S0107000081,TQO,S0107000081,TQO
S010700008100000,TQO,S0107000081,TQO
S0107000082,UQO,S0107000082,UQO
S010700008200000,UQO,S0107000082,UQO
S0107000083,VQO,S0107000083,VQO
S010700008300000,VQO,S0107000083,VQO
S0107000084,WQO,S0107000084,WQO
S010700008400000,WQO,S0107000084,WQO
S0107000085,WQP,S0107000085,WQP
S010700008500000,WQP,S0107000085,WQP
S0107000086,XQQ,S0107000086,XQQ
S010700008600000,XQQ,S0107000086,XQQ
S0107000087,POQQ,S0107000087,POQQ
S010700008700000,POQQ,S0107000087,POQQ
S0107000088,_yPSR,S0107000088,_yPSR
S010700008800000,_yPSR,S0107000088,_yPSR
S0107000089,_ywO,S0107000089,_ywO
S010700008900000,_ywO,S0107000089,_ywO
S0107000090,_ySPQ,S0107000090,_ySPQ
S010700009000000,_ySPQ,S0107000090,_ySPQ
S0107000091,PS,S0107000091,PS
S010700009100000,PS,S0107000091,PS
S0107000092,PV,S0107000092,PV
S010700009200000,PV,S0107000092,PV
S0107000093,RX,S0107000093,RX
S010700009300000,RX,S0107000093,RX
S0107000094,LUS,S0107000094,LUS
S010700009400000,LUS,S0107000094,LUS
S0107000095,LUU,S0107000095,LUU
S010700009500000,LUU,S0107000095,LUU
S0107000096,twZ,S0107000096,twZ
S010700009600000,twZ,S0107000096,twZ
S0107000097,LRP,S0107000097,LRP
S010700009700000,LRP,S0107000097,LRP
S0107000098,khtO,S0107000098,khtO
S010700009800000,khtO,S0107000098,khtO
S0107000099,LSP,S0107000099,LSP
S010700009900000,LSP,S0107000099,LSP
S0107000100,LSQ,S0107000100,LSQ
S010700010000000,LSQ,S0107000100,LSQ
S0107000101,LST,S0107000101,LST
S010700010100000,LST,S0107000101,LST
S0107000102,LSW,S0107000102,LSW
S010700010200000,LSW,S0107000102,LSW
S0107000103,LSPQ,S0107000103,LSPQ
S010700010300000,LSPQ,S0107000103,LSPQ
S0107000104,RPP,S0107000104,RPP
S010700010400000,RPP,S0107000104,RPP
S0107000105,RPQ,S0107000105,RPQ
S010700010500000,RPQ,S0107000105,RPQ
S0107000106,iR,S0107000106,iR
S010700010600000,iR,S0107000106,iR
S0107000107,iRkPX,S0107000107,iRkPX
S010700010700000,iRkPX,S0107000107,iRkPX
S0107000108,iRQPW,S0107000108,iRQPW
S010700010800000,iRQPW,S0107000108,iRQPW
S0107000109,iRUPW,S0107000109,iRUPW
S010700010900000,iRUPW,S0107000109,iRUPW
S0107000110,iRUQO,S0107000110,iRUQO
S010700011000000,iRUQO,S0107000110,iRUQO
S0107000111,iRUQQ,S0107000111,iRUQQ
S010700011100000,iRUQQ,S0107000111,iRUQQ
S0107000112,iRUQS,S0107000112,iRUQS
S010700011200000,iRUQS,S0107000112,iRUQS
S0107000113,O,S0107000113,O
S010700011300000,O,S0107000113,O
S0107000114,_ƍZ,S0107000114,_ƍZ
S010700011400000,_ƍZ,S0107000114,_ƍZ
S0107000115,z,S0107000115,z
S010700011500000,z,S0107000115,z
S0107000116,kQPP,S0107000116,kQPP
S010700011600000,kQPP,S0107000116,kQPP
S0107000117,,S0107000117,
S010700011700000,,S0107000117,
S0107000118,,S0107000118,
S010700011800000,,S0107000118,
S0107000119,a,S0107000119,a
S010700011900000,a,S0107000119,a
S0107000120,CّO,S0107000120,CّO
S010700012000000,CّO,S0107000120,CّO
S0107000121,,S0107000121,
S010700012100000,,S0107000121,
S0107000122,^O,S0107000122,^O
S010700012200000,^O,S0107000122,^O
S0107000123,mʉwO,S0107000123,mʉwO
S010700012300000,mʉwO,S0107000123,mʉwO
S0107000124,mʑʂU,S0107000124,mʑʂU
S010700012400000,mʑʂU,S0107000124,mʑʂU
S0107000125,mʑʂP,S0107000125,mʑʂP
S010700012500000,mʑʂP,S0107000125,mʑʂP
S0107000126,kԊwZO,S0107000126,kԊwZO
S010700012600000,kԊwZO,S0107000126,kԊwZO
S0107000127,SQ,S0107000127,SQ
S010700012700000,SQ,S0107000127,SQ
S0107000128,,S0107000128,
S010700012800000,,S0107000128,
S0107000129,̉wmȂn,S0107000129,̉wmȂn
S010700012900000,̉wmȂn,S0107000129,̉wmȂn
S0107000130,A,S0107000130,A
S010700013000000,A,S0107000130,A
S0107000131,QPmsn,S0107000131,QPmsn
S010700013100000,QPmsn,S0107000131,QPmsn
S0107000132,ʂPP,S0107000132,ʂPP
S010700013200000,ʂPP,S0107000132,ʂPP
S0107000133,wO,S0107000133,wO
S010700013300000,wO,S0107000133,wO
S0107000134,LTP,S0107000134,LTP
S010700013400000,LTP,S0107000134,LTP
S0107000135,LUP,S0107000135,LUP
S010700013500000,LUP,S0107000135,LUP
S0107000136,鐲_БO,S0107000136,鐲_БO
S010700013600000,鐲_БO,S0107000136,鐲_БO
S0107000137,h,S0107000137,h
S010700013700000,h,S0107000137,h
S0107000138,tQU,S0107000138,tQU
S010700013800000,tQU,S0107000138,tQU
S0107000139,tSU,S0107000139,tSU
S010700013900000,tSU,S0107000139,tSU
S0107000140,tST,S0107000140,tST
S010700014000000,tST,S0107000140,tST
S0107000141,scZO,S0107000141,scZO
S010700014100000,scZO,S0107000141,scZO
S0107000142,tSS,S0107000142,tSS
S010700014200000,tSS,S0107000142,tSS
S0107000143,tSR,S0107000143,tSR
S010700014300000,tSR,S0107000143,tSR
S0107000144,tSQڒ,S0107000144,tSQڒ
S010700014400000,tSQڒ,S0107000144,tSQڒ
S0107000145,tSQ,S0107000145,tSQ
S010700014500000,tSQ,S0107000145,tSQ
S0107000146,tSP,S0107000146,tSP
S010700014600000,tSP,S0107000146,tSP
S0107000147,tRP,S0107000147,tRP
S010700014700000,tRP,S0107000147,tRP
S0107000148,ÈZ^[,S0107000148,ÈZ^[
S010700014800000,ÈZ^[,S0107000148,ÈZ^[
S0107000149,t,S0107000149,t
S010700014900000,t,S0107000149,t
S0107000150,tUS,S0107000150,tUS
S010700015000000,tUS,S0107000150,tUS
S0107000151,tTS,S0107000151,tTS
S010700015100000,tTS,S0107000151,tTS
S0107000152,tTT,S0107000152,tTT
S010700015200000,tTT,S0107000152,tTT
S0107000153,tSS,S0107000153,tSS
S010700015300000,tSS,S0107000153,tSS
S0107000154,tSQ,S0107000154,tSQ
S010700015400000,tSQ,S0107000154,tSQ
S0107000155,tSP,S0107000155,tSP
S010700015500000,tSP,S0107000155,tSP
S0107000156,咬QPO,S0107000156,咬QPO
S010700015600000,咬QPO,S0107000156,咬QPO
S0107000157,咬QW,S0107000157,咬QW
S010700015700000,咬QW,S0107000157,咬QW
S0107000158,咬QT,S0107000158,咬QT
S010700015800000,咬QT,S0107000158,咬QT
S0107000159,PX,S0107000159,PX
S010700015900000,PX,S0107000159,PX
S0107000160,cn,S0107000160,cn
S0107000161,nO,S0107000161,nO
S010700016100000,nO,S0107000161,nO
S0107000162,WV,S0107000162,WV
S010700016200000,WV,S0107000162,WV
S0107000163,XV,S0107000163,XV
S010700016300000,XV,S0107000163,XV
S0107000164,XW,S0107000164,XW
S010700016400000,XW,S0107000164,XW
S0107000165,XX,S0107000165,XX
S010700016500000,XX,S0107000165,XX
S0107000166,XPO,S0107000166,XPO
S010700016600000,XPO,S0107000166,XPO
S0107000167,POPO,S0107000167,POPO
S010700016700000,POPO,S0107000167,POPO
S0107000168,POV,S0107000168,POV
S010700016800000,POV,S0107000168,POV
S0107000169,POW,S0107000169,POW
S010700016900000,POW,S0107000169,POW
S0107000170,ӂꂠZ^[,S0107000170,ӂꂠZ^[
S010700017000000,ӂꂠZ^[,S0107000170,ӂꂠZ^[
S0107000171,kPR,S0107000171,kPR
S010700017100000,kPR,S0107000171,kPR
S0107000172,kPQ,S0107000172,kPQ
S010700017200000,kPQ,S0107000172,kPQ
S0107000173,tRW,S0107000173,tRW
S010700017300000,tRW,S0107000173,tRW
S0107000174,tRX,S0107000174,tRX
S010700017400000,tRX,S0107000174,tRX
S0107000175,,S0107000175,
S010700017500000,,S0107000175,
S0107000176,tRS,S0107000176,tRS
S010700017600000,tRS,S0107000176,tRS
S0107000177,tQR,S0107000177,tQR
S010700017700000,tQR,S0107000177,tQR
S0107000178,tPR,S0107000178,tPR
S010700017800000,tPR,S0107000178,tPR
S0107000179,O,S0107000179,O
S010700017900000,O,S0107000179,O
S0107000180,PPS,S0107000180,PPS
S010700018000000,PPS,S0107000180,PPS
S0107000181,PPT,S0107000181,PPT
S010700018100000,PPT,S0107000181,PPT
S0107000182,PPU,S0107000182,PPU
S010700018200000,PPU,S0107000182,PPU
S0107000183,PPV,S0107000183,PPV
S010700018300000,PPV,S0107000183,PPV
S0107000184,PPW,S0107000184,PPW
S010700018400000,PPW,S0107000184,PPW
S0107000185,PPX,S0107000185,PPX
S010700018500000,PPX,S0107000185,PPX
S0107000186,jRO,S0107000186,jRO
S010700018600000,jRO,S0107000186,jRO
S0107000187,ΊDR,S0107000187,ΊDR
S010700018700000,ΊDR,S0107000187,ΊDR
S0107000188,Q,S0107000188,Q
S010700018800000,Q,S0107000188,Q
S0107000189,R,S0107000189,R
S010700018900000,R,S0107000189,R
S0107000190,S,S0107000190,S
S010700019000000,S,S0107000190,S
S0107000191,T,S0107000191,T
S010700019100000,T,S0107000191,T
S0107000192,U,S0107000192,U
S010700019200000,U,S0107000192,U
S0107000193,V,S0107000193,V
S010700019300000,V,S0107000193,V
S0107000194,z_БO,S0107000194,z_БO
S010700019400000,z_БO,S0107000194,z_БO
S0107000195,kQW,S0107000195,kQW
S010700019500000,kQW,S0107000195,kQW
S0107000196,BbWHAX,S0107000196,BbWHAX
S010700019600000,BbWHAX,S0107000196,BbWHAX
S0107000197,kQPO,S0107000197,kQPO
S010700019700000,kQPO,S0107000197,kQPO
S0107000198,kRPP,S0107000198,kRPP
S010700019800000,kRPP,S0107000198,kRPP
S0107000199,kSPP,S0107000199,kSPP
S010700019900000,kSPP,S0107000199,kSPP
S0107000200,kTPP,S0107000200,kTPP
S010700020000000,kTPP,S0107000200,kTPP
S0107000201,kTPQ,S0107000201,kTPQ
S010700020100000,kTPQ,S0107000201,kTPQ
S0107000202,kTPR,S0107000202,kTPR
S010700020200000,kTPR,S0107000202,kTPR
S0107000203,kUPR,S0107000203,kUPR
S010700020300000,kUPR,S0107000203,kUPR
S0107000204,kVPR,S0107000204,kVPR
S010700020400000,kVPR,S0107000204,kVPR
S0107000205,kWPS,S0107000205,kWPS
S010700020500000,kWPS,S0107000205,kWPS
S0107000206,kPP,S0107000206,kPP
S010700020600000,kPP,S0107000206,kPP
S0107000207,kPR,S0107000207,kPR
S010700020700000,kPR,S0107000207,kPR
S0107000208,kPT,S0107000208,kPT
S010700020800000,kPT,S0107000208,kPT
S0107000209,QV,S0107000209,QV
S010700020900000,QV,S0107000209,QV
S0107000210,Ђ炵O,S0107000210,Ђ炵O
S010700021000000,Ђ炵O,S0107000210,Ђ炵O
S0107000211,QR,S0107000211,QR
S010700021100000,QR,S0107000211,QR
S0107000212,QQman,S0107000212,QQman
S010700021200000,QQman,S0107000212,QQman
S0107000213,QPman,S0107000213,QPman
S010700021300000,QPman,S0107000213,QPman
S0107000214,QO,S0107000214,QO
S010700021400000,QO,S0107000214,QO
S0107000215,PXman,S0107000215,PXman
S010700021500000,PXman,S0107000215,PXman
S0107000216,PWman,S0107000216,PWman
S010700021600000,PWman,S0107000216,PWman
S0107000217,a쒬,S0107000217,a쒬
S010700021700000,a쒬,S0107000217,a쒬
S0107000218,awZO,S0107000218,awZO
S010700021800000,awZO,S0107000218,awZO
S0107000219,̏o,S0107000219,̏o
S010700021900000,̏o,S0107000219,̏o
S0107000220,X,S0107000220,X
S010700022000000,X,S0107000220,X
S0107000221,V,S0107000221,V
S010700022100000,V,S0107000221,V
S0107000222,U,S0107000222,U
S010700022200000,U,S0107000222,U
S0107000223,S,S0107000223,S
S010700022300000,S,S0107000223,S
S0107000224,R,S0107000224,R
S010700022400000,R,S0107000224,R
S0107000225,,S0107000225,
S010700022500000,,S0107000225,
S0107000226,,S0107000226,
S010700022600000,,S0107000226,
S0107000227,wZO,S0107000227,wZO
S010700022700000,wZO,S0107000227,wZO
S0107000228,wZO,S0107000228,wZO
S010700022800000,wZO,S0107000228,wZO
S0107000229,V,S0107000229,V
S010700022900000,V,S0107000229,V
S0107000230,{,S0107000230,{
S010700023000000,{,S0107000230,{
S0107000231,gc,S0107000231,gc
S010700023100000,gc,S0107000231,gc
S0107000232,m,S0107000232,m
S010700023200000,m,S0107000232,m
S0107000233,ّO,S0107000233,ّO
S010700023300000,ّO,S0107000233,ّO
S0107000234,SPP,S0107000234,SPP
S010700023400000,SPP,S0107000234,SPP
S0107000235,kU,S0107000235,kU
S010700023500000,kU,S0107000235,kU
S0107000236,ST,S0107000236,ST
S010700023600000,ST,S0107000236,ST
S0107000237,SS,S0107000237,SS
S010700023700000,SS,S0107000237,SS
S0107000238,SR,S0107000238,SR
S010700023800000,SR,S0107000238,SR
S0107000239,SP,S0107000239,SP
S010700023900000,SP,S0107000239,SP
S0107000240,SO,S0107000240,SO
S010700024000000,SO,S0107000240,SO
S0107000241,RX,S0107000241,RX
S010700024100000,RX,S0107000241,RX
S0107000242,RW,S0107000242,RW
S010700024200000,RW,S0107000242,RW
S0107000243,RV,S0107000243,RV
S010700024300000,RV,S0107000243,RV
S0107000244,RT,S0107000244,RT
S010700024400000,RT,S0107000244,RT
S0107000245,RS,S0107000245,RS
S010700024500000,RS,S0107000245,RS
S0107000246,RR,S0107000246,RR
S010700024600000,RR,S0107000246,RR
S0107000247,RQ,S0107000247,RQ
S010700024700000,RQ,S0107000247,RQ
S0107000248,RP,S0107000248,RP
S010700024800000,RP,S0107000248,RP
S0107000249,RO,S0107000249,RO
S010700024900000,RO,S0107000249,RO
S0107000250,QX,S0107000250,QX
S010700025000000,QX,S0107000250,QX
S0107000251,QW,S0107000251,QW
S010700025100000,QW,S0107000251,QW
S0107000252,AwZO,S0107000252,AwZO
S010700025200000,AwZO,S0107000252,AwZO
S0107000253,QT,S0107000253,QT
S010700025300000,QT,S0107000253,QT
S0107000254,AwZO,S0107000254,AwZO
S010700025400000,AwZO,S0107000254,AwZO
S0107000255,QTU,S0107000255,QTU
S010700025500000,QTU,S0107000255,QTU
S0107000256,QTW,S0107000256,QTW
S010700025600000,QTW,S0107000256,QTW
S0107000257,QSW,S0107000257,QSW
S010700025700000,QSW,S0107000257,QSW
S0107000258,QRW,S0107000258,QRW
S010700025800000,QRW,S0107000258,QRW
S0107000260,PXmsn,S0107000260,PXmsn
S010700026000000,PXmsn,S0107000260,PXmsn
S0107000261,PWmsn,S0107000261,PWmsn
S010700026100000,PWmsn,S0107000261,PWmsn
S0107000262,HO,S0107000262,HO
S010700026200000,HO,S0107000262,HO
S0107000263,SV,S0107000263,SV
S010700026300000,SV,S0107000263,SV
S0107000264,SS,S0107000264,SS
S010700026400000,SS,S0107000264,SS
S0107000265,SP,S0107000265,SP
S010700026500000,SP,S0107000265,SP
S0107000266,VwZ,S0107000266,VwZ
S010700026600000,VwZ,S0107000266,VwZ
S0107000267,S𐼂S,S0107000267,S𐼂S
S010700026700000,S𐼂S,S0107000267,S𐼂S
S0107000268,U𐼂U,S0107000268,U𐼂U
S010700026800000,U𐼂U,S0107000268,U𐼂U
S0107000269,[UPO,S0107000269,[UPO
S010700026900000,[UPO,S0107000269,[UPO
S0107000270,ΒPR,S0107000270,ΒPR
S010700027000000,ΒPR,S0107000270,ΒPR
S0107000271,ΒPT,S0107000271,ΒPT
S010700027100000,ΒPT,S0107000271,ΒPT
S010700027100001,ΒPT,S0107000271,ΒPT
S0107000272,^]Ƌ,S0107000272,^]Ƌ
S010700027200000,^]Ƌ,S0107000272,^]Ƌ
S010700027200001,^]Ƌ,S0107000272,^]Ƌ
S0107000273,kQPQ,S0107000273,kQPQ
S010700027300000,kQPQ,S0107000273,kQPQ
S0107000274,kQPR,S0107000274,kQPR
S010700027400000,kQPR,S0107000274,kQPR
S0107000275,kQPS,S0107000275,kQPS
S010700027500000,kQPS,S0107000275,kQPS
S0107000276,kRPS,S0107000276,kRPS
S010700027600000,kRPS,S0107000276,kRPS
S0107000277,kSPS,S0107000277,kSPS
S010700027700000,kSPS,S0107000277,kSPS
S0107000278,kTPS,S0107000278,kTPS
S010700027800000,kTPS,S0107000278,kTPS
S0107000279,kUPS,S0107000279,kUPS
S010700027900000,kUPS,S0107000279,kUPS
S0107000280,kVPS,S0107000280,kVPS
S010700028000000,kVPS,S0107000280,kVPS
S0107000281,kVPT,S0107000281,kVPT
S010700028100000,kVPT,S0107000281,kVPT
S0107000282,kVPU,S0107000282,kVPU
S010700028200000,kVPU,S0107000282,kVPU
S0107000283,V҂,S0107000283,V҂
S010700028300000,V҂,S0107000283,V҂
S0107000284,҂ՃXL[,S0107000284,҂ՃXL[
S010700028400000,҂ՃXL[,S0107000284,҂ՃXL[
S0107000285,k쐼QP,S0107000285,k쐼QP
S010700028500000,k쐼QP,S0107000285,k쐼QP
S0107000286,k쐼RP,S0107000286,k쐼RP
S010700028600000,k쐼RP,S0107000286,k쐼RP
S0107000287,k쓌SQ,S0107000287,k쓌SQ
S010700028700000,k쓌SQ,S0107000287,k쓌SQ
S0107000288,XT,S0107000288,XT
S010700028800000,XT,S0107000288,XT
S0107000289,XU,S0107000289,XU
S010700028900000,XU,S0107000289,XU
S0107000290,k쐼SP,S0107000290,k쐼SP
S010700029000000,k쐼SP,S0107000290,k쐼SP
S0107000291,PPS,S0107000291,PPS
S010700029100000,PPS,S0107000291,PPS
S0107000292,k쏬wZO,S0107000292,k쏬wZO
S010700029200000,k쏬wZO,S0107000292,k쏬wZO
S0107000293,PQS,S0107000293,PQS
S010700029300000,PQS,S0107000293,PQS
S0107000294,PRS,S0107000294,PRS
S010700029400000,PRS,S0107000294,PRS
S0107000295,PRT,S0107000295,PRT
S010700029500000,PRT,S0107000295,PRT
S0107000296,PST,S0107000296,PST
S010700029600000,PST,S0107000296,PST
S0107000297,Ђ΂胖u쉀O,S0107000297,Ђ΂胖u쉀O
S010700029700000,Ђ΂胖u쉀O,S0107000297,Ђ΂胖u쉀O
S0107000298,]Oʋ,S0107000298,]Oʋ
S010700029800000,]Oʋ,S0107000298,]Oʋ
S0107000299,LN,S0107000299,LN
S010700029900000,LN,S0107000299,LN
S0107000300,cO,S0107000300,cO
S010700030000000,cO,S0107000300,cO
S0107000301,ّO,S0107000301,ّO
S010700030100000,ّO,S0107000301,ّO
S0107000302,J,S0107000302,J
S010700030200000,J,S0107000302,J
S0107000303,msn,S0107000303,msn
S010700030300000,msn,S0107000303,msn
S0107000304,aO,S0107000304,aO
S010700030400000,aO,S0107000304,aO
S0107000305,̑,S0107000305,̑
S010700030500000,̑,S0107000305,̑
S0107000306,_БOms]Oʒn,S0107000306,_БOms]Oʒn
S010700030600000,_БOms]Oʒn,S0107000306,_БOms]Oʒn
S0107000307,JO,S0107000307,JO
S010700030700000,JO,S0107000307,JO
S0107000308,]O,S0107000308,]O
S010700030800000,]O,S0107000308,]O
S0107000309,QS,S0107000309,QS
S010700030900000,QS,S0107000309,QS
S0107000310,QU,S0107000310,QU
S010700031000000,QU,S0107000310,QU
S0107000311,QPO,S0107000311,QPO
S010700031100000,QPO,S0107000311,QPO
S0107000312,QPR,S0107000312,QPR
S010700031200000,QPR,S0107000312,QPR
S0107000313,QPT,S0107000313,QPT
S010700031300000,QPT,S0107000313,QPT
S0107000314,QPW,S0107000314,QPW
S010700031400000,QPW,S0107000314,QPW
S0107000315,ߕnO,S0107000315,ߕnO
S010700031500000,ߕnO,S0107000315,ߕnO
S0107000316,t,S0107000316,t
S010700031600000,t,S0107000316,t
S0107000317,WP,S0107000317,WP
S010700031700000,WP,S0107000317,WP
S0107000318,WQ,S0107000318,WQ
S010700031800000,WQ,S0107000318,WQ
S0107000319,WR,S0107000319,WR
S010700031900000,WR,S0107000319,WR
S0107000320,POT,S0107000320,POT
S010700032000000,POT,S0107000320,POT
S0107000321,POU,S0107000321,POU
S010700032100000,POU,S0107000321,POU
S0107000322,N𗬂̉,S0107000322,N𗬂̉
S010700032200000,N𗬂̉,S0107000322,N𗬂̉
S0107000323,cO,S0107000323,cO
S010700032300000,cO,S0107000323,cO
S0107000324,ۗ{Z^[O,S0107000324,ۗ{Z^[O
S010700032400000,ۗ{Z^[O,S0107000324,ۗ{Z^[O
S0107000325,,S0107000325,
S010700032500000,,S0107000325,
S0107000326,s̑,S0107000326,s̑
S010700032600000,s̑,S0107000326,s̑
S0107000327,r,S0107000327,r
S010700032700000,r,S0107000327,r
S0107000328,q,S0107000328,q
S010700032800000,q,S0107000328,q
S0107000329,̉wrP,S0107000329,̉wrP
S010700032900000,̉wrP,S0107000329,̉wrP
S0107000330,QU,S0107000330,QU
S010700033000000,QU,S0107000330,QU
S0107000331,N[ˌ,S0107000331,N[ˌ
S010700033100000,N[ˌ,S0107000331,N[ˌ
S0107000332,QS,S0107000332,QS
S010700033200000,QS,S0107000332,QS
S0107000333,QS,S0107000333,QS
S010700033300000,QS,S0107000333,QS
S0107000334,l,S0107000334,l
S010700033400000,l,S0107000334,l
S0107000335,QP,S0107000335,QP
S010700033500000,QP,S0107000335,QP
S0107000336,QO,S0107000336,QO
S010700033600000,QO,S0107000336,QO
S0107000337,PX,S0107000337,PX
S010700033700000,PX,S0107000337,PX
S0107000338,PW,S0107000338,PW
S010700033800000,PW,S0107000338,PW
S0107000339,PV,S0107000339,PV
S010700033900000,PV,S0107000339,PV
S0107000340,,S0107000340,
S010700034000000,,S0107000340,
S0107000341,PU,S0107000341,PU
S010700034100000,PU,S0107000341,PU
S0107000342,򏬊wZO,S0107000342,򏬊wZO
S010700034200000,򏬊wZO,S0107000342,򏬊wZO
S0107000343,PT,S0107000343,PT
S010700034300000,PT,S0107000343,PT
S0107000344,򋤐,S0107000344,򋤐
S010700034400000,򋤐,S0107000344,򋤐
S0107000345,PR,S0107000345,PR
S010700034500000,PR,S0107000345,PR
S0107000346,PQ,S0107000346,PQ
S010700034600000,PQ,S0107000346,PQ
S0107000347,PP,S0107000347,PP
S010700034700000,PP,S0107000347,PP
S0107000348,PO,S0107000348,PO
S010700034800000,PO,S0107000348,PO
S0107000349,򋤘a,S0107000349,򋤘a
S010700034900000,򋤘a,S0107000349,򋤘a
S0107000350,,S0107000350,
S010700035000000,,S0107000350,
S0107000351,U,S0107000351,U
S010700035100000,U,S0107000351,U
S0107000352,cO,S0107000352,cO
S010700035200000,cO,S0107000352,cO
S0107000353,ێR,S0107000353,ێR
S010700035300000,ێR,S0107000353,ێR
S0107000354,KS,S0107000354,KS
S010700035400000,KS,S0107000354,KS
S0107000355,lZ^[,S0107000355,lZ^[
S010700035500000,lZ^[,S0107000355,lZ^[
S0107000356,KP,S0107000356,KP
S010700035600000,KP,S0107000356,KP
S0107000357,la@O,S0107000357,la@O
S010700035700000,la@O,S0107000357,la@O
S0107000358,lO,S0107000358,lO
S010700035800000,lO,S0107000358,lO
S0107000359,吳O,S0107000359,吳O
S010700035900000,吳O,S0107000359,吳O
S0107000360,lwO,S0107000360,lwO
S010700036000000,lwO,S0107000360,lwO
S0107000361,l,S0107000361,l
S010700036100000,l,S0107000361,l
S0107000362,P,S0107000362,P
S010700036200000,P,S0107000362,P
S0107000363,l,S0107000363,l
S010700036300000,l,S0107000363,l
S0107000364,v,S0107000364,v
S010700036400000,v,S0107000364,v
S0107000365,l,S0107000365,l
S010700036500000,l,S0107000365,l
S0107000366,Fʓ,S0107000366,Fʓ
S010700036600000,Fʓ,S0107000366,Fʓ
S0107000367,ӕʐ싴,S0107000367,ӕʐ싴
S010700036700000,ӕʐ싴,S0107000367,ӕʐ싴
S0107000368,V,S0107000368,V
S010700036800000,V,S0107000368,V
S0107000369,_yQU,S0107000369,_yQU
S010700036900000,_yQU,S0107000369,_yQU
S0107000370,U,S0107000370,U
S010700037000000,U,S0107000370,U
S0107000371,ブwZO,S0107000371,ブwZO
S010700037100000,ブwZO,S0107000371,ブwZO
S0107000372,ブwO,S0107000372,ブwO
S010700037200000,ブwO,S0107000372,ブwO
S0107000373,_yQS,S0107000373,_yQS
S010700037300000,_yQS,S0107000373,_yQS
S0107000374,V,S0107000374,V
S010700037400000,V,S0107000374,V
S0107000375,_yQO,S0107000375,_yQO
S010700037500000,_yQO,S0107000375,_yQO
S0107000376,PX,S0107000376,PX
S010700037600000,PX,S0107000376,PX
S0107000377,O,S0107000377,O
S010700037700000,O,S0107000377,O
S0107000378,a,S0107000378,a
S010700037800000,a,S0107000378,a
S0107000379,aU,S0107000379,aU
S010700037900000,aU,S0107000379,aU
S0107000380,awZO,S0107000380,awZO
S010700038000000,awZO,S0107000380,awZO
S0107000381,_yPW,S0107000381,_yPW
S010700038100000,_yPW,S0107000381,_yPW
S0107000382,PV,S0107000382,PV
S010700038200000,PV,S0107000382,PV
S0107000383,PU,S0107000383,PU
S010700038300000,PU,S0107000383,PU
S0107000384,PT,S0107000384,PT
S010700038400000,PT,S0107000384,PT
S0107000385,_ywO,S0107000385,_ywO
S010700038500000,_ywO,S0107000385,_ywO
S0107000386,PS,S0107000386,PS
S010700038600000,PS,S0107000386,PS
S0107000387,PQ,S0107000387,PQ
S010700038700000,PQ,S0107000387,PQ
S0107000388,PP,S0107000388,PP
S010700038800000,PP,S0107000388,PP
S0107000389,PO,S0107000389,PO
S010700038900000,PO,S0107000389,PO
S0107000390,X,S0107000390,X
S010700039000000,X,S0107000390,X
S0107000391,W,S0107000391,W
S010700039100000,W,S0107000391,W
S0107000392,V,S0107000392,V
S010700039200000,V,S0107000392,V
S0107000393,U,S0107000393,U
S010700039300000,U,S0107000393,U
S0107000394,lێR,S0107000394,lێR
S010700039400000,lێR,S0107000394,lێR
S0107000395,SX,S0107000395,SX
S010700039500000,SX,S0107000395,SX
S0107000396,_yRPP,S0107000396,_yRPP
S010700039600000,_yRPP,S0107000396,_yRPP
S0107000397,_yQPO,S0107000397,_yQPO
S010700039700000,_yQPO,S0107000397,_yQPO
S0107000398,_yQX,S0107000398,_yQX
S010700039800000,_yQX,S0107000398,_yQX
S0107000399,_yPX,S0107000399,_yPX
S010700039900000,_yPX,S0107000399,_yPX
S0107000400,傤O,S0107000400,傤O
S010700040000000,傤O,S0107000400,傤O
S0107000401,䗿RP,S0107000401,䗿RP
S010700040100000,䗿RP,S0107000401,䗿RP
S0107000402,΂uRQ,S0107000402,΂uRQ
S010700040200000,΂uRQ,S0107000402,΂uRQ
S0107000403,΂uSP,S0107000403,΂uSP
S010700040300000,΂uSP,S0107000403,΂uSP
S0107000404,NX^z[O,S0107000404,NX^z[O
S010700040400000,NX^z[O,S0107000404,NX^z[O
S0107000405,{U,S0107000405,{U
S010700040500000,{U,S0107000405,{U
S0107000406,ʋ,S0107000406,ʋ
S010700040600000,ʋ,S0107000406,ʋ
S0107000407,쓹HO,S0107000407,쓹HO
S010700040700000,쓹HO,S0107000407,쓹HO
S0107000408,勴,S0107000408,勴
S010700040800000,勴,S0107000408,勴
S0107000409,JQ,S0107000409,JQ
S010700040900000,JQ,S0107000409,JQ
S0107000410,_QQO,S0107000410,_QQO
S010700041000000,_QQO,S0107000410,_QQO
S0107000411,_QPX,S0107000411,_QPX
S010700041100000,_QPX,S0107000411,_QPX
S0107000412,_QPW,S0107000412,_QPW
S010700041200000,_QPW,S0107000412,_QPW
S0107000413,_SPV,S0107000413,_SPV
S010700041300000,_SPV,S0107000413,_SPV
S0107000414,ɂ̑,S0107000414,ɂ̑
S010700041400000,ɂ̑,S0107000414,ɂ̑
S0107000415,_VPT,S0107000415,_VPT
S010700041500000,_VPT,S0107000415,_VPT
S0107000416,_SPT,S0107000416,_SPT
S010700041600000,_SPT,S0107000416,_SPT
S0107000417,_QPT,S0107000417,_QPT
S010700041700000,_QPT,S0107000417,_QPT
S0107000418,_QPQ,S0107000418,_QPQ
S010700041800000,_QPQ,S0107000418,_QPQ
S0107000419,i`_xO,S0107000419,i`_xO
S010700041900000,i`_xO,S0107000419,i`_xO
S0107000420,_yPPP,S0107000420,_yPPP
S010700042000000,_yPPP,S0107000420,_yPPP
S0107000421,_yPPO,S0107000421,_yPPO
S010700042100000,_yPPO,S0107000421,_yPPO
S0107000422,ԏ\a@O,S0107000422,ԏ\a@O
S010700042200000,ԏ\a@O,S0107000422,ԏ\a@O
S0107000423,J,S0107000423,J
S010700042300000,J,S0107000423,J
S0107000424,RPO,S0107000424,RPO
S010700042400000,RPO,S0107000424,RPO
S0107000425,RX,S0107000425,RX
S010700042500000,RX,S0107000425,RX
S0107000426,QX,S0107000426,QX
S010700042600000,QX,S0107000426,QX
S0107000427,ّO,S0107000427,ّO
S010700042700000,ّO,S0107000427,ّO
S0107000428,PX,S0107000428,PX
S010700042800000,PX,S0107000428,PX
S0107000429,JW,S0107000429,JW
S010700042900000,JW,S0107000429,JW
S0107000430,XO,S0107000430,XO
S010700043000000,XO,S0107000430,XO
S0107000431,_БOms_n,S0107000431,_БOms_n
S010700043100000,_БOms_n,S0107000431,_БOms_n
S0107000432,JV,S0107000432,JV
S010700043200000,JV,S0107000432,JV
S0107000433,JU,S0107000433,JU
S010700043300000,JU,S0107000433,JU
S0107000434,JT,S0107000434,JT
S010700043400000,JT,S0107000434,JT
S0107000435,JS,S0107000435,JS
S010700043500000,JS,S0107000435,JS
S0107000436,JR,S0107000436,JR
S010700043600000,JR,S0107000436,JR
S0107000437,O,S0107000437,O
S010700043700000,O,S0107000437,O
S0107000438,_QPO,S0107000438,_QPO
S010700043800000,_QPO,S0107000438,_QPO
S0107000439,W,S0107000439,W
S010700043900000,W,S0107000439,W
S0107000440,V,S0107000440,V
S010700044000000,V,S0107000440,V
S0107000441,U,S0107000441,U
S010700044100000,U,S0107000441,U
S0107000442,T,S0107000442,T
S010700044200000,T,S0107000442,T
S0107000443,p[NzeO,S0107000443,p[NzeO
S010700044300000,p[NzeO,S0107000443,p[NzeO
S0107000444,O,S0107000444,O
S010700044400000,O,S0107000444,O
S0107000445,,S0107000445,
S010700044500000,,S0107000445,
S0107000446,_VP,S0107000446,_VP
S010700044600000,_VP,S0107000446,_VP
S0107000447,_VQ,S0107000447,_VQ
S010700044700000,_VQ,S0107000447,_VQ
S0107000448,_VS,S0107000448,_VS
S010700044800000,_VS,S0107000448,_VS
S0107000449,_VU,S0107000449,_VU
S010700044900000,_VU,S0107000449,_VU
S0107000450,_VW,S0107000450,_VW
S010700045000000,_VW,S0107000450,_VW
S0107000451,_TW,S0107000451,_TW
S010700045100000,_TW,S0107000451,_TW
S0107000452,_SW,S0107000452,_SW
S010700045200000,_SW,S0107000452,_SW
S0107000453,_x,S0107000453,_x
S010700045300000,_x,S0107000453,_x
S0107000454,G\X,S0107000454,G\X
S010700045400000,G\X,S0107000454,G\X
S0107000455,ђ,S0107000455,ђ
S010700045500000,ђ,S0107000455,ђ
S0107000456,J^Q,S0107000456,J^Q
S010700045600000,J^Q,S0107000456,J^Q
S0107000457,GwO,S0107000457,GwO
S010700045700000,GwO,S0107000457,GwO
S0107000458,L,S0107000458,L
S010700045800000,L,S0107000458,L
S0107000459,,S0107000459,
S010700045900000,,S0107000459,
S0107000460,܏\,S0107000460,܏\
S010700046000000,܏\,S0107000460,܏\
S0107000461,쒬,S0107000461,쒬
S010700046100000,쒬,S0107000461,쒬
S0107000462,,S0107000462,
S010700046200000,,S0107000462,
S0107000463,,S0107000463,
S010700046300000,,S0107000463,
S0107000464,ÒcnO,S0107000464,ÒcnO
S010700046400000,ÒcnO,S0107000464,ÒcnO
S0107000465,ÏwZ,S0107000465,ÏwZ
S010700046500000,ÏwZ,S0107000465,ÏwZ
S0107000466,w,S0107000466,w
S010700046600000,w,S0107000466,w
S0107000467,ac,S0107000467,ac
S010700046700000,ac,S0107000467,ac
S0107000468,א,S0107000468,א
S010700046800000,א,S0107000468,א
S0107000469,PT,S0107000469,PT
S010700046900000,PT,S0107000469,PT
S0107000470,R,S0107000470,R
S010700047000000,R,S0107000470,R
S0107000471,R,S0107000471,R
S010700047100000,R,S0107000471,R
S0107000472,ԊȎ,S0107000472,ԊȎ
S010700047200000,ԊȎ,S0107000472,ԊȎ
S0107000473,RQP,S0107000473,RQP
S010700047300000,RQP,S0107000473,RQP
S0107000474,̑,S0107000474,̑
S010700047400000,̑,S0107000474,̑
S0107000475,yfP,S0107000475,yfP
S010700047500000,yfP,S0107000475,yfP
S0107000476,yf,S0107000476,yf
S010700047600000,yf,S0107000476,yf
S0107000477,`ox,S0107000477,`ox
S010700047700000,`ox,S0107000477,`ox
S0107000478,y,S0107000478,y
S010700047800000,y,S0107000478,y
S0107000479,^}bv,S0107000479,^}bv
S010700047900000,^}bv,S0107000479,^}bv
S0107000480,y,S0107000480,y
S010700048000000,y,S0107000480,y
S0107000481,mGsn,S0107000481,mGsn
S010700048100000,mGsn,S0107000481,mGsn
S0107000482,_,S0107000482,_
S010700048200000,_,S0107000482,_
S0107000483,t,S0107000483,t
S010700048300000,t,S0107000483,t
S0107000484,t,S0107000484,t
S010700048400000,t,S0107000484,t
S0107000485,t\X,S0107000485,t\X
S010700048500000,t\X,S0107000485,t\X
S0107000486,t,S0107000486,t
S010700048600000,t,S0107000486,t
S0107000487,⑺CXZ^[,S0107000487,⑺CXZ^[
S010700048700000,⑺CXZ^[,S0107000487,⑺CXZ^[
S0107000488,_,S0107000488,_
S010700048800000,_,S0107000488,_
S0107000489,ɐ,S0107000489,ɐ
S010700048900000,ɐ,S0107000489,ɐ
S0107000490,Í,S0107000490,Í
S010700049000000,Í,S0107000490,Í
S0107000491,z勴,S0107000491,z勴
S010700049100000,z勴,S0107000491,z勴
S0107000492,ʂQX,S0107000492,ʂQX
S010700049200000,ʂQX,S0107000492,ʂQX
S0107000493,ʂQW,S0107000493,ʂQW
S010700049300000,ʂQW,S0107000493,ʂQW
S0107000494,ʂQV,S0107000494,ʂQV
S010700049400000,ʂQV,S0107000494,ʂQV
S0107000495,ʂQU,S0107000495,ʂQU
S010700049500000,ʂQU,S0107000495,ʂQU
S0107000496,ʂQT,S0107000496,ʂQT
S010700049600000,ʂQT,S0107000496,ʂQT
S0107000497,ʂQR,S0107000497,ʂQR
S010700049700000,ʂQR,S0107000497,ʂQR
S0107000498,ʖO,S0107000498,ʖO
S010700049800000,ʖO,S0107000498,ʖO
S0107000499,ʂP,S0107000499,ʂP
S010700049900000,ʂP,S0107000499,ʂP
S0107000500,P,S0107000500,P
S010700050000000,P,S0107000500,P
S0107000501,[sE,S0107000501,[sE
S010700050100000,[sE,S0107000501,[sE
S0107000502,R,S0107000502,R
S010700050200000,R,S0107000502,R
S0107000503,PԒʂS,S0107000503,PԒʂS
S010700050300000,PԒʂS,S0107000503,PԒʂS
S0107000504,PԒʂT,S0107000504,PԒʂT
S010700050400000,PԒʂT,S0107000504,PԒʂT
S0107000505,[a@,S0107000505,[a@
S010700050500000,[a@,S0107000505,[a@
S0107000506,kR,S0107000506,kR
S010700050600000,kR,S0107000506,kR
S0107000507,kP,S0107000507,kP
S010700050700000,kP,S0107000507,kP
S0107000508,[\X,S0107000508,[\X
S010700050800000,[\X,S0107000508,[\X
S0107000509,[勴,S0107000509,[勴
S010700050900000,[勴,S0107000509,[勴
S0107000510,LP,S0107000510,LP
S010700051000000,LP,S0107000510,LP
S0107000511,LHƒcnO,S0107000511,LHƒcnO
S010700051100000,LHƒcnO,S0107000511,LHƒcnO
S0107000512,]L𗬊ّO,S0107000512,]L𗬊ّO
S010700051200000,]L𗬊ّO,S0107000512,]L𗬊ّO
S0107000513,]_,S0107000513,]_
S010700051300000,]_,S0107000513,]_
S0107000514,,S0107000514,
S010700051400000,,S0107000514,
S0107000515,o,S0107000515,o
S010700051500000,o,S0107000515,o
S0107000516,,S0107000516,
S010700051600000,,S0107000516,
S0107000517,WO,S0107000517,WO
S010700051700000,WO,S0107000517,WO
S0107000518,ÎR,S0107000518,ÎR
S010700051800000,ÎR,S0107000518,ÎR
S0107000519,_K_,S0107000519,_K_
S010700051900000,_K_,S0107000519,_K_
S0107000520,_KwZO,S0107000520,_KwZO
S010700052000000,_KwZO,S0107000520,_KwZO
S0107000521,_K_БO,S0107000521,_K_БO
S010700052100000,_K_БO,S0107000521,_K_БO
S0107000522,_K,S0107000522,_K
S010700052200000,_K,S0107000522,_K
S0107000523,aωO,S0107000523,aωO
S010700052300000,aωO,S0107000523,aωO
S0107000524,tu,S0107000524,tu
S010700052400000,tu,S0107000524,tu
S0107000525,QP,S0107000525,QP
S010700052500000,QP,S0107000525,QP
S0107000526,ꏬwZ,S0107000526,ꏬwZ
S010700052600000,ꏬwZ,S0107000526,ꏬwZ
S0107000527,_QP,S0107000527,_QP
S010700052700000,_QP,S0107000527,_QP
S0107000528,i,S0107000528,i
S010700052800000,i,S0107000528,i
S0107000529,{O,S0107000529,{O
S010700052900000,{O,S0107000529,{O
S0107000530,RwZO,S0107000530,RwZO
S010700053000000,RwZO,S0107000530,RwZO
S0107000531,{ؒcnO,S0107000531,{ؒcnO
S010700053100000,{ؒcnO,S0107000531,{ؒcnO
S0107000532,O,S0107000532,O
S010700053200000,O,S0107000532,O
S0107000533,R,S0107000533,R
S010700053300000,R,S0107000533,R
S0107000534,RّO,S0107000534,RّO
S010700053400000,RّO,S0107000534,RّO
S0107000535,O,S0107000535,O
S010700053500000,O,S0107000535,O
S0107000536,aejXR[g,S0107000536,aejXR[g
S010700053600000,aejXR[g,S0107000536,aejXR[g
S0107000537,aRP,S0107000537,aRP
S010700053700000,aRP,S0107000537,aRP
S0107000538,aTQ,S0107000538,aTQ
S010700053800000,aTQ,S0107000538,aTQ
S0107000539,aTR,S0107000539,aTR
S010700053900000,aTR,S0107000539,aTR
S0107000540,aTS,S0107000540,aTS
S010700054000000,aTS,S0107000540,aTS
S0107000541,aTT,S0107000541,aTT
S010700054100000,aTT,S0107000541,aTT
S0107000542,aTU,S0107000542,aTU
S010700054200000,aTU,S0107000542,aTU
S0107000543,aTV,S0107000543,aTV
S010700054300000,aTV,S0107000543,aTV
S0107000544,勴,S0107000544,勴
S010700054400000,勴,S0107000544,勴
S0107000545,_QR,S0107000545,_QR
S010700054500000,_QR,S0107000545,_QR
S0107000546,_QS,S0107000546,_QS
S010700054600000,_QS,S0107000546,_QS
S0107000547,_QU,S0107000547,_QU
S010700054700000,_QU,S0107000547,_QU
S0107000548,kPPS,S0107000548,kPPS
S010700054800000,kPPS,S0107000548,kPPS
S0107000549,PS,S0107000549,PS
S010700054900000,PS,S0107000549,PS
S0107000550,PT,S0107000550,PT
S010700055000000,PT,S0107000550,PT
S0107000551,PU,S0107000551,PU
S010700055100000,PU,S0107000551,PU
S0107000552,PV,S0107000552,PV
S010700055200000,PV,S0107000552,PV
S0107000553,xP,S0107000553,xP
S010700055300000,xP,S0107000553,xP
S0107000554,xR,S0107000554,xR
S010700055400000,xR,S0107000554,xR
S0107000555,xQ,S0107000555,xQ
S010700055500000,xQ,S0107000555,xQ
S0107000556,xP,S0107000556,xP
S010700055600000,xP,S0107000556,xP
S0107000557,T,S0107000557,T
S010700055700000,T,S0107000557,T
S0107000558,ʖ{,S0107000558,ʖ{
S010700055800000,ʖ{,S0107000558,ʖ{
S0107000559,O,S0107000559,O
S010700055900000,O,S0107000559,O
S0107000560,ʖO,S0107000560,ʖO
S010700056000000,ʖO,S0107000560,ʖO
S0107000561,ʒwZO,S0107000561,ʒwZO
S010700056100000,ʒwZO,S0107000561,ʒwZO
S0107000562,ʉwO,S0107000562,ʉwO
S010700056200000,ʉwO,S0107000562,ʉwO
S0107000563,aTP,S0107000563,aTP
S010700056300000,aTP,S0107000563,aTP
S0107000564,aTPڒ,S0107000564,aTPڒ
S010700056400000,aTPڒ,S0107000564,aTPڒ
S0107000565,PW,S0107000565,PW
S010700056500000,PW,S0107000565,PW
S0107000566,SPP,S0107000566,SPP
S010700056600000,SPP,S0107000566,SPP
S0107000567,SPQ,S0107000567,SPQ
S010700056700000,SPQ,S0107000567,SPQ
S0107000568,SPS,S0107000568,SPS
S010700056800000,SPS,S0107000568,SPS
S0107000569,SPW,S0107000569,SPW
S010700056900000,SPW,S0107000569,SPW
S0107000570,UPW,S0107000570,UPW
S010700057000000,UPW,S0107000570,UPW
S0107000571,WPW,S0107000571,WPW
S010700057100000,WPW,S0107000571,WPW
S0107000572,ʂQ,S0107000572,ʂQ
S010700057200000,ʂQ,S0107000572,ʂQ
S0107000573,{O,S0107000573,{O
S010700057300000,{O,S0107000573,{O
S0107000574,ʂU,S0107000574,ʂU
S010700057400000,ʂU,S0107000574,ʂU
S0107000575,hO,S0107000575,hO
S010700057500000,hO,S0107000575,hO
S0107000576,iRQQ,S0107000576,iRQQ
S010700057600000,iRQQ,S0107000576,iRQQ
S0107000577,iRSQ,S0107000577,iRSQ
S010700057700000,iRSQ,S0107000577,iRSQ
S0107000578,iRUQ,S0107000578,iRUQ
S010700057800000,iRUQ,S0107000578,iRUQ
S0107000579,iRUS,S0107000579,iRUS
S010700057900000,iRUS,S0107000579,iRUS
S0107000580,iRUU,S0107000580,iRUU
S010700058000000,iRUU,S0107000580,iRUU
S0107000581,iRUW,S0107000581,iRUW
S010700058100000,iRUW,S0107000581,iRUW
S0107000582,iRUPO,S0107000582,iRUPO
S010700058200000,iRUPO,S0107000582,iRUPO
S0107000583,iRUPQ,S0107000583,iRUPQ
S010700058300000,iRUPQ,S0107000583,iRUPQ
S0107000584,iRUPS,S0107000584,iRUPS
S010700058400000,iRUPS,S0107000584,iRUPS
S0107000585,iRUPU,S0107000585,iRUPU
S010700058500000,iRUPU,S0107000585,iRUPU
S0107000586,iRPS,S0107000586,iRPS
S010700058600000,iRPS,S0107000586,iRPS
S0107000587,iRQS,S0107000587,iRQS
S010700058700000,iRQS,S0107000587,iRQS
S0107000588,iRQU,S0107000588,iRQU
S010700058800000,iRQU,S0107000588,iRQU
S0107000589,iRQW,S0107000589,iRQW
S010700058900000,iRQW,S0107000589,iRQW
S0107000590,iRQPO,S0107000590,iRQPO
S010700059000000,iRQPO,S0107000590,iRQPO
S0107000591,iRQPQ,S0107000591,iRQPQ
S010700059100000,iRQPQ,S0107000591,iRQPQ
S0107000592,iRQPS,S0107000592,iRQPS
S010700059200000,iRQPS,S0107000592,iRQPS
S0107000593,iRQPU,S0107000593,iRQPU
S010700059300000,iRQPU,S0107000593,iRQPU
S0107000594,iRQPX,S0107000594,iRQPX
S010700059400000,iRQPX,S0107000594,iRQPX
S0107000595,iRQQO,S0107000595,iRQQO
S010700059500000,iRQQO,S0107000595,iRQQO
S0107000596,iRQQP,S0107000596,iRQQP
S010700059600000,iRQQP,S0107000596,iRQQP
S0107000597,iRQQQ,S0107000597,iRQQQ
S010700059700000,iRQQQ,S0107000597,iRQQQ
S0107000598,iRQQS,S0107000598,iRQQS
S010700059800000,iRQQS,S0107000598,iRQQS
S0107000599,iRPR,S0107000599,iRPR
S010700059900000,iRPR,S0107000599,iRPR
S0107000600,PW,S0107000600,PW
S010700060000000,PW,S0107000600,PW
S0107000601,PT,S0107000601,PT
S010700060100000,PT,S0107000601,PT
S0107000602,PQ,S0107000602,PQ
S010700060200000,PQ,S0107000602,PQ
S0107000603,V,S0107000603,V
S010700060300000,V,S0107000603,V
S0107000604,V,S0107000604,V
S010700060400000,V,S0107000604,V
S0107000605,iRQԐP,S0107000605,iRQԐP
S010700060500000,iRQԐP,S0107000605,iRQԐP
S0107000606,iRPOR,S0107000606,iRPOR
S010700060600000,iRPOR,S0107000606,iRPOR
S0107000607,iRPOS,S0107000607,iRPOS
S010700060700000,iRPOS,S0107000607,iRPOS
S0107000608,iRPOU,S0107000608,iRPOU
S010700060800000,iRPOU,S0107000608,iRPOU
S0107000609,iRPOW,S0107000609,iRPOW
S010700060900000,iRPOW,S0107000609,iRPOW
S0107000610,iRPOPO,S0107000610,iRPOPO
S010700061000000,iRPOPO,S0107000610,iRPOPO
S0107000611,iRPOPQ,S0107000611,iRPOPQ
S010700061100000,iRPOPQ,S0107000611,iRPOPQ
S0107000612,iRPOPS,S0107000612,iRPOPS
S010700061200000,iRPOPS,S0107000612,iRPOPS
S0107000613,iRPOPU,S0107000613,iRPOPU
S010700061300000,iRPOPU,S0107000613,iRPOPU
S0107000614,iRPOPW,S0107000614,iRPOPW
S010700061400000,iRPOPW,S0107000614,iRPOPW
S0107000615,,S0107000615,
S010700061500000,,S0107000615,
S0107000616,cnO,S0107000616,cnO
S010700061600000,cnO,S0107000616,cnO
S0107000617,䒆,S0107000617,䒆
S010700061700000,䒆,S0107000617,䒆
S0107000618,,S0107000618,
S010700061800000,,S0107000618,
S0107000619,ꒆ,S0107000619,ꒆ
S010700061900000,ꒆ,S0107000619,ꒆ
S0107000620,XL[,S0107000620,XL[
S010700062000000,XL[,S0107000620,XL[
S0107000621,St,S0107000621,St
S010700062100000,St,S0107000621,St
S0107000622,_UP,S0107000622,_UP
S010700062200000,_UP,S0107000622,_UP
S0107000623,_SP,S0107000623,_SP
S010700062300000,_SP,S0107000623,_SP
S0107000624,t@[O,S0107000624,t@[O
S010700062400000,t@[O,S0107000624,t@[O
S0107000625,SPR,S0107000625,SPR
S010700062500000,SPR,S0107000625,SPR
S0107000626,TPR,S0107000626,TPR
S010700062600000,TPR,S0107000626,TPR
S0107000627,UPR,S0107000627,UPR
S010700062700000,UPR,S0107000627,UPR
S0107000628,VPR,S0107000628,VPR
S010700062800000,VPR,S0107000628,VPR
S0107000629,WPR,S0107000629,WPR
S010700062900000,WPR,S0107000629,WPR
S0107000630,XPR,S0107000630,XPR
S010700063000000,XPR,S0107000630,XPR
S0107000631,POPR,S0107000631,POPR
S010700063100000,POPR,S0107000631,POPR
S0107000632,POPS,S0107000632,POPS
S010700063200000,POPS,S0107000632,POPS
S0107000633,POPT,S0107000633,POPT
S010700063300000,POPT,S0107000633,POPT
S0107000634,POPU,S0107000634,POPU
S010700063400000,POPU,S0107000634,POPU
S0107000635,PPPU,S0107000635,PPPU
S010700063500000,PPPU,S0107000635,PPPU
S0107000636,PQPU,S0107000636,PQPU
S010700063600000,PQPU,S0107000636,PQPU
S0107000637,PRPU,S0107000637,PRPU
S010700063700000,PRPU,S0107000637,PRPU
S0107000638,iRPT,S0107000638,iRPT
S010700063800000,iRPT,S0107000638,iRPT
S0107000639,iRPU,S0107000639,iRPU
S010700063900000,iRPU,S0107000639,iRPU
S0107000640,PV,S0107000640,PV
S010700064000000,PV,S0107000640,PV
S0107000641,PW,S0107000641,PW
S010700064100000,PW,S0107000641,PW
S0107000642,PX,S0107000642,PX
S010700064200000,PX,S0107000642,PX
S0107000643,QO,S0107000643,QO
S010700064300000,QO,S0107000643,QO
S0107000644,_ƕyO,S0107000644,_ƕyO
S010700064400000,_ƕyO,S0107000644,_ƕyO
S0107000645,O,S0107000645,O
S010700064500000,O,S0107000645,O
S0107000646,P,S0107000646,P
S010700064600000,P,S0107000646,P
S0107000647,Q,S0107000647,Q
S010700064700000,Q,S0107000647,Q
S0107000648,O,S0107000648,O
S010700064800000,O,S0107000648,O
S0107000649,R,S0107000649,R
S010700064900000,R,S0107000649,R
S0107000650,wO,S0107000650,wO
S010700065000000,wO,S0107000650,wO
S0107000651,S,S0107000651,S
S010700065100000,S,S0107000651,S
S0107000652,TS,S0107000652,TS
S010700065200000,TS,S0107000652,TS
S0107000653,wZO,S0107000653,wZO
S010700065300000,wZO,S0107000653,wZO
S0107000654,zO,S0107000654,zO
S010700065400000,zO,S0107000654,zO
S0107000655,wV[Vg[,S0107000655,wV[Vg[
S010700065500000,wV[Vg[,S0107000655,wV[Vg[
S0107000656,QP,S0107000656,QP
S010700065600000,QP,S0107000656,QP
S0107000657,QQ,S0107000657,QQ
S010700065700000,QQ,S0107000657,QQ
S0107000658,QR,S0107000658,QR
S010700065800000,QR,S0107000658,QR
S0107000659,QS,S0107000659,QS
S010700065900000,QS,S0107000659,QS
S0107000660,QT,S0107000660,QT
S010700066000000,QT,S0107000660,QT
S0107000661,QU,S0107000661,QU
S010700066100000,QU,S0107000661,QU
S0107000662,QV,S0107000662,QV
S010700066200000,QV,S0107000662,QV
S0107000663,ɍwO,S0107000663,ɍwO
S010700066300000,ɍwO,S0107000663,ɍwO
S0107000664,ɍ_,S0107000664,ɍ_
S010700066400000,ɍ_,S0107000664,ɍ_
S0107000665,PT,S0107000665,PT
S010700066500000,PT,S0107000665,PT
S0107000666,PU,S0107000666,PU
S010700066600000,PU,S0107000666,PU
S0107000667,x,S0107000667,x
S010700066700000,x,S0107000667,x
S0107000668,xR,S0107000668,xR
S010700066800000,xR,S0107000668,xR
S0107000669,쒬T,S0107000669,쒬T
S010700066900000,쒬T,S0107000669,쒬T
S0107000670,ʋ,S0107000670,ʋ
S010700067000000,ʋ,S0107000670,ʋ
S0107000671,iRWS,S0107000671,iRWS
S010700067100000,iRWS,S0107000671,iRWS
S0107000672,iRTS,S0107000672,iRTS
S010700067200000,iRTS,S0107000672,iRTS
S0107000673,ʒcnPQ,S0107000673,ʒcnPQ
S010700067300000,ʒcnPQ,S0107000673,ʒcnPQ
S0107000674,LRR,S0107000674,LRR
S010700067400000,LRR,S0107000674,LRR
S0107000675,LQR,S0107000675,LQR
S010700067500000,LQR,S0107000675,LQR
S0107000676,LPRڒ,S0107000676,LPRڒ
S010700067600000,LPRڒ,S0107000676,LPRڒ
S0107000677,ʒcnPP,S0107000677,ʒcnPP
S010700067700000,ʒcnPP,S0107000677,ʒcnPP
S0107000678,ʒcnPP,S0107000678,ʒcnPP
S010700067800000,ʒcnPP,S0107000678,ʒcnPP
S0107000679,ʒcnPR,S0107000679,ʒcnPR
S010700067900000,ʒcnPR,S0107000679,ʒcnPR
S0107000680,ʒcnPS,S0107000680,ʒcnPS
S010700068000000,ʒcnPS,S0107000680,ʒcnPS
S0107000681,kwO,S0107000681,kwO
S010700068100000,kwO,S0107000681,kwO
S0107000682,ʒcnPT,S0107000682,ʒcnPT
S010700068200000,ʒcnPT,S0107000682,ʒcnPT
S0107000683,iRkPU,S0107000683,iRkPU
S010700068300000,iRkPU,S0107000683,iRkPU
S0107000684,iRkPV,S0107000684,iRkPV
S010700068400000,iRkPV,S0107000684,iRkPV
S0107000685,iRkPW,S0107000685,iRkPW
S010700068500000,iRkPW,S0107000685,iRkPW
S0107000686,iRkPPO,S0107000686,iRkPPO
S010700068600000,iRkPPO,S0107000686,iRkPPO
S0107000687,iRkPPP,S0107000687,iRkPPP
S010700068700000,iRkPPP,S0107000687,iRkPPP
S0107000688,iRkPPQ,S0107000688,iRkPPQ
S010700068800000,iRkPPQ,S0107000688,iRkPPQ
S0107000689,iRPR,S0107000689,iRPR
S010700068900000,iRPR,S0107000689,iRPR
S0107000690,iRPS,S0107000690,iRPS
S010700069000000,iRPS,S0107000690,iRPS
S0107000691,kiRw,S0107000691,kiRw
S010700069100000,kiRw,S0107000691,kiRw
S0107000692,X,S0107000692,X
S010700069200000,X,S0107000692,X
S0107000693,PO,S0107000693,PO
S010700069300000,PO,S0107000693,PO
S0107000694,PP,S0107000694,PP
S010700069400000,PP,S0107000694,PP
S0107000695,PQ,S0107000695,PQ
S010700069500000,PQ,S0107000695,PQ
S0107000696,PR,S0107000696,PR
S010700069600000,PR,S0107000696,PR
S0107000697,PS,S0107000697,PS
S010700069700000,PS,S0107000697,PS
S0107000698,PT,S0107000698,PT
S010700069800000,PT,S0107000698,PT
S0107000699,ʉwO,S0107000699,ʉwO
S010700069900000,ʉwO,S0107000699,ʉwO
S0107000700,ʔdO,S0107000700,ʔdO
S010700070000000,ʔdO,S0107000700,ʔdO
S0107000701,_,S0107000701,_
S010700070100000,_,S0107000701,_
S0107000702,QPmʒn,S0107000702,QPmʒn
S010700070200000,QPmʒn,S0107000702,QPmʒn
S0107000703,RwZO,S0107000703,RwZO
S010700070300000,RwZO,S0107000703,RwZO
S0107000704,QS,S0107000704,QS
S010700070400000,QS,S0107000704,QS
S0107000705,ԓ,S0107000705,ԓ
S010700070500000,ԓ,S0107000705,ԓ
S0107000706,Rk,S0107000706,Rk
S010700070600000,Rk,S0107000706,Rk
S0107000707,ԔdO,S0107000707,ԔdO
S010700070700000,ԔdO,S0107000707,ԔdO
S0107000708,勴,S0107000708,勴
S010700070800000,勴,S0107000708,勴
S0107000709,|V,S0107000709,|V
S010700070900000,|V,S0107000709,|V
S0107000710,h,S0107000710,h
S010700071000000,h,S0107000710,h
S0107000711,X̃eX,S0107000711,X̃eX
S010700071100000,X̃eX,S0107000711,X̃eX
S0107000712,ّO,S0107000712,ّO
S010700071200000,ّO,S0107000712,ّO
S0107000713,썂ZO,S0107000713,썂ZO
S010700071300000,썂ZO,S0107000713,썂ZO
S0107000714,xVx,S0107000714,xVx
S010700071400000,xVx,S0107000714,xVx
S0107000715,,S0107000715,
S010700071500000,,S0107000715,
S0107000716,Ð,S0107000716,Ð
S010700071600000,Ð,S0107000716,Ð
S0107000717,,S0107000717,
S010700071700000,,S0107000717,
S0107000718,,S0107000718,
S010700071800000,,S0107000718,
S0107000719,^M,S0107000719,^M
S010700071900000,^M,S0107000719,^M
S0107000720,F̑,S0107000720,F̑
S010700072000000,F̑,S0107000720,F̑
S0107000721,,S0107000721,
S010700072100000,,S0107000721,
S0107000722,p[NSt,S0107000722,p[NSt
S010700072200000,p[NSt,S0107000722,p[NSt
S0107000723,V,S0107000723,V
S010700072300000,V,S0107000723,V
S0107000724,,S0107000724,
S010700072400000,,S0107000724,
S0107000725,R,S0107000725,R
S010700072500000,R,S0107000725,R
S0107000726,w_,S0107000726,w_
S010700072600000,w_,S0107000726,w_
S0107000727,_Z^[,S0107000727,_Z^[
S010700072700000,_Z^[,S0107000727,_Z^[
S0107000728,XPU,S0107000728,XPU
S010700072800000,XPU,S0107000728,XPU
S0107000729,WPU,S0107000729,WPU
S010700072900000,WPU,S0107000729,WPU
S0107000730,VPU,S0107000730,VPU
S010700073000000,VPU,S0107000730,VPU
S0107000731,UPU,S0107000731,UPU
S010700073100000,UPU,S0107000731,UPU
S0107000732,TPU,S0107000732,TPU
S010700073200000,TPU,S0107000732,TPU
S0107000733,SPU,S0107000733,SPU
S010700073300000,SPU,S0107000733,SPU
S0107000734,咬PPO,S0107000734,咬PPO
S010700073400000,咬PPO,S0107000734,咬PPO
S0107000735,ACkLO,S0107000735,ACkLO
S010700073500000,ACkLO,S0107000735,ACkLO
S0107000736,ΒPV,S0107000736,ΒPV
S010700073600000,ΒPV,S0107000736,ΒPV
S0107000737,ΒQO,S0107000737,ΒQO
S010700073700000,ΒQO,S0107000737,ΒQO
S0107000738,ΒQQ,S0107000738,ΒQQ
S010700073800000,ΒQQ,S0107000738,ΒQQ
S0107000739,ΒQT,S0107000739,ΒQT
S010700073900000,ΒQT,S0107000739,ΒQT
S0107000740,_QX,S0107000740,_QX
S010700074000000,_QX,S0107000740,_QX
S0107000741,썂Z,S0107000741,썂Z
S010700074100000,썂Z,S0107000741,썂Z
S0107000742,΂uSP,S0107000742,΂uSP
S010700074200000,΂uSP,S0107000742,΂uSP
S0107000743,HƍZO,S0107000743,HƍZO
S010700074300000,HƍZO,S0107000743,HƍZO
S0107000744,΂uRS,S0107000744,΂uRS
S010700074400000,΂uRS,S0107000744,΂uRS
S0107000745,_RT,S0107000745,_RT
S010700074500000,_RT,S0107000745,_RT
S0107000746,PUT,S0107000746,PUT
S010700074600000,PUT,S0107000746,PUT
S0107000747,PQU,S0107000747,PQU
S010700074700000,PQU,S0107000747,PQU
S0107000748,TU,S0107000748,TU
S010700074800000,TU,S0107000748,TU
S0107000749,LPU,S0107000749,LPU
S010700074900000,LPU,S0107000749,LPU
S0107000750,LSU,S0107000750,LSU
S010700075000000,LSU,S0107000750,LSU
S0107000751,LVU,S0107000751,LVU
S010700075100000,LVU,S0107000751,LVU
S0107000752,LPRU,S0107000752,LPRU
S010700075200000,LPRU,S0107000752,LPRU
S0107000753,i䍂ZO,S0107000753,i䍂ZO
S010700075300000,i䍂ZO,S0107000753,i䍂ZO
S0107002699,,S0107002699,
S010700269900000,,S0107002699,
S0107002726,QQmsn,S0107002726,QQmsn
S0107002736,XRa@O,S0107002736,XRa@O
S010700273600000,XRa@O,S0107002736,XRa@O
