stop_id,stop_name,similar_stop_id,similar_stop_name
1,小清水,1,小清水
1_2,小清水,1,小清水
2,ふれあいセンター,2,ふれあいセンター
2_1,ふれあいセンター,2,ふれあいセンター
2_2,ふれあいセンター,2,ふれあいセンター
3,６区,3,６区
3_1,６区,3,６区
3_2,６区,3,６区
4,５区,4,５区
4_2,５区,4,５区
5,４区,5,４区
5_1,４区,5,４区
5_2,４区,5,４区
6,下町２区,6,下町２区
6_1,下町２区,6,下町２区
6_2,下町２区,6,下町２区
7,小清水１区,7,小清水１区
7_1,小清水１区,7,小清水１区
7_2,小清水１区,7,小清水１区
8,消防署前,8,消防署前
8_1,消防署前,8,消防署前
8_2,消防署前,8,消防署前
9,南８号,9,南８号
9_1,南８号,9,南８号
9_2,南８号,9,南８号
10,北光前,10,北光前
10_1,北光前,10,北光前
10_2,北光前,10,北光前
11,南７号,11,南７号
11_1,南７号,11,南７号
11_2,南７号,11,南７号
12,南６号,12,南６号
12_1,南６号,12,南６号
12_2,南６号,12,南６号
13,南５号,13,南５号
13_1,南５号,13,南５号
13_2,南５号,13,南５号
14,南４号,14,南４号
14_1,南４号,14,南４号
14_2,南４号,14,南４号
15,南３号,15,南３号
15_1,南３号,15,南３号
15_2,南３号,15,南３号
16,南１号,16,南１号
16_1,南１号,16,南１号
16_2,南１号,16,南１号
17,０号,17,０号
17_1,０号,17,０号
17_2,０号,17,０号
18,１８線,18,１８線
18_1,１８線,18,１８線
18_2,１８線,18,１８線
19,２０線,19,２０線
19_1,２０線,19,２０線
19_2,２０線,19,２０線
20,２１線,20,２１線
20_1,２１線,20,２１線
20_2,２１線,20,２１線
21,北２号,21,北２号
21_1,北２号,21,北２号
21_2,北２号,21,北２号
22,北４号,22,北４号
22_1,北４号,22,北４号
22_2,北４号,22,北４号
23,浜小清水神社前,23,浜小清水神社前
23_1,浜小清水神社前,23,浜小清水神社前
23_2,浜小清水神社前,23,浜小清水神社前
24,浜小清水駅前,24,浜小清水駅前
24_1,浜小清水駅前,24,浜小清水駅前
24_2,浜小清水駅前,24,浜小清水駅前
25,浦士別入口,25,浦士別入口
25_1,浦士別入口,25,浦士別入口
25_2,浦士別入口,25,浦士別入口
26,原生花園,26,原生花園
26_1,原生花園,26,原生花園
26_2,原生花園,26,原生花園
27,とうふつ橋,27,とうふつ橋
27_1,とうふつ橋,27,とうふつ橋
27_2,とうふつ橋,27,とうふつ橋
28,白鳥公園入口,28,白鳥公園入口
28_1,白鳥公園入口,28,白鳥公園入口
28_2,白鳥公園入口,28,白鳥公園入口
29,竹中商店前,29,竹中商店前
29_1,竹中商店前,29,竹中商店前
29_2,竹中商店前,29,竹中商店前
30,北浜駅前,30,北浜駅前
30_1,北浜駅前,30,北浜駅前
30_2,北浜駅前,30,北浜駅前
31,浜藻琴,31,浜藻琴
31_1,浜藻琴,31,浜藻琴
31_2,浜藻琴,31,浜藻琴
32,藻琴局前,32,藻琴局前
32_1,藻琴局前,32,藻琴局前
32_2,藻琴局前,32,藻琴局前
33,藻琴駅前,33,藻琴駅前
33_1,藻琴駅前,33,藻琴駅前
33_2,藻琴駅前,33,藻琴駅前
34,藻琴海岸通り,34,藻琴海岸通り
34_1,藻琴海岸通り,34,藻琴海岸通り
34_2,藻琴海岸通り,34,藻琴海岸通り
35,佐々木漁場前,35,佐々木漁場前
35_1,佐々木漁場前,35,佐々木漁場前
35_2,佐々木漁場前,35,佐々木漁場前
36,オホーツク団地,36,オホーツク団地
36_1,オホーツク団地,36,オホーツク団地
36_2,オホーツク団地,36,オホーツク団地
37,中園入口,37,中園入口
37_1,中園入口,37,中園入口
37_2,中園入口,37,中園入口
38,鱒浦駅前,38,鱒浦駅前
38_1,鱒浦駅前,38,鱒浦駅前
38_2,鱒浦駅前,38,鱒浦駅前
39,鱒浦局前,39,鱒浦局前
39_1,鱒浦局前,39,鱒浦局前
39_2,鱒浦局前,39,鱒浦局前
40,鱒浦築港,40,鱒浦築港
40_1,鱒浦築港,40,鱒浦築港
40_2,鱒浦築港,40,鱒浦築港
41,つくしヶ丘団地中央,41,つくしヶ丘団地中央
41_1,つくしヶ丘団地中央,41,つくしヶ丘団地中央
41_2,つくしヶ丘団地中央,41,つくしヶ丘団地中央
42,つくしヶ丘団地入口,42,つくしヶ丘団地入口
42_1,つくしヶ丘団地入口,42,つくしヶ丘団地入口
42_2,つくしヶ丘団地入口,42,つくしヶ丘団地入口
43,駒場８丁目,43,駒場８丁目
43_1,駒場８丁目,43,駒場８丁目
43_2,駒場８丁目,43,駒場８丁目
44,駒場５丁目,44,駒場５丁目
44_1,駒場５丁目,44,駒場５丁目
44_2,駒場５丁目,44,駒場５丁目
44_3,駒場５丁目,44,駒場５丁目
45,駒場３丁目,45,駒場３丁目
45_1,駒場３丁目,45,駒場３丁目
45_2,駒場３丁目,45,駒場３丁目
45_3,駒場３丁目,45,駒場３丁目
45_4,駒場３丁目,45,駒場３丁目
46,駒場１丁目,46,駒場１丁目
46_1,駒場１丁目,46,駒場１丁目
46_2,駒場１丁目,46,駒場１丁目
47,桂町３丁目,47,桂町３丁目
47_1,桂町３丁目,47,桂町３丁目
47_2,桂町３丁目,47,桂町３丁目
48,台町３丁目,48,台町３丁目
48_1,台町３丁目,48,台町３丁目
48_2,台町３丁目,48,台町３丁目
49,南高前,49,南高前
49_1,南高前,49,南高前
49_2,南高前,49,南高前
50,台町２丁目,50,台町２丁目
50_1,台町２丁目,50,台町２丁目
50_2,台町２丁目,50,台町２丁目
51,台町１丁目,51,台町１丁目
51_2,台町１丁目,51,台町１丁目
52,東５丁目,52,東５丁目
52_1,東５丁目,52,東５丁目
52_2,東５丁目,52,東５丁目
53,桂町２丁目,53,桂町２丁目
53_2,桂町２丁目,53,桂町２丁目
54,南８条,54,南８条
54_1,南８条,54,南８条
54_2,南８条,54,南８条
55,東３丁目,55,東３丁目
55_1,東３丁目,55,東３丁目
55_2,東３丁目,55,東３丁目
56,東１丁目,56,東１丁目
56_1,東１丁目,56,東１丁目
56_2,東１丁目,56,東１丁目
57,西２丁目,57,西２丁目
57_1,西２丁目,57,西２丁目
57_2,西２丁目,57,西２丁目
58,網走バスターミナル,58,網走バスターミナル
58_1,網走バスターミナル,58,網走バスターミナル
58_3,網走バスターミナル,58,網走バスターミナル
58_5,網走バスターミナル,58,網走バスターミナル
58_6,網走バスターミナル,58,網走バスターミナル
59,モヨロ入口,59,モヨロ入口
59_1,モヨロ入口,59,モヨロ入口
59_2,モヨロ入口,59,モヨロ入口
60,厚生病院前,60,厚生病院前
60_1,厚生病院前,60,厚生病院前
60_2,厚生病院前,60,厚生病院前
61,オホーツク合同庁舎前,61,オホーツク合同庁舎前
61_1,オホーツク合同庁舎前,61,オホーツク合同庁舎前
61_2,オホーツク合同庁舎前,61,オホーツク合同庁舎前
62,向陽入口,62,向陽入口
62_1,向陽入口,62,向陽入口
62_2,向陽入口,62,向陽入口
63,向陽病院前,63,向陽病院前
63_1,向陽病院前,63,向陽病院前
63_2,向陽病院前,63,向陽病院前
64,中央小学校,64,中央小学校
64_1,中央小学校,64,中央小学校
64_2,中央小学校,64,中央小学校
65,向陽団地南,65,向陽団地南
65_1,向陽団地南,65,向陽団地南
66,向陽団地中央,66,向陽団地中央
66_1,向陽団地中央,66,向陽団地中央
66_2,向陽団地中央,66,向陽団地中央
67,団地アパート前,67,団地アパート前
67_2,団地アパート前,67,団地アパート前
68,西７丁目,68,西７丁目
68_1,西７丁目,68,西７丁目
68_2,西７丁目,68,西７丁目
69,エコーセンター,69,エコーセンター
69_1,エコーセンター,69,エコーセンター
69_2,エコーセンター,69,エコーセンター
70,西４丁目,70,西４丁目
70_1,西４丁目,70,西４丁目
70_2,西４丁目,70,西４丁目
71,網走駅前,71,網走駅前
71_1,網走駅前,71,網走駅前
71_2,網走駅前,71,網走駅前
71_3,網走駅前,71,網走駅前
72,西小学校前,72,西小学校前
72_1,西小学校前,72,西小学校前
72_2,西小学校前,72,西小学校前
73,ハローワーク前,73,ハローワーク前
73_1,ハローワーク前,73,ハローワーク前
73_2,ハローワーク前,73,ハローワーク前
74,刑務所前,74,刑務所前
74_1,刑務所前,74,刑務所前
74_2,刑務所前,74,刑務所前
75,大曲,75,大曲
75_1,大曲,75,大曲
75_2,大曲,75,大曲
76,二見新町,76,二見新町
76_1,二見新町,76,二見新町
76_2,二見新町,76,二見新町
77,能取漁港入口,77,能取漁港入口
77_1,能取漁港入口,77,能取漁港入口
77_2,能取漁港入口,77,能取漁港入口
78,二見ヶ岡第２,78,二見ヶ岡第２
78_1,二見ヶ岡第２,78,二見ヶ岡第２
78_2,二見ヶ岡第２,78,二見ヶ岡第２
79,二見会館入口,79,二見会館入口
79_1,二見会館入口,79,二見会館入口
79_2,二見会館入口,79,二見会館入口
80,二見中央,80,二見中央
80_1,二見中央,80,二見中央
80_2,二見中央,80,二見中央
81,東卯原内,81,東卯原内
81_1,東卯原内,81,東卯原内
81_2,東卯原内,81,東卯原内
82,西宅前,82,西宅前
82_1,西宅前,82,西宅前
82_2,西宅前,82,西宅前
83,ミンク場跡地,83,ミンク場跡地
83_1,ミンク場跡地,83,ミンク場跡地
83_2,ミンク場跡地,83,ミンク場跡地
84,西網走コミセン,84,西網走コミセン
84_1,西網走コミセン,84,西網走コミセン
84_2,西網走コミセン,84,西網走コミセン
85,サンゴ草入口,85,サンゴ草入口
85_1,サンゴ草入口,85,サンゴ草入口
85_2,サンゴ草入口,85,サンゴ草入口
86,卯原内,86,卯原内
86_1,卯原内,86,卯原内
86_2,卯原内,86,卯原内
87,卯原内新町,87,卯原内新町
87_1,卯原内新町,87,卯原内新町
87_2,卯原内新町,87,卯原内新町
88,北村宅前,88,北村宅前
88_1,北村宅前,88,北村宅前
88_2,北村宅前,88,北村宅前
89,山崎宅前,89,山崎宅前
89_1,山崎宅前,89,山崎宅前
89_2,山崎宅前,89,山崎宅前
90,平和中央,90,平和中央
90_1,平和中央,90,平和中央
90_2,平和中央,90,平和中央
91,平和,91,平和
91_1,平和,91,平和
91_2,平和,91,平和
92,西平和,92,西平和
92_1,西平和,92,西平和
92_2,西平和,92,西平和
93,沢見橋,93,沢見橋
93_1,沢見橋,93,沢見橋
93_2,沢見橋,93,沢見橋
94,中能取,94,中能取
94_1,中能取,94,中能取
94_2,中能取,94,中能取
95,西能取,95,西能取
95_1,西能取,95,西能取
95_2,西能取,95,西能取
96,山道入口,96,山道入口
96_1,山道入口,96,山道入口
96_2,山道入口,96,山道入口
97,能取,97,能取
97_1,能取,97,能取
97_2,能取,97,能取
98,能取学校跡地,98,能取学校跡地
98_1,能取学校跡地,98,能取学校跡地
98_2,能取学校跡地,98,能取学校跡地
99,能取第一会館前,99,能取第一会館前
99_1,能取第一会館前,99,能取第一会館前
99_2,能取第一会館前,99,能取第一会館前
100,東能取,100,東能取
100_1,東能取,100,東能取
100_2,東能取,100,東能取
101,郡境,101,郡境
101_1,郡境,101,郡境
101_2,郡境,101,郡境
102,東浜,102,東浜
102_1,東浜,102,東浜
102_2,東浜,102,東浜
103,大島入口,103,大島入口
103_1,大島入口,103,大島入口
103_2,大島入口,103,大島入口
104,東浜団地,104,東浜団地
104_1,東浜団地,104,東浜団地
104_2,東浜団地,104,東浜団地
105,のぞみの園,105,のぞみの園
105_1,のぞみの園,105,のぞみの園
105_2,のぞみの園,105,のぞみの園
106,豊浜,106,豊浜
106_1,豊浜,106,豊浜
106_2,豊浜,106,豊浜
107,本通り,107,本通り
107_1,本通り,107,本通り
107_2,本通り,107,本通り
108,常呂商工会館,108,常呂商工会館
108_1,常呂商工会館,108,常呂商工会館
108_2,常呂商工会館,108,常呂商工会館
109,常呂バスターミナル,109,常呂バスターミナル
109_2,常呂バスターミナル,109,常呂バスターミナル
110,栄町,110,栄町
110_1,栄町,110,栄町
110_2,栄町,110,栄町
111,町民センター,111,町民センター
111_1,町民センター,111,町民センター
111_2,町民センター,111,町民センター
112,貝殻工場前,112,貝殻工場前
112_1,貝殻工場前,112,貝殻工場前
112_2,貝殻工場前,112,貝殻工場前
113,ワッカ入口,113,ワッカ入口
113_1,ワッカ入口,113,ワッカ入口
113_2,ワッカ入口,113,ワッカ入口
114,西５線,114,西５線
114_1,西５線,114,西５線
114_2,西５線,114,西５線
115,トーフツ,115,トーフツ
115_1,トーフツ,115,トーフツ
115_2,トーフツ,115,トーフツ
116,ワッカネイチャーセンター入口,116,ワッカネイチャーセンター入口
116_1,ワッカネイチャーセンター入口,116,ワッカネイチャーセンター入口
116_2,ワッカネイチャーセンター入口,116,ワッカネイチャーセンター入口
117,栄浦６号,117,栄浦６号
117_1,栄浦６号,117,栄浦６号
117_2,栄浦６号,117,栄浦６号
118,サロマ湖栄浦,118,サロマ湖栄浦
118_1,サロマ湖栄浦,118,サロマ湖栄浦
118_2,サロマ湖栄浦,118,サロマ湖栄浦
119,市営住宅前,119,市営住宅前
119_1,市営住宅前,119,市営住宅前
119_2,市営住宅前,119,市営住宅前
120,天都山入口,120,天都山入口
120_1,天都山入口,120,天都山入口
120_2,天都山入口,120,天都山入口
121,網走観光ホテル前,121,網走観光ホテル前
121_1,網走観光ホテル前,121,網走観光ホテル前
121_2,網走観光ホテル前,121,網走観光ホテル前
122,網走湖荘,122,網走湖荘
122_1,網走湖荘,122,網走湖荘
122_2,網走湖荘,122,網走湖荘
123,養護学校入口,123,養護学校入口
123_1,養護学校入口,123,養護学校入口
123_2,養護学校入口,123,養護学校入口
124,呼人駅前,124,呼人駅前
124_1,呼人駅前,124,呼人駅前
124_2,呼人駅前,124,呼人駅前
125,上林宅前,125,上林宅前
125_1,上林宅前,125,上林宅前
125_2,上林宅前,125,上林宅前
126,鱒取川,126,鱒取川
126_1,鱒取川,126,鱒取川
126_2,鱒取川,126,鱒取川
127,東京農業大学,127,東京農業大学
127_1,東京農業大学,127,東京農業大学
128,自動車学校,128,自動車学校
128_1,自動車学校,128,自動車学校
128_2,自動車学校,128,自動車学校
129,墓園入口,129,墓園入口
129_1,墓園入口,129,墓園入口
129_2,墓園入口,129,墓園入口
130,つくしヶ丘６丁目,130,つくしヶ丘６丁目
130_1,つくしヶ丘６丁目,130,つくしヶ丘６丁目
131,つくしヶ丘団地,131,つくしヶ丘団地
131_1,つくしヶ丘団地,131,つくしヶ丘団地
132,つくしヶ丘中央,132,つくしヶ丘中央
132_1,つくしヶ丘中央,132,つくしヶ丘中央
132_2,つくしヶ丘中央,132,つくしヶ丘中央
133,つくしヶ丘５丁目,133,つくしヶ丘５丁目
133_1,つくしヶ丘５丁目,133,つくしヶ丘５丁目
133_2,つくしヶ丘５丁目,133,つくしヶ丘５丁目
134,つくしヶ丘４丁目,134,つくしヶ丘４丁目
134_1,つくしヶ丘４丁目,134,つくしヶ丘４丁目
134_2,つくしヶ丘４丁目,134,つくしヶ丘４丁目
135,つくしヶ丘３丁目,135,つくしヶ丘３丁目
135_1,つくしヶ丘３丁目,135,つくしヶ丘３丁目
135_2,つくしヶ丘３丁目,135,つくしヶ丘３丁目
136,つくしヶ丘２丁目,136,つくしヶ丘２丁目
136_1,つくしヶ丘２丁目,136,つくしヶ丘２丁目
136_2,つくしヶ丘２丁目,136,つくしヶ丘２丁目
137,駒場ショッピングタウン,137,駒場ショッピングタウン
137_1,駒場ショッピングタウン,137,駒場ショッピングタウン
137_3,駒場ショッピングタウン,137,駒場ショッピングタウン
137_4,駒場ショッピングタウン,137,駒場ショッピングタウン
138,駒場南６丁目,138,駒場南６丁目
138_1,駒場南６丁目,138,駒場南６丁目
138_2,駒場南６丁目,138,駒場南６丁目
139,ファミリー団地,139,ファミリー団地
139_1,ファミリー団地,139,ファミリー団地
140,羽衣公園,140,羽衣公園
140_1,羽衣公園,140,羽衣公園
141,緑ヶ岡団地,141,緑ヶ岡団地
141_1,緑ヶ岡団地,141,緑ヶ岡団地
141_2,緑ヶ岡団地,141,緑ヶ岡団地
142,緑ヶ岡第２団地,142,緑ヶ岡第２団地
142_1,緑ヶ岡第２団地,142,緑ヶ岡第２団地
142_2,緑ヶ岡第２団地,142,緑ヶ岡第２団地
143,南小学校前,143,南小学校前
143_1,南小学校前,143,南小学校前
143_2,南小学校前,143,南小学校前
144,学園通り東,144,学園通り東
144_1,学園通り東,144,学園通り東
144_2,学園通り東,144,学園通り東
145,羽衣団地入口,145,羽衣団地入口
145_1,羽衣団地入口,145,羽衣団地入口
145_2,羽衣団地入口,145,羽衣団地入口
146,第２すぎな団地,146,第２すぎな団地
146_1,第２すぎな団地,146,第２すぎな団地
146_2,第２すぎな団地,146,第２すぎな団地
147,第３中学校,147,第３中学校
147_1,第３中学校,147,第３中学校
147_2,第３中学校,147,第３中学校
148,旭ヶ丘団地,148,旭ヶ丘団地
148_1,旭ヶ丘団地,148,旭ヶ丘団地
148_2,旭ヶ丘団地,148,旭ヶ丘団地
149,潮見５丁目,149,潮見５丁目
149_1,潮見５丁目,149,潮見５丁目
149_2,潮見５丁目,149,潮見５丁目
150,潮見南通り,150,潮見南通り
150_1,潮見南通り,150,潮見南通り
150_2,潮見南通り,150,潮見南通り
151,こが病院,151,こが病院
151_1,こが病院,151,こが病院
152,潮見団地中央,152,潮見団地中央
152_1,潮見団地中央,152,潮見団地中央
152_2,潮見団地中央,152,潮見団地中央
153,潮見７丁目,153,潮見７丁目
153_1,潮見７丁目,153,潮見７丁目
153_3,潮見７丁目,153,潮見７丁目
154,潮見８丁目,154,潮見８丁目
154_1,潮見８丁目,154,潮見８丁目
154_2,潮見８丁目,154,潮見８丁目
154_4,潮見８丁目,154,潮見８丁目
155,潮見９丁目,155,潮見９丁目
155_2,潮見９丁目,155,潮見９丁目
156,潮見１１丁目,156,潮見１１丁目
156_1,潮見１１丁目,156,潮見１１丁目
156_2,潮見１１丁目,156,潮見１１丁目
157,潮見１０丁目,157,潮見１０丁目
157_1,潮見１０丁目,157,潮見１０丁目
157_2,潮見１０丁目,157,潮見１０丁目
158,潮見２丁目,158,潮見２丁目
158_1,潮見２丁目,158,潮見２丁目
158_2,潮見２丁目,158,潮見２丁目
159,潮見３丁目,159,潮見３丁目
159_1,潮見３丁目,159,潮見３丁目
159_2,潮見３丁目,159,潮見３丁目
159_3,潮見３丁目,159,潮見３丁目
160,潮見６丁目,160,潮見６丁目
160_1,潮見６丁目,160,潮見６丁目
160_2,潮見６丁目,160,潮見６丁目
161,潮見４丁目,161,潮見４丁目
161_1,潮見４丁目,161,潮見４丁目
161_2,潮見４丁目,161,潮見４丁目
162,駒場南３丁目,162,駒場南３丁目
162_1,駒場南３丁目,162,駒場南３丁目
162_2,駒場南３丁目,162,駒場南３丁目
163,総合グランド,163,総合グランド
163_1,総合グランド,163,総合グランド
163_2,総合グランド,163,総合グランド
164,駒場南１丁目,164,駒場南１丁目
164_1,駒場南１丁目,164,駒場南１丁目
164_2,駒場南１丁目,164,駒場南１丁目
165,向陽道職住宅,165,向陽道職住宅
165_1,向陽道職住宅,165,向陽道職住宅
166,大曲２丁目,166,大曲２丁目
166_1,大曲２丁目,166,大曲２丁目
167,北１２条(道住前),167,北１２条(道住前)
167_1,北１２条(道住前),167,北１２条(道住前)
167_2,北１２条(道住前),167,北１２条(道住前)
168,福祉センター前,168,福祉センター前
168_1,福祉センター前,168,福祉センター前
168_2,福祉センター前,168,福祉センター前
169,子育て支援センター前,169,子育て支援センター前
169_1,子育て支援センター前,169,子育て支援センター前
169_2,子育て支援センター前,169,子育て支援センター前
170,北７条(総合振興局前),170,北７条(総合振興局前)
170_1,北７条(総合振興局前),170,北７条(総合振興局前)
170_2,北７条(総合振興局前),170,北７条(総合振興局前)
171,南５条(中村ふとん店前),171,南５条(中村ふとん店前)
171_1,南５条(中村ふとん店前),171,南５条(中村ふとん店前)
171_2,南５条(中村ふとん店前),171,南５条(中村ふとん店前)
172,南１０条,172,南１０条
172_1,南１０条,172,南１０条
172_2,南１０条,172,南１０条
173,南１２条(石塚商店前),173,南１２条(石塚商店前)
173_1,南１２条(石塚商店前),173,南１２条(石塚商店前)
173_2,南１２条(石塚商店前),173,南１２条(石塚商店前)
174,錦町会館前,174,錦町会館前
174_1,錦町会館前,174,錦町会館前
174_2,錦町会館前,174,錦町会館前
175,若草団地入口,175,若草団地入口
175_1,若草団地入口,175,若草団地入口
175_2,若草団地入口,175,若草団地入口
176,潮見保育園前,176,潮見保育園前
176_1,潮見保育園前,176,潮見保育園前
176_2,潮見保育園前,176,潮見保育園前
177,駒場公園,177,駒場公園
177_1,駒場公園,177,駒場公園
177_2,駒場公園,177,駒場公園
178,駒場ショッピングタウン西口,178,駒場ショッピングタウン西口
178_1,駒場ショッピングタウン西口,178,駒場ショッピングタウン西口
179,駒場ショッピングタウン東口,179,駒場ショッピングタウン東口
179_1,駒場ショッピングタウン東口,179,駒場ショッピングタウン東口
