stop_id,stop_name,similar_stop_id,similar_stop_name
S0119000001,新富良野プリンスホテル,S0119000001,新富良野プリンスホテル
S011900000100000,新富良野プリンスホテル,S0119000001,新富良野プリンスホテル
S0119000002,御料４線,S0119000002,御料４線
S011900000200000,御料４線,S0119000002,御料４線
S0119000003,富良野プリンスホテル,S0119000003,富良野プリンスホテル
S011900000300000,富良野プリンスホテル,S0119000003,富良野プリンスホテル
S0119000004,ホテルナトゥールヴァルト,S0119000004,ホテルナトゥールヴァルト
S011900000400000,ホテルナトゥールヴァルト,S0119000004,ホテルナトゥールヴァルト
S0119000005,基線,S0119000005,基線
S011900000500000,基線,S0119000005,基線
S0119000006,市場前,S0119000006,市場前
S011900000600000,市場前,S0119000006,市場前
S0119000007,本通５丁目,S0119000007,本通５丁目
S011900000700000,本通５丁目,S0119000007,本通５丁目
S0119000008,十字街［旭・御］,S0119000008,十字街［旭・御］
S011900000800000,十字街［旭・御］,S0119000008,十字街［旭・御］
S0119000009,富良野駅,S0119000009,富良野駅
S011900000900000,富良野駅,S0119000009,富良野駅
S0119000010,十字街［旭・西］,S0119000010,十字街［旭・西］
S011900001000000,十字街［旭・西］,S0119000010,十字街［旭・西］
S0119000011,中富良野,S0119000011,中富良野
S011900001100000,中富良野,S0119000011,中富良野
S0119000012,上富良野役場前,S0119000012,上富良野役場前
S011900001200000,上富良野役場前,S0119000012,上富良野役場前
S0119000013,上富良野,S0119000013,上富良野
S011900001300000,上富良野,S0119000013,上富良野
S0119000014,深山峠,S0119000014,深山峠
S011900001400000,深山峠,S0119000014,深山峠
S0119000015,美瑛駅,S0119000015,美瑛駅
S011900001500000,美瑛駅,S0119000015,美瑛駅
S0119000016,美瑛,S0119000016,美瑛
S011900001600000,美瑛,S0119000016,美瑛
S0119000017,旭川空港,S0119000017,旭川空港
S011900001700000,旭川空港,S0119000017,旭川空港
S0119000018,基線８号,S0119000018,基線８号
S011900001800000,基線８号,S0119000018,基線８号
S0119000019,旭川医大,S0119000019,旭川医大
S011900001900000,旭川医大,S0119000019,旭川医大
S0119000020,旭川医大病院前,S0119000020,旭川医大病院前
S011900002000000,旭川医大病院前,S0119000020,旭川医大病院前
S0119000021,旭川厚生病院,S0119000021,旭川厚生病院
S011900002100000,旭川厚生病院,S0119000021,旭川厚生病院
S0119000022,旭川駅前,S0119000022,旭川駅前
S011900002200000,旭川駅前,S0119000022,旭川駅前
S0119000023,協会病院,S0119000023,協会病院
S011900002300000,協会病院,S0119000023,協会病院
S0119000024,本通り３丁目,S0119000024,本通り３丁目
S011900002400000,本通り３丁目,S0119000024,本通り３丁目
S0119000025,北の峰住宅前,S0119000025,北の峰住宅前
S011900002500000,北の峰住宅前,S0119000025,北の峰住宅前
S0119000026,プリンスホテル入口,S0119000026,プリンスホテル入口
S011900002600000,プリンスホテル入口,S0119000026,プリンスホテル入口
S0119000027,１線,S0119000027,１線
S011900002700000,１線,S0119000027,１線
S0119000028,２線,S0119000028,２線
S011900002800000,２線,S0119000028,２線
S0119000029,３線,S0119000029,３線
S011900002900000,３線,S0119000029,３線
S0119000030,５線［中御料］,S0119000030,５線［中御料］
S011900003000000,５線［中御料］,S0119000030,５線［中御料］
S0119000031,６線［中御料］,S0119000031,６線［中御料］
S011900003100000,６線［中御料］,S0119000031,６線［中御料］
S0119000032,７線［上御料］,S0119000032,７線［上御料］
S011900003200000,７線［上御料］,S0119000032,７線［上御料］
S0119000033,８線［上御料］,S0119000033,８線［上御料］
S011900003300000,８線［上御料］,S0119000033,８線［上御料］
S0119000034,９線［上御料］,S0119000034,９線［上御料］
S011900003400000,９線［上御料］,S0119000034,９線［上御料］
S0119000035,桂木町,S0119000035,桂木町
S011900003500000,桂木町,S0119000035,桂木町
S0119000036,西病院,S0119000036,西病院
S011900003600000,西病院,S0119000036,西病院
S0119000037,新富町,S0119000037,新富町
S011900003700000,新富町,S0119000037,新富町
S0119000038,神社前［若松町］,S0119000038,神社前［若松町］
S011900003800000,神社前［若松町］,S0119000038,神社前［若松町］
S0119000039,フラノマルシェ［西］,S0119000039,フラノマルシェ［西］
S011900003900000,フラノマルシェ［西］,S0119000039,フラノマルシェ［西］
S0119000040,富良野高校前,S0119000040,富良野高校前
S011900004000000,富良野高校前,S0119000040,富良野高校前
S0119000041,警察署前［富良野市］,S0119000041,警察署前［富良野市］
S011900004100000,警察署前［富良野市］,S0119000041,警察署前［富良野市］
S0119000042,扇山小学校,S0119000042,扇山小学校
S011900004200000,扇山小学校,S0119000042,扇山小学校
S0119000043,緑町住宅前,S0119000043,緑町住宅前
S011900004300000,緑町住宅前,S0119000043,緑町住宅前
S0119000044,南町入口,S0119000044,南町入口
S011900004400000,南町入口,S0119000044,南町入口
S0119000045,６線［西扇山］,S0119000045,６線［西扇山］
S011900004500000,６線［西扇山］,S0119000045,６線［西扇山］
S0119000046,７線［北扇山］,S0119000046,７線［北扇山］
S011900004600000,７線［北扇山］,S0119000046,７線［北扇山］
S0119000047,扇山,S0119000047,扇山
S011900004700000,扇山,S0119000047,扇山
S0119000048,南５号,S0119000048,南５号
S011900004800000,南５号,S0119000048,南５号
S0119000049,麓郷入口,S0119000049,麓郷入口
S011900004900000,麓郷入口,S0119000049,麓郷入口
S0119000050,布部入口,S0119000050,布部入口
S011900005000000,布部入口,S0119000050,布部入口
S0119000051,布部学校前,S0119000051,布部学校前
S011900005100000,布部学校前,S0119000051,布部学校前
S0119000052,１０線,S0119000052,１０線
S011900005200000,１０線,S0119000052,１０線
S0119000053,１１線,S0119000053,１１線
S011900005300000,１１線,S0119000053,１１線
S0119000054,１２線,S0119000054,１２線
S011900005400000,１２線,S0119000054,１２線
S0119000055,１３線,S0119000055,１３線
S011900005500000,１３線,S0119000055,１３線
S0119000056,１４線,S0119000056,１４線
S011900005600000,１４線,S0119000056,１４線
S0119000057,１５線,S0119000057,１５線
S011900005700000,１５線,S0119000057,１５線
S0119000058,１６線,S0119000058,１６線
S011900005800000,１６線,S0119000058,１６線
S0119000059,１７線,S0119000059,１７線
S011900005900000,１７線,S0119000059,１７線
S0119000060,鉱山前,S0119000060,鉱山前
S011900006000000,鉱山前,S0119000060,鉱山前
S0119000061,山部,S0119000061,山部
S011900006100000,山部,S0119000061,山部
S0119000062,山部南３丁目,S0119000062,山部南３丁目
S011900006200000,山部南３丁目,S0119000062,山部南３丁目
S0119000063,２１線,S0119000063,２１線
S011900006300000,２１線,S0119000063,２１線
S0119000064,２２線,S0119000064,２２線
S011900006400000,２２線,S0119000064,２２線
S0119000065,山部大橋,S0119000065,山部大橋
S011900006500000,山部大橋,S0119000065,山部大橋
S0119000066,苗圃,S0119000066,苗圃
S011900006600000,苗圃,S0119000066,苗圃
S0119000067,下金山入口,S0119000067,下金山入口
S011900006700000,下金山入口,S0119000067,下金山入口
S0119000068,やなぎ,S0119000068,やなぎ
S011900006800000,やなぎ,S0119000068,やなぎ
S0119000069,東山入口,S0119000069,東山入口
S011900006900000,東山入口,S0119000069,東山入口
S0119000070,東山,S0119000070,東山
S011900007000000,東山,S0119000070,東山
S0119000071,弘雲寺,S0119000071,弘雲寺
S011900007100000,弘雲寺,S0119000071,弘雲寺
S0119000072,樹海中学校,S0119000072,樹海中学校
S011900007200000,樹海中学校,S0119000072,樹海中学校
S0119000073,かえで,S0119000073,かえで
S011900007300000,かえで,S0119000073,かえで
S0119000074,かつら,S0119000074,かつら
S011900007400000,かつら,S0119000074,かつら
S0119000075,大仙寺,S0119000075,大仙寺
S011900007500000,大仙寺,S0119000075,大仙寺
S0119000076,さくら,S0119000076,さくら
S011900007600000,さくら,S0119000076,さくら
S0119000077,神社前［東山］,S0119000077,神社前［東山］
S011900007700000,神社前［東山］,S0119000077,神社前［東山］
S0119000078,おもと,S0119000078,おもと
S011900007800000,おもと,S0119000078,おもと
S0119000079,開拓地,S0119000079,開拓地
S011900007900000,開拓地,S0119000079,開拓地
S0119000080,西達布,S0119000080,西達布
S011900008000000,西達布,S0119000080,西達布
S0119000081,信金前,S0119000081,信金前
S011900008100000,信金前,S0119000081,信金前
S0119000082,フラノマルシェ［麓麻］,S0119000082,フラノマルシェ［麓麻］
S011900008200000,フラノマルシェ［麓麻］,S0119000082,フラノマルシェ［麓麻］
S0119000083,錦町,S0119000083,錦町
S011900008300000,錦町,S0119000083,錦町
S0119000084,東中学校,S0119000084,東中学校
S011900008400000,東中学校,S0119000084,東中学校
S0119000085,北麻町公園,S0119000085,北麻町公園
S011900008500000,北麻町公園,S0119000085,北麻町公園
S0119000086,南麻町,S0119000086,南麻町
S011900008600000,南麻町,S0119000086,南麻町
S0119000087,５線［南麻町］,S0119000087,５線［南麻町］
S011900008700000,５線［南麻町］,S0119000087,５線［南麻町］
S0119000088,６線［南大沼］,S0119000088,６線［南大沼］
S011900008800000,６線［南大沼］,S0119000088,６線［南大沼］
S0119000089,７線［南大沼］,S0119000089,７線［南大沼］
S011900008900000,７線［南大沼］,S0119000089,７線［南大沼］
S0119000090,８線［南大沼］,S0119000090,８線［南大沼］
S011900009000000,８線［南大沼］,S0119000090,８線［南大沼］
S0119000091,９線［南大沼］,S0119000091,９線［南大沼］
S011900009100000,９線［南大沼］,S0119000091,９線［南大沼］
S0119000092,１号,S0119000092,１号
S011900009200000,１号,S0119000092,１号
S0119000093,２号,S0119000093,２号
S011900009300000,２号,S0119000093,２号
S0119000094,３号,S0119000094,３号
S011900009400000,３号,S0119000094,３号
S0119000095,４号,S0119000095,４号
S011900009500000,４号,S0119000095,４号
S0119000096,５号,S0119000096,５号
S011900009600000,５号,S0119000096,５号
S0119000097,６号,S0119000097,６号
S011900009700000,６号,S0119000097,６号
S0119000098,７号,S0119000098,７号
S011900009800000,７号,S0119000098,７号
S0119000099,東町,S0119000099,東町
S011900009900000,東町,S0119000099,東町
S0119000100,春日町,S0119000100,春日町
S011900010000000,春日町,S0119000100,春日町
S0119000101,星野農場,S0119000101,星野農場
S011900010100000,星野農場,S0119000101,星野農場
S0119000102,西入口,S0119000102,西入口
S011900010200000,西入口,S0119000102,西入口
S0119000103,八幡丘,S0119000103,八幡丘
S011900010300000,八幡丘,S0119000103,八幡丘
S0119000104,北八幡丘,S0119000104,北八幡丘
S011900010400000,北八幡丘,S0119000104,北八幡丘
S0119000105,東八幡丘,S0119000105,東八幡丘
S011900010500000,東八幡丘,S0119000105,東八幡丘
S0119000106,布礼別旧道,S0119000106,布礼別旧道
S011900010600000,布礼別旧道,S0119000106,布礼別旧道
S0119000107,西富丘,S0119000107,西富丘
S011900010700000,西富丘,S0119000107,西富丘
S0119000108,東富丘,S0119000108,東富丘
S011900010800000,東富丘,S0119000108,東富丘
S0119000109,西布礼別,S0119000109,西布礼別
S011900010900000,西布礼別,S0119000109,西布礼別
S0119000110,布礼別小学校,S0119000110,布礼別小学校
S011900011000000,布礼別小学校,S0119000110,布礼別小学校
S0119000111,布礼別,S0119000111,布礼別
S011900011100000,布礼別,S0119000111,布礼別
S0119000112,東布礼別,S0119000112,東布礼別
S011900011200000,東布礼別,S0119000112,東布礼別
S0119000113,布礼別会館,S0119000113,布礼別会館
S011900011300000,布礼別会館,S0119000113,布礼別会館
S0119000114,南布礼別,S0119000114,南布礼別
S011900011400000,南布礼別,S0119000114,南布礼別
S0119000115,北１線,S0119000115,北１線
S011900011500000,北１線,S0119000115,北１線
S0119000116,麓郷,S0119000116,麓郷
S011900011600000,麓郷,S0119000116,麓郷
