stop_id,stop_name,similar_stop_id,similar_stop_name
1003_01,釧路駅前バスターミナル,1003_01,釧路駅前バスターミナル
1003_02,釧路駅前バスターミナル,1003_01,釧路駅前バスターミナル
8_01,北陸銀行,8_01,北陸銀行
8_02,北陸銀行,8_01,北陸銀行
9_01,十字街7丁目,9_01,十字街7丁目
9_02,十字街7丁目,9_01,十字街7丁目
10_01,栄町6丁目,10_01,栄町6丁目
10_02,栄町6丁目,10_01,栄町6丁目
11_01,旭町,11_01,旭町
11_02,旭町,11_01,旭町
12_01,駅北口,12_01,駅北口
12_02,駅北口,12_01,駅北口
13_01,道銀前,13_01,道銀前
13_02,道銀前,13_01,道銀前
14_01,三共,14_01,三共
14_02,三共,14_01,三共
15_01,共栄大通り7月丁目,15_01,共栄大通り7月丁目
15_02,共栄大通り7月丁目,15_01,共栄大通り7月丁目
16_01,日赤通り,16_01,日赤通り
16_02,日赤通り,16_01,日赤通り
17_01,大曲,17_01,大曲
17_02,大曲,17_01,大曲
18_01,新橋大通り4丁目,18_01,新橋大通り4丁目
18_02,新橋大通り4丁目,18_01,新橋大通り4丁目
19_01,新橋大通り6丁目,19_01,新橋大通り6丁目
19_02,新橋大通り6丁目,19_01,新橋大通り6丁目
20_01,治水入口,20_01,治水入口
20_02,治水入口,20_01,治水入口
21_01,鳥取大通り2丁目（A）,21_01,鳥取大通り2丁目（A）
21_02,鳥取大通り2丁目（A）,21_01,鳥取大通り2丁目（A）
22_01,鳥取大通り3丁目,22_01,鳥取大通り3丁目
22_02,鳥取大通り3丁目,22_01,鳥取大通り3丁目
23_01,鳥取神社前（A）,23_01,鳥取神社前（A）
23_02,鳥取神社前（A）,23_01,鳥取神社前（A）
24_01,鳥取大通り4丁目,24_01,鳥取大通り4丁目
24_02,鳥取大通り4丁目,24_01,鳥取大通り4丁目
25_01,鳥取大通り5丁目,25_01,鳥取大通り5丁目
25_02,鳥取大通り5丁目,25_01,鳥取大通り5丁目
26_01,運輸支局（A）,26_01,運輸支局（A）
26_02,運輸支局（A）,26_01,運輸支局（A）
27_01,西郵便局前,27_01,西郵便局前
27_02,西郵便局前,27_01,西郵便局前
28_01,鳥取分岐（A）,28_01,鳥取分岐（A）
28_02,鳥取分岐（A）,28_01,鳥取分岐（A）
29_01,鳥取大通り9丁目,29_01,鳥取大通り9丁目
29_02,鳥取大通り9丁目,29_01,鳥取大通り9丁目
30_01,星が浦大通り1丁目,30_01,星が浦大通り1丁目
30_02,星が浦大通り1丁目,30_01,星が浦大通り1丁目
31_01,星が浦ショッピングセンター,31_01,星が浦ショッピングセンター
31_02,星が浦ショッピングセンター,31_01,星が浦ショッピングセンター
32_01,星が浦大通り2丁目,32_01,星が浦大通り2丁目
32_02,星が浦大通り2丁目,32_01,星が浦大通り2丁目
33_01,星が浦大通り3丁目,33_01,星が浦大通り3丁目
33_02,星が浦大通り3丁目,33_01,星が浦大通り3丁目
34_01,星が浦大通り4丁目,34_01,星が浦大通り4丁目
34_02,星が浦大通り4丁目,34_01,星が浦大通り4丁目
35_01,星が浦大通り5丁目,35_01,星が浦大通り5丁目
35_02,星が浦大通り5丁目,35_01,星が浦大通り5丁目
36_01,大楽毛1丁目,36_01,大楽毛1丁目
36_02,大楽毛1丁目,36_01,大楽毛1丁目
37_01,大楽毛2丁目,37_01,大楽毛2丁目
37_02,大楽毛2丁目,37_01,大楽毛2丁目
45_01,試験場前,45_01,試験場前
45_02,試験場前,45_01,試験場前
46_01,鶴野支援学校,46_01,鶴野支援学校
46_02,鶴野支援学校,46_01,鶴野支援学校
47_01,大楽毛北2丁目,47_01,大楽毛北2丁目
47_02,大楽毛北2丁目,47_01,大楽毛北2丁目
48_01,王子社宅前,48_01,王子社宅前
48_02,王子社宅前,48_01,王子社宅前
49_01,王子製紙正門（A）,49_01,王子製紙正門（A）
49_02,王子製紙正門（A）,49_01,王子製紙正門（A）
39_01,大楽毛3丁目,39_01,大楽毛3丁目
39_02,大楽毛3丁目,39_01,大楽毛3丁目
40_01,大楽毛駅前,40_01,大楽毛駅前
40_02,大楽毛駅前,40_01,大楽毛駅前
41_01,大楽毛分岐,41_01,大楽毛分岐
41_02,大楽毛分岐,41_01,大楽毛分岐
42_01,高専前,42_01,高専前
42_02,高専前,42_01,高専前
102_01,鳥取大通り1丁目,102_01,鳥取大通り1丁目
102_02,鳥取大通り1丁目,102_01,鳥取大通り1丁目
103_01,不二橋詰,103_01,不二橋詰
103_02,不二橋詰,103_01,不二橋詰
104_01,昭和3丁目,104_01,昭和3丁目
104_02,昭和3丁目,104_01,昭和3丁目
105_02,昭和4丁目,105_02,昭和4丁目
106_02,昭和中通,106_02,昭和中通
119_01,昭和南3丁目,119_01,昭和南3丁目
119_02,昭和南3丁目,119_01,昭和南3丁目
120_01,農協ビル前,120_01,農協ビル前
120_02,農協ビル前,120_01,農協ビル前
121_01,雄鉄線通り,121_01,雄鉄線通り
121_02,雄鉄線通り,121_01,雄鉄線通り
122_01,昭和南4丁目,122_01,昭和南4丁目
122_02,昭和南4丁目,122_01,昭和南4丁目
123_01,商業高校,123_01,商業高校
123_02,商業高校,123_01,商業高校
107_02,昭和小学校,107_02,昭和小学校
108_02,昭和団地,108_02,昭和団地
109_01,学園橋通り,109_01,学園橋通り
109_02,学園橋通り,109_01,学園橋通り
110_01,昭和中央,110_01,昭和中央
110_02,昭和中央,110_01,昭和中央
111_01,昭和北3丁目,111_01,昭和北3丁目
111_02,昭和北3丁目,111_01,昭和北3丁目
112_01,昭和,112_01,昭和
112_02,昭和,112_01,昭和
113_01,北病院,113_01,北病院
113_02,北病院,113_01,北病院
114_01,イオン昭和店,114_01,イオン昭和店
116_01,昭和中央2丁目,116_01,昭和中央2丁目
116_02,昭和中央2丁目,116_01,昭和中央2丁目
117_01,釧路専門学校,117_01,釧路専門学校
117_02,釧路専門学校,117_01,釧路専門学校
118_01,北橋通り,118_01,北橋通り
118_02,北橋通り,118_01,北橋通り
126_01,鳥取小学校,126_01,鳥取小学校
126_02,鳥取小学校,126_01,鳥取小学校
127_01,はなしのぶ通り,127_01,はなしのぶ通り
127_02,はなしのぶ通り,127_01,はなしのぶ通り
128_01,昭和南5丁目,128_01,昭和南5丁目
128_02,昭和南5丁目,128_01,昭和南5丁目
129_01,西通,129_01,西通
129_02,西通,129_01,西通
130_01,昭和南6−15,130_01,昭和南6−15
130_02,昭和南6−15,130_01,昭和南6−15
131_01,鳥取北6丁目,131_01,鳥取北6丁目
131_02,鳥取北6丁目,131_01,鳥取北6丁目
43_01,よつ葉乳業,43_01,よつ葉乳業
43_02,よつ葉乳業,43_01,よつ葉乳業
50_01,北畜前,50_01,北畜前
50_02,北畜前,50_01,北畜前
51_01,バラス山,51_01,バラス山
51_02,バラス山,51_01,バラス山
52_01,流通センター,52_01,流通センター
52_02,流通センター,52_01,流通センター
53_01,鶴ヶ丘学園,53_01,鶴ヶ丘学園
53_02,鶴ヶ丘学園,53_01,鶴ヶ丘学園
54_01,釧路空港,54_01,釧路空港
200_01,鳥取北10丁目,200_01,鳥取北10丁目
200_02,鳥取北10丁目,200_01,鳥取北10丁目
201_01,星が浦北1−1,201_01,星が浦北1−1
201_02,星が浦北1−1,201_01,星が浦北1−1
202_01,星が浦北1−3,202_01,星が浦北1−3
202_02,星が浦北1−3,202_01,星が浦北1−3
203_01,星が浦北2−4,203_01,星が浦北2−4
203_02,星が浦北2−4,203_01,星が浦北2−4
204_01,星が浦北2−3,204_01,星が浦北2−3
204_02,星が浦北2−3,204_01,星が浦北2−3
205_01,星が浦北3丁目,205_01,星が浦北3丁目
205_02,星が浦北3丁目,205_01,星が浦北3丁目
206_01,鶴野小学校,206_01,鶴野小学校
206_02,鶴野小学校,206_01,鶴野小学校
207_01,鶴野地区会館前,207_01,鶴野地区会館前
207_02,鶴野地区会館前,207_01,鶴野地区会館前
208_01,鶴野ニュータウン入口,208_01,鶴野ニュータウン入口
208_02,鶴野ニュータウン入口,208_01,鶴野ニュータウン入口
211_01,上鶴野,211_01,上鶴野
211_02,上鶴野,211_01,上鶴野
212_01,北斗76番地,212_01,北斗76番地
212_02,北斗76番地,212_01,北斗76番地
213_01,北斗橋,213_01,北斗橋
213_02,北斗橋,213_01,北斗橋
133_01,北斗13番地,133_01,北斗13番地
133_02,北斗13番地,133_01,北斗13番地
134_01,北斗,134_01,北斗
134_02,北斗,134_01,北斗
135_01,28号,135_01,28号
135_02,28号,135_01,28号
136_01,美濃,136_01,美濃
136_02,美濃,136_01,美濃
137_01,25号,137_01,25号
137_02,25号,137_01,25号
138_01,山花,138_01,山花
138_02,山花,138_01,山花
139_01,動物園,139_01,動物園
139_02,動物園,139_01,動物園
140_01,山花温泉リフレ,140_01,山花温泉リフレ
57_01,鶴丘9線,57_01,鶴丘9線
57_02,鶴丘9線,57_01,鶴丘9線
58_01,鶴公園,58_01,鶴公園
58_02,鶴公園,58_01,鶴公園
59_01,十七号,59_01,十七号
59_02,十七号,59_01,十七号
60_01,沼館牧場,60_01,沼館牧場
60_02,沼館牧場,60_01,沼館牧場
61_01,迂遠別変電所,61_01,迂遠別変電所
61_02,迂遠別変電所,61_01,迂遠別変電所
62_01,迂遠別橋,62_01,迂遠別橋
62_02,迂遠別橋,62_01,迂遠別橋
63_01,迂遠別入口,63_01,迂遠別入口
63_02,迂遠別入口,63_01,迂遠別入口
64_01,片山前,64_01,片山前
64_02,片山前,64_01,片山前
65_01,鹿の沢入口,65_01,鹿の沢入口
65_02,鹿の沢入口,65_01,鹿の沢入口
66_01,阿寒町入口,66_01,阿寒町入口
66_02,阿寒町入口,66_01,阿寒町入口
67_01,旭町,67_01,旭町
67_02,旭町,67_01,旭町
68_01,阿寒高校前,68_01,阿寒高校前
68_02,阿寒高校前,68_01,阿寒高校前
69_01,小学校前,69_01,小学校前
69_02,小学校前,69_01,小学校前
70_01,行政センター前,70_01,行政センター前
70_02,行政センター前,70_01,行政センター前
71_01,阿寒町,71_01,阿寒町
71_02,阿寒町,71_01,阿寒町
75_01,18線,75_01,18線
75_02,18線,75_01,18線
76_01,20線,76_01,20線
76_02,20線,76_01,20線
77_01,22線,77_01,22線
77_02,22線,77_01,22線
78_01,丹頂の里,78_01,丹頂の里
79_01,25線,79_01,25線
79_02,25線,79_01,25線
80_01,26線,80_01,26線
80_02,26線,80_01,26線
81_01,27線,81_01,27線
81_02,27線,81_01,27線
82_01,29線,82_01,29線
82_02,29線,82_01,29線
83_01,下徹別,83_01,下徹別
83_02,下徹別,83_01,下徹別
84_01,中徹別,84_01,中徹別
84_02,中徹別,84_01,中徹別
85_01,西徹別入口,85_01,西徹別入口
85_02,西徹別入口,85_01,西徹別入口
86_01,大畑,86_01,大畑
86_02,大畑,86_01,大畑
87_01,第3蘇牛,87_01,第3蘇牛
87_02,第3蘇牛,87_01,第3蘇牛
88_01,47線,88_01,47線
88_02,47線,88_01,47線
89_01,第2上徹別,89_01,第2上徹別
89_02,第2上徹別,89_01,第2上徹別
90_01,上徹別,90_01,上徹別
90_02,上徹別,90_01,上徹別
91_01,第1飽別,91_01,第1飽別
91_02,第1飽別,91_01,第1飽別
92_01,雄阿寒分岐,92_01,雄阿寒分岐
92_02,雄阿寒分岐,92_01,雄阿寒分岐
93_01,滝口,93_01,滝口
93_02,滝口,93_01,滝口
94_01,阿寒湖バスセンター,94_01,阿寒湖バスセンター
1_01,市立病院,1_01,市立病院
1_02,市立病院,1_01,市立病院
2_01,工業高校,2_01,工業高校
2_02,工業高校,2_01,工業高校
3_01,緑ヶ岡入口,3_01,緑ヶ岡入口
3_02,緑ヶ岡入口,3_01,緑ヶ岡入口
4_01,北陽高校,4_01,北陽高校
4_02,北陽高校,4_01,北陽高校
72_01,中学校前,72_01,中学校前
72_02,中学校前,72_01,中学校前
73_01,公民館前,73_01,公民館前
73_02,公民館前,73_01,公民館前
74_01,阿寒診療所,74_01,阿寒診療所
214_01,野生生物保護センター,214_01,野生生物保護センター
214_02,野生生物保護センター,214_01,野生生物保護センター
215_01,北斗坂下,215_01,北斗坂下
215_02,北斗坂下,215_01,北斗坂下
216_01,湿原展望台,216_01,湿原展望台
216_02,湿原展望台,216_01,湿原展望台
217_01,北斗霊園,217_01,北斗霊園
217_02,北斗霊園,217_01,北斗霊園
218_01,温根内ビジターセンター,218_01,温根内ビジターセンター
219_01,夢の杜団地,219_01,夢の杜団地
219_02,夢の杜団地,219_01,夢の杜団地
220_01,学校前,220_01,学校前
220_02,学校前,220_01,学校前
221_01,南2線,221_01,南2線
221_02,南2線,221_01,南2線
222_01,下幌呂,222_01,下幌呂
222_02,下幌呂,222_01,下幌呂
223_01,下雪裡,223_01,下雪裡
223_02,下雪裡,223_01,下雪裡
224_01,鶴見台,224_01,鶴見台
224_02,鶴見台,224_01,鶴見台
225_01,ふか場入口,225_01,ふか場入口
225_02,ふか場入口,225_01,ふか場入口
226_01,7号,226_01,7号
226_02,7号,226_01,7号
227_01,9号,227_01,9号
227_02,9号,227_01,9号
228_01,北11号,228_01,北11号
228_02,北11号,228_01,北11号
229_01,13号線,229_01,13号線
229_02,13号線,229_01,13号線
230_01,役場前,230_01,役場前
230_02,役場前,230_01,役場前
231_01,鶴居中学校,231_01,鶴居中学校
231_02,鶴居中学校,231_01,鶴居中学校
232_01,鶴居,232_01,鶴居
232_02,鶴居,232_01,鶴居
233_01,グリーンパークつるい,233_01,グリーンパークつるい
209_01,鶴野,209_01,鶴野
209_02,鶴野,209_01,鶴野
210_01,中鶴野,210_01,中鶴野
210_02,中鶴野,210_01,中鶴野
235_01,鳥取北9丁目,235_01,鳥取北9丁目
235_02,鳥取北9丁目,235_01,鳥取北9丁目
251_01,ゴルフ場,251_01,ゴルフ場
251_02,ゴルフ場,251_01,ゴルフ場
252_01,基線西1,252_01,基線西1
252_02,基線西1,252_01,基線西1
253_01,下部落,253_01,下部落
253_02,下部落,253_01,下部落
254_01,会館前,254_01,会館前
254_02,会館前,254_01,会館前
255_01,共栄農場,255_01,共栄農場
255_02,共栄農場,255_01,共栄農場
256_01,北3線,256_01,北3線
256_02,北3線,256_01,北3線
257_01,北4線,257_01,北4線
257_02,北4線,257_01,北4線
258_01,公住前,258_01,公住前
258_02,公住前,258_01,公住前
259_01,中幌呂,259_01,中幌呂
259_02,中幌呂,259_01,中幌呂
260_01,郵便局前,260_01,郵便局前
260_02,郵便局前,260_01,郵便局前
261_01,支幌呂分岐,261_01,支幌呂分岐
261_02,支幌呂分岐,261_01,支幌呂分岐
262_01,支幌呂,262_01,支幌呂
262_02,支幌呂,262_01,支幌呂
263_01,基線2号,263_01,基線2号
263_02,基線2号,263_01,基線2号
264_01,北4号,264_01,北4号
264_02,北4号,264_01,北4号
265_01,第1部落,265_01,第1部落
265_02,第1部落,265_01,第1部落
266_01,北6号,266_01,北6号
266_02,北6号,266_01,北6号
267_01,北7号,267_01,北7号
267_02,北7号,267_01,北7号
268_01,上幌呂,268_01,上幌呂
268_02,上幌呂,268_01,上幌呂
269_01,平和,269_01,平和
269_02,平和,269_01,平和
270_01,北1線,270_01,北1線
270_02,北1線,270_01,北1線
271_01,北2線,271_01,北2線
271_02,北2線,271_01,北2線
272_01,幌呂北,272_01,幌呂北
272_02,幌呂北,272_01,幌呂北
273_01,新幌呂,273_01,新幌呂
273_02,新幌呂,273_01,新幌呂
240_01,鶴見橋通,240_01,鶴見橋通
241_01,東川町,241_01,東川町
242_01,景雲中学校,242_01,景雲中学校
243_01,愛国西1丁目,243_01,愛国西1丁目
244_01,愛国東4丁目,244_01,愛国東4丁目
245_01,癌センター前,245_01,癌センター前
245_02,癌センター前,245_01,癌センター前
246_01,光陽町18番地,246_01,光陽町18番地
247_01,入江町15番地,247_01,入江町15番地
236_01,弘宣寺,236_01,弘宣寺
236_02,弘宣寺,236_01,弘宣寺
237_01,鶴野東中央,237_01,鶴野東中央
237_02,鶴野東中央,237_01,鶴野東中央
238_01,鶴野東3丁目,238_01,鶴野東3丁目
238_02,鶴野東3丁目,238_01,鶴野東3丁目
301_01,日赤病院前,301_01,日赤病院前
301_02,日赤病院前,301_01,日赤病院前
302_01,労災病院前,302_01,労災病院前
305_01,イオン釧路店,305_01,イオン釧路店
305_02,イオン釧路店,305_01,イオン釧路店
306_01,JRAウインズ釧路,306_01,JRAウインズ釧路
306_02,JRAウインズ釧路,306_01,JRAウインズ釧路
307_01,トライアル別保店,307_01,トライアル別保店
307_02,トライアル別保店,307_01,トライアル別保店
308_01,別保駅前,308_01,別保駅前
308_02,別保駅前,308_01,別保駅前
309_01,鹿又農園,309_01,鹿又農園
309_02,鹿又農園,309_01,鹿又農園
310_01,南阿歴内,310_01,南阿歴内
310_02,南阿歴内,310_01,南阿歴内
311_01,東阿歴内,311_01,東阿歴内
311_02,東阿歴内,311_01,東阿歴内
312_01,北片無去,312_01,北片無去
312_02,北片無去,312_01,北片無去
313_01,中茶安別,313_01,中茶安別
313_02,中茶安別,313_01,中茶安別
314_01,茶内分岐,314_01,茶内分岐
314_02,茶内分岐,314_01,茶内分岐
315_01,74線,315_01,74線
315_02,74線,315_01,74線
316_01,新富,316_01,新富
316_02,新富,316_01,新富
317_01,拓進,317_01,拓進
317_02,拓進,317_01,拓進
318_01,共春,318_01,共春
319_01,57線,319_01,57線
319_02,57線,319_01,57線
320_01,福島入口,320_01,福島入口
320_02,福島入口,320_01,福島入口
321_01,51線,321_01,51線
321_02,51線,321_01,51線
322_01,上春別,322_01,上春別
322_02,上春別,322_01,上春別
323_01,43線,323_01,43線
323_02,43線,323_01,43線
324_01,40線,324_01,40線
324_02,40線,324_01,40線
325_01,38線,325_01,38線
325_02,38線,325_01,38線
326_01,豊岡,326_01,豊岡
326_02,豊岡,326_01,豊岡
327_01,32線,327_01,32線
327_02,32線,327_01,32線
328_01,30線,328_01,30線
328_02,30線,328_01,30線
329_01,28線,329_01,28線
329_02,28線,329_01,28線
330_01,浄水場前,330_01,浄水場前
330_02,浄水場前,330_01,浄水場前
331_01,中標津小学校前,331_01,中標津小学校前
331_02,中標津小学校前,331_01,中標津小学校前
332_01,町立病院入口,332_01,町立病院入口
332_02,町立病院入口,332_01,町立病院入口
333_01,南町西11条,333_01,南町西11条
333_02,南町西11条,333_01,南町西11条
334_01,中標津高校前,334_01,中標津高校前
334_02,中標津高校前,334_01,中標津高校前
459_01,体育館,459_01,体育館
459_02,体育館,459_01,体育館
460_01,丸山小学校,460_01,丸山小学校
460_02,丸山小学校,460_01,丸山小学校
462_01,泉団地入口,462_01,泉団地入口
462_02,泉団地入口,462_01,泉団地入口
463_01,西児童館,463_01,西児童館
463_02,西児童館,463_01,西児童館
335_01,西4条,335_01,西4条
335_02,西4条,335_01,西4条
336_01,西2条,336_01,西2条
336_02,西2条,336_01,西2条
337_01,中央十字街,337_01,中央十字街
337_02,中央十字街,337_01,中央十字街
338_01,中標津バスターミナル,338_01,中標津バスターミナル
339_01,東5条,339_01,東5条
339_02,東5条,339_01,東5条
340_01,東7条,340_01,東7条
340_02,東7条,340_01,東7条
340_03,東7条,340_01,東7条
341_01,東13条,341_01,東13条
341_02,東13条,341_01,東13条
342_01,公住入口,342_01,公住入口
342_02,公住入口,342_01,公住入口
343_01,開発前,343_01,開発前
343_02,開発前,343_01,開発前
344_01,西20線,344_01,西20線
344_02,西20線,344_01,西20線
345_01,西19線,345_01,西19線
345_02,西19線,345_01,西19線
346_01,西18線,346_01,西18線
346_02,西18線,346_01,西18線
347_01,西17線,347_01,西17線
347_02,西17線,347_01,西17線
348_01,西16線,348_01,西16線
348_02,西16線,348_01,西16線
349_01,俵橋通,349_01,俵橋通
349_02,俵橋通,349_01,俵橋通
350_01,俵橋学校前,350_01,俵橋学校前
350_02,俵橋学校前,350_01,俵橋学校前
351_01,共成,351_01,共成
351_02,共成,351_01,共成
352_01,西9線,352_01,西9線
352_02,西9線,352_01,西9線
353_01,西8線,353_01,西8線
353_02,西8線,353_01,西8線
354_01,町界,354_01,町界
354_02,町界,354_01,町界
355_01,西6線,355_01,西6線
355_02,西6線,355_01,西6線
356_01,西5線,356_01,西5線
356_02,西5線,356_01,西5線
357_01,西4線,357_01,西4線
357_02,西4線,357_01,西4線
358_01,茶志骨会館,358_01,茶志骨会館
358_02,茶志骨会館,358_01,茶志骨会館
359_01,西1線,359_01,西1線
359_02,西1線,359_01,西1線
360_01,東2線,360_01,東2線
360_02,東2線,360_01,東2線
361_01,茶志骨2線,361_01,茶志骨2線
361_02,茶志骨2線,361_01,茶志骨2線
362_01,茶志骨1線,362_01,茶志骨1線
362_02,茶志骨1線,362_01,茶志骨1線
363_01,市街角,363_01,市街角
363_02,市街角,363_01,市街角
364_01,桜木町,364_01,桜木町
364_02,桜木町,364_01,桜木町
365_01,郵便局前,365_01,郵便局前
365_02,郵便局前,365_01,郵便局前
366_01,病院入口,366_01,病院入口
366_02,病院入口,366_01,病院入口
367_01,標津営業所,367_01,標津営業所
368_01,漁協前,368_01,漁協前
368_02,漁協前,368_01,漁協前
369_01,冷凍工場前,369_01,冷凍工場前
369_02,冷凍工場前,369_01,冷凍工場前
370_01,加工団地,370_01,加工団地
370_02,加工団地,370_01,加工団地
371_01,伊茶仁入口,371_01,伊茶仁入口
371_02,伊茶仁入口,371_01,伊茶仁入口
372_01,史跡公園前,372_01,史跡公園前
372_02,史跡公園前,372_01,史跡公園前
373_01,伊茶仁,373_01,伊茶仁
373_02,伊茶仁,373_01,伊茶仁
374_01,8番地,374_01,8番地
374_02,8番地,374_01,8番地
375_01,忠類,375_01,忠類
375_02,忠類,375_01,忠類
376_01,古多糠基線,376_01,古多糠基線
376_02,古多糠基線,376_01,古多糠基線
377_01,古多糠,377_01,古多糠
377_02,古多糠,377_01,古多糠
378_01,薫別,378_01,薫別
378_02,薫別,378_01,薫別
379_01,崎無異,379_01,崎無異
379_02,崎無異,379_01,崎無異
380_01,植別橋,380_01,植別橋
380_02,植別橋,380_01,植別橋
381_01,峯浜入口,381_01,峯浜入口
381_02,峯浜入口,381_01,峯浜入口
382_01,峯浜町,382_01,峯浜町
382_02,峯浜町,382_01,峯浜町
383_01,幌萌町,383_01,幌萌町
383_02,幌萌町,383_01,幌萌町
384_01,運動公園,384_01,運動公園
384_02,運動公園,384_01,運動公園
385_01,春日大川,385_01,春日大川
385_02,春日大川,385_01,春日大川
386_01,春日福祉会館前,386_01,春日福祉会館前
386_02,春日福祉会館前,386_01,春日福祉会館前
387_01,春日中央,387_01,春日中央
387_02,春日中央,387_01,春日中央
388_01,精神川,388_01,精神川
388_02,精神川,388_01,精神川
389_01,麻布福祉会館前,389_01,麻布福祉会館前
389_02,麻布福祉会館前,389_01,麻布福祉会館前
390_01,麻布橋南,390_01,麻布橋南
390_02,麻布橋南,390_01,麻布橋南
391_01,八木浜,391_01,八木浜
391_02,八木浜,391_01,八木浜
392_01,八木浜学校,392_01,八木浜学校
392_02,八木浜学校,392_01,八木浜学校
393_01,知昭中央,393_01,知昭中央
393_02,知昭中央,393_01,知昭中央
394_01,知昭神社,394_01,知昭神社
394_02,知昭神社,394_01,知昭神社
395_01,松法橋詰,395_01,松法橋詰
395_02,松法橋詰,395_01,松法橋詰
396_01,高校前,396_01,高校前
396_02,高校前,396_01,高校前
397_01,礼文入口,397_01,礼文入口
397_02,礼文入口,397_01,礼文入口
398_01,羅臼本町,398_01,羅臼本町
398_02,羅臼本町,398_01,羅臼本町
399_01,富士見町,399_01,富士見町
399_02,富士見町,399_01,富士見町
400_01,羅臼診療所前,400_01,羅臼診療所前
400_02,羅臼診療所前,400_01,羅臼診療所前
401_01,羅臼営業所,401_01,羅臼営業所
410_01,海の公園入口,410_01,海の公園入口
410_02,海の公園入口,410_01,海の公園入口
411_01,西5条,411_01,西5条
411_02,西5条,411_01,西5条
412_01,標津高校前,412_01,標津高校前
412_02,標津高校前,412_01,標津高校前
413_01,病院前,413_01,病院前
413_02,病院前,413_01,病院前
414_01,サーモンパーク入口,414_01,サーモンパーク入口
414_02,サーモンパーク入口,414_01,サーモンパーク入口
415_01,ポー川入口,415_01,ポー川入口
415_02,ポー川入口,415_01,ポー川入口
416_01,Ｃ団地入口,416_01,Ｃ団地入口
416_02,Ｃ団地入口,416_01,Ｃ団地入口
417_01,東2号,417_01,東2号
417_02,東2号,417_01,東2号
418_01,川北,418_01,川北
418_02,川北,418_01,川北
419_01,南3線,419_01,南3線
419_02,南3線,419_01,南3線
420_01,上武佐,420_01,上武佐
420_02,上武佐,420_01,上武佐
421_01,俵橋高台,421_01,俵橋高台
421_02,俵橋高台,421_01,俵橋高台
509_01,中標津町役場前（構内）,509_01,中標津町役場前（構内）
422_01,当幌,422_01,当幌
422_02,当幌,422_01,当幌
423_01,開栄,423_01,開栄
423_02,開栄,423_01,開栄
424_01,センター前,424_01,センター前
424_02,センター前,424_01,センター前
425_01,計根別,425_01,計根別
425_02,計根別,425_01,計根別
426_01,農高前,426_01,農高前
427_01,52線,427_01,52線
427_02,52線,427_01,52線
428_01,54線,428_01,54線
428_02,54線,428_01,54線
429_01,本別会館前,429_01,本別会館前
429_02,本別会館前,429_01,本別会館前
430_01,本別,430_01,本別
430_02,本別,430_01,本別
431_01,柏野,431_01,柏野
431_02,柏野,431_01,柏野
432_01,憲隆寺前,432_01,憲隆寺前
432_02,憲隆寺前,432_01,憲隆寺前
433_01,西春別,433_01,西春別
434_01,交差点,434_01,交差点
434_02,交差点,434_01,交差点
435_01,光進,435_01,光進
435_02,光進,435_01,光進
436_01,泉川,436_01,泉川
436_02,泉川,436_01,泉川
437_01,光進小学校,437_01,光進小学校
437_02,光進小学校,437_01,光進小学校
438_01,風連口,438_01,風連口
438_02,風連口,438_01,風連口
439_01,弥栄小学校前,439_01,弥栄小学校前
439_02,弥栄小学校前,439_01,弥栄小学校前
440_01,農協前,440_01,農協前
440_02,農協前,440_01,農協前
441_01,弥栄,441_01,弥栄
441_02,弥栄,441_01,弥栄
442_01,弥生入口,442_01,弥生入口
442_02,弥生入口,442_01,弥生入口
443_01,多和,443_01,多和
443_02,多和,443_01,多和
444_01,標茶高校前,444_01,標茶高校前
444_02,標茶高校前,444_01,標茶高校前
445_01,標茶町立病院,445_01,標茶町立病院
445_02,標茶町立病院,445_01,標茶町立病院
446_01,標茶駅前,446_01,標茶駅前
500_01,保養所前,500_01,保養所前
501_01,スポーツセンター前,501_01,スポーツセンター前
502_01,団地中央,502_01,団地中央
502_02,団地中央,502_01,団地中央
503_01,東中団地,503_01,東中団地
503_02,東中団地,503_01,東中団地
504_01,東15北6,504_01,東15北6
505_01,第2ひかり幼稚園,505_01,第2ひかり幼稚園
506_01,東12北6,506_01,東12北6
507_01,東11北5,507_01,東11北5
507_02,東11北5,507_01,東11北5
508_01,東中入口,508_01,東中入口
508_02,東中入口,508_01,東中入口
513_01,西町公住,513_01,西町公住
513_02,西町公住,513_01,西町公住
514_01,西町団地,514_01,西町団地
518_01,球場前,518_01,球場前
518_02,球場前,518_01,球場前
519_01,西2北2,519_01,西2北2
519_02,西2北2,519_01,西2北2
522_01,東泉,522_01,東泉
522_02,東泉,522_01,東泉
523_01,泉中央,523_01,泉中央
523_02,泉中央,523_01,泉中央
524_01,泉公住前,524_01,泉公住前
524_02,泉公住前,524_01,泉公住前
525_01,泉団地,525_01,泉団地
525_02,泉団地,525_01,泉団地
526_01,西11北4,526_01,西11北4
526_02,西11北4,526_01,西11北4
532_01,町立病院前,532_01,町立病院前
533_01,東武サウスヒルズ,533_01,東武サウスヒルズ
536_01,高校通り,536_01,高校通り
536_02,高校通り,536_01,高校通り
537_01,神社前,537_01,神社前
537_02,神社前,537_01,神社前
542_01,東児童館,542_01,東児童館
543_01,東7条坂下,543_01,東7条坂下
544_01,東小学校,544_01,東小学校
545_01,すずらん団地,545_01,すずらん団地
546_01,白樺団地,546_01,白樺団地
547_01,フレスポ前,547_01,フレスポ前
548_01,東19南7,548_01,東19南7
549_01,東団地,549_01,東団地
550_01,東14南3,550_01,東14南3
551_01,東11条,551_01,東11条
553_01,土木現業所前,553_01,土木現業所前
553_02,土木現業所前,553_01,土木現業所前
554_01,雪印工場前,554_01,雪印工場前
554_02,雪印工場前,554_01,雪印工場前
557_01,東中会館前,557_01,東中会館前
558_01,団地入口,558_01,団地入口
600_01,住吉町入口,600_01,住吉町入口
600_02,住吉町入口,600_01,住吉町入口
601_01,住吉町,601_01,住吉町
601_02,住吉町,601_01,住吉町
602_01,野付分岐,602_01,野付分岐
602_02,野付分岐,602_01,野付分岐
603_01,茶志骨橋,603_01,茶志骨橋
603_02,茶志骨橋,603_01,茶志骨橋
604_01,ふか場入口,604_01,ふか場入口
604_02,ふか場入口,604_01,ふか場入口
605_01,藤山牧場,605_01,藤山牧場
605_02,藤山牧場,605_02,藤山牧場
606_01,キャンプ場入口,606_01,キャンプ場入口
606_02,キャンプ場入口,606_01,キャンプ場入口
607_01,岬町,607_01,岬町
607_02,岬町,607_01,岬町
608_01,橋詰,608_01,橋詰
608_02,橋詰,608_01,橋詰
609_01,幸栄町,609_01,幸栄町
609_02,幸栄町,609_01,幸栄町
610_01,郵便局前,610_01,郵便局前
610_02,郵便局前,610_01,郵便局前
611_01,尾岱沼,611_01,尾岱沼
611_02,尾岱沼,611_01,尾岱沼
612_01,公営住宅,612_01,公営住宅
612_02,公営住宅,612_01,公営住宅
613_01,野付中学校,613_01,野付中学校
613_02,野付中学校,613_01,野付中学校
614_01,野付小学校,614_01,野付小学校
614_02,野付小学校,614_01,野付小学校
615_01,春別,615_01,春別
615_02,春別,615_01,春別
616_01,春別中央,616_01,春別中央
616_02,春別中央,616_01,春別中央
617_01,白鳥台,617_01,白鳥台
640_01,漁協組合前,640_01,漁協組合前
641_01,洞くつ前,641_01,洞くつ前
642_01,チトライ,642_01,チトライ
643_01,ガゼ岩,643_01,ガゼ岩
644_01,隋道口,644_01,隋道口
645_01,海岸町第一,645_01,海岸町第一
646_01,海岸町第二,646_01,海岸町第二
647_01,神社前,647_01,神社前
648_01,海岸町中央,648_01,海岸町中央
649_01,南橋詰,649_01,南橋詰
650_01,サシルイ,650_01,サシルイ
651_01,サシルイ中央,651_01,サシルイ中央
652_01,天狗岩,652_01,天狗岩
653_01,サクホク橋詰,653_01,サクホク橋詰
654_01,モセカル別中央,654_01,モセカル別中央
655_01,岬町橋詰,655_01,岬町橋詰
656_01,岬町漁港前,656_01,岬町漁港前
657_01,コミュニティセンター前,657_01,コミュニティセンター前
658_01,建根別橋詰,658_01,建根別橋詰
659_01,建根別中央,659_01,建根別中央
660_01,岩見橋詰,660_01,岩見橋詰
818_01,摩周営業所,818_01,摩周営業所
818_02,摩周営業所,818_01,摩周営業所
820_01,布施医院前,820_01,布施医院前
820_02,布施医院前,820_01,布施医院前
821_01,摩周駅前,821_01,摩周駅前
821_02,摩周駅前,821_01,摩周駅前
822_01,農協前,822_01,農協前
822_02,農協前,822_01,農協前
823_01,新市街,823_01,新市街
823_02,新市街,823_01,新市街
826_01,厚生病院前,826_01,厚生病院前
826_02,厚生病院前,826_01,厚生病院前
825_01,おひさま保育園,825_01,おひさま保育園
806_01,見晴台団地,806_01,見晴台団地
806_02,見晴台団地,806_01,見晴台団地
807_01,美里クリニック,807_01,美里クリニック
807_02,美里クリニック,807_01,美里クリニック
805_01,高校前,805_01,高校前
805_02,高校前,805_01,高校前
804_01,高台,804_01,高台
804_02,高台,804_01,高台
817_01,摩周大通り,817_01,摩周大通り
817_02,摩周大通り,817_01,摩周大通り
816_01,摩周大通り橋詰,816_01,摩周大通り橋詰
816_02,摩周大通り橋詰,816_01,摩周大通り橋詰
815_01,すずらん丘,815_01,すずらん丘
815_02,すずらん丘,815_01,すずらん丘
814_01,開発前,814_01,開発前
814_02,開発前,814_01,開発前
862_01,摩周入口,862_01,摩周入口
862_02,摩周入口,862_01,摩周入口
863_01,摩周文化センター,863_01,摩周文化センター
863_02,摩周文化センター,863_01,摩周文化センター
864_01,川湯分岐,864_01,川湯分岐
864_02,川湯分岐,864_01,川湯分岐
865_01,札友内跨線,865_01,札友内跨線
865_02,札友内跨線,865_01,札友内跨線
866_01,第5部落,866_01,第5部落
866_02,第5部落,866_01,第5部落
867_01,美富入口,867_01,美富入口
867_02,美富入口,867_01,美富入口
868_01,ふか場,868_01,ふか場
868_02,ふか場,868_01,ふか場
869_01,第6部落,869_01,第6部落
869_02,第6部落,869_01,第6部落
870_01,美留和,870_01,美留和
870_02,美留和,870_01,美留和
871_01,学校前,871_01,学校前
871_02,学校前,871_01,学校前
872_01,東4号線,872_01,東4号線
872_02,東4号線,872_01,東4号線
873_01,摩周分岐,873_01,摩周分岐
873_02,摩周分岐,873_01,摩周分岐
874_01,川湯駅通り,874_01,川湯駅通り
874_02,川湯駅通り,874_01,川湯駅通り
874_03,川湯駅通り,874_01,川湯駅通り
875_01,川湯駅,875_01,川湯駅
876_01,牧場前,876_01,牧場前
876_02,牧場前,876_01,牧場前
877_01,66線,877_01,66線
877_02,66線,877_01,66線
878_01,苗畑入口,878_01,苗畑入口
878_02,苗畑入口,878_01,苗畑入口
879_01,小学校前,879_01,小学校前
879_02,小学校前,879_01,小学校前
880_01,敷島通り,880_01,敷島通り
880_02,敷島通り,880_01,敷島通り
881_01,役所支所前,881_01,役所支所前
881_02,役所支所前,881_01,役所支所前
882_01,郵便局前,882_01,郵便局前
882_02,郵便局前,882_01,郵便局前
883_01,仁伏通り,883_01,仁伏通り
883_02,仁伏通り,883_01,仁伏通り
885_01,大鵬相撲記念館,885_01,大鵬相撲記念館
800_01,桜町団地,800_01,桜町団地
800_02,桜町団地,800_01,桜町団地
801_01,土木現業所,801_01,土木現業所
801_02,土木現業所,801_01,土木現業所
802_01,桜丘公園前,802_01,桜丘公園前
802_02,桜丘公園前,802_01,桜丘公園前
803_01,鐺別坂下,803_01,鐺別坂下
803_02,鐺別坂下,803_01,鐺別坂下
808_01,鐺別団地前,808_01,鐺別団地前
808_02,鐺別団地前,808_01,鐺別団地前
808_03,鐺別団地前,808_01,鐺別団地前
808_04,鐺別団地前,808_01,鐺別団地前
809_01,弟子屈中学校下,809_01,弟子屈中学校下
809_02,弟子屈中学校下,809_01,弟子屈中学校下
810_01,弟子屈クリニック前,810_01,弟子屈クリニック前
810_02,弟子屈クリニック前,810_01,弟子屈クリニック前
812_01,フクハラ前,812_01,フクハラ前
812_02,フクハラ前,812_01,フクハラ前
813_01,すずらんこども館前,813_01,すずらんこども館前
813_02,すずらんこども館前,813_01,すずらんこども館前
819_01,弟子屈町役場前,819_01,弟子屈町役場前
819_02,弟子屈町役場前,819_01,弟子屈町役場前
824_01,泉1丁目,824_01,泉1丁目
832_01,団地入口,832_01,団地入口
832_02,団地入口,832_01,団地入口
828_01,泉ヶ丘公園前,828_01,泉ヶ丘公園前
829_01,泉ヶ丘団地,829_01,泉ヶ丘団地
830_01,泉4丁目,830_01,泉4丁目
831_01,下鐺別,831_01,下鐺別
901_01,柴田前,901_01,柴田前
901_02,柴田前,901_01,柴田前
902_01,美羅尾スキー場,902_01,美羅尾スキー場
902_02,美羅尾スキー場,902_01,美羅尾スキー場
903_01,美羅尾入口,903_01,美羅尾入口
903_02,美羅尾入口,903_01,美羅尾入口
904_01,札友内,904_01,札友内
904_02,札友内,904_01,札友内
905_01,札友内第2部落,905_01,札友内第2部落
905_02,札友内第2部落,905_01,札友内第2部落
906_01,美留和分岐,906_01,美留和分岐
906_02,美留和分岐,906_01,美留和分岐
907_01,登音洞,907_01,登音洞
907_02,登音洞,907_01,登音洞
908_01,丸山,908_01,丸山
908_02,丸山,908_01,丸山
909_01,古丹分岐,909_01,古丹分岐
909_02,古丹分岐,909_01,古丹分岐
910_01,大曲分岐,910_01,大曲分岐
910_02,大曲分岐,910_01,大曲分岐
911_01,ポント,911_01,ポント
911_02,ポント,911_01,ポント
912_01,旧和琴小学校,912_01,旧和琴小学校
912_02,旧和琴小学校,912_01,旧和琴小学校
913_01,夕暮橋,913_01,夕暮橋
913_02,夕暮橋,913_01,夕暮橋
914_01,和琴入口,914_01,和琴入口
914_02,和琴入口,914_01,和琴入口
915_01,島見橋,915_01,島見橋
915_02,島見橋,915_01,島見橋
918_01,和琴半島,918_01,和琴半島
700_01,美幌駅前,700_01,美幌駅前
701_01,新町1丁目,701_01,新町1丁目
701_02,新町1丁目,701_01,新町1丁目
702_01,国保病院,702_01,国保病院
702_02,国保病院,702_01,国保病院
703_01,コミュニティセンター,703_01,コミュニティセンター
703_02,コミュニティセンター,703_01,コミュニティセンター
704_01,栄町2丁目,704_01,栄町2丁目
704_02,栄町2丁目,704_01,栄町2丁目
705_01,北4丁目,705_01,北4丁目
705_02,北4丁目,705_01,北4丁目
706_01,北3丁目,706_01,北3丁目
706_02,北3丁目,706_01,北3丁目
707_01,北2丁目,707_01,北2丁目
707_02,北2丁目,707_01,北2丁目
708_01,美幌町役場,708_01,美幌町役場
708_02,美幌町役場,708_01,美幌町役場
709_01,町民会館前,709_01,町民会館前
709_02,町民会館前,709_01,町民会館前
710_01,しののめ通り,710_01,しののめ通り
710_02,しののめ通り,710_01,しののめ通り
711_01,三橋南,711_01,三橋南
711_02,三橋南,711_01,三橋南
712_01,三橋1丁目7,712_01,三橋1丁目7
712_02,三橋1丁目7,712_01,三橋1丁目7
713_01,三橋2丁目,713_01,三橋2丁目
713_02,三橋2丁目,713_01,三橋2丁目
714_01,美幌高校,714_01,美幌高校
714_02,美幌高校,714_01,美幌高校
715_01,美幌坂,715_01,美幌坂
715_02,美幌坂,715_01,美幌坂
716_01,三橋1丁目,716_01,三橋1丁目
716_02,三橋1丁目,716_01,三橋1丁目
717_01,自衛隊官舎,717_01,自衛隊官舎
717_02,自衛隊官舎,717_01,自衛隊官舎
718_01,日の出1丁目,718_01,日の出1丁目
718_02,日の出1丁目,718_01,日の出1丁目
719_01,旭団地,719_01,旭団地
719_02,旭団地,719_01,旭団地
720_01,学校前,720_01,学校前
720_02,学校前,720_01,学校前
721_01,マナビティセンター前,721_01,マナビティセンター前
721_02,マナビティセンター前,721_01,マナビティセンター前
722_01,美園団地入口,722_01,美園団地入口
722_02,美園団地入口,722_01,美園団地入口
723_01,稲美89,723_01,稲美89
723_02,稲美89,723_01,稲美89
724_01,美園団地,724_01,美園団地
724_02,美園団地,724_01,美園団地
725_01,美幌クリニック,725_01,美幌クリニック
725_02,美幌クリニック,725_01,美幌クリニック
726_01,ＪＡグランド前,726_01,ＪＡグランド前
726_02,ＪＡグランド前,726_01,ＪＡグランド前
727_01,西1号,727_01,西1号
727_02,西1号,727_01,西1号
728_01,青山南公園,728_01,青山南公園
728_02,青山南公園,728_01,青山南公園
729_01,青葉1丁目7,729_01,青葉1丁目7
729_02,青葉1丁目7,729_01,青葉1丁目7
730_01,青葉1丁目,730_01,青葉1丁目
730_02,青葉1丁目,730_01,青葉1丁目
731_01,青山南,731_01,青山南
731_02,青山南,731_01,青山南
732_01,青山,732_01,青山
732_02,青山,732_01,青山
733_01,陸橋,733_01,陸橋
733_02,陸橋,733_01,陸橋
734_01,北1丁目,734_01,北1丁目
734_02,北1丁目,734_01,北1丁目
735_01,南1丁目,735_01,南1丁目
735_02,南1丁目,735_01,南1丁目
736_01,南2丁目,736_01,南2丁目
736_02,南2丁目,736_01,南2丁目
737_01,野崎団地,737_01,野崎団地
738_01,野崎団地北,738_01,野崎団地北
740_01,南3丁目,740_01,南3丁目
740_02,南3丁目,740_01,南3丁目
741_01,南町公住前,741_01,南町公住前
741_02,南町公住前,741_01,南町公住前
742_01,柏ケ丘公園入口,742_01,柏ケ丘公園入口
742_02,柏ケ丘公園入口,742_01,柏ケ丘公園入口
743_01,元町南,743_01,元町南
743_02,元町南,743_01,元町南
744_01,元町,744_01,元町
744_02,元町,744_01,元町
745_01,元町北,745_01,元町北
745_02,元町北,745_01,元町北
746_01,元町北公園,746_01,元町北公園
746_02,元町北公園,746_01,元町北公園
747_01,鳥里1丁目,747_01,鳥里1丁目
747_02,鳥里1丁目,747_01,鳥里1丁目
748_01,鳥里南公園,748_01,鳥里南公園
748_02,鳥里南公園,748_01,鳥里南公園
749_01,鳥里2丁目,749_01,鳥里2丁目
749_02,鳥里2丁目,749_01,鳥里2丁目
143_01,22号,143_01,22号
143_02,22号,143_01,22号
144_01,21号,144_01,21号
144_02,21号,144_01,21号
145_01,20号,145_01,20号
145_02,20号,145_01,20号
146_01,飛鶴橋,146_01,飛鶴橋
146_02,飛鶴橋,146_01,飛鶴橋
147_01,桜田17号,147_01,桜田17号
147_02,桜田17号,147_01,桜田17号
148_01,15号,148_01,15号
148_02,15号,148_01,15号
149_01,桜田,149_01,桜田
149_02,桜田,149_01,桜田
150_01,13号,150_01,13号
150_02,13号,150_01,13号
55_01,養鶏農場,55_01,養鶏農場
55_02,養鶏農場,55_01,養鶏農場
534_01,南町西5条,534_01,南町西5条
811_01,道の駅「摩周温泉」,811_01,道の駅「摩周温泉」
811_02,道の駅「摩周温泉」,811_01,道の駅「摩周温泉」
884_01,エコミュージアムセンター,884_01,エコミュージアムセンター
884_02,エコミュージアムセンター,884_01,エコミュージアムセンター
916_01,屈斜路プリンスホテル,916_01,屈斜路プリンスホテル
125_01,鳥取神社前（B）,125_01,鳥取神社前（B）
95_01,運輸支局（B）,95_01,運輸支局（B）
234_01,鳥取分岐（B）,234_01,鳥取分岐（B）
101_01,鳥取大通り2丁目（B）,101_01,鳥取大通り2丁目（B）
101_02,鳥取大通り2丁目（B）,101_01,鳥取大通り2丁目（B）
528_01,西4条通,528_01,西4条通
528_02,西4条通,528_01,西4条通
44_01,大楽毛2丁目（B）,44_01,大楽毛2丁目（B）
239_01,鶴野小学校（B）,239_01,鶴野小学校（B）
239_02,鶴野小学校（B）,239_01,鶴野小学校（B）
250_01,下幌呂（B）,250_01,下幌呂（B）
132_01,北斗橋（B）,132_01,北斗橋（B）
132_02,北斗橋（B）,132_01,北斗橋（B）
151_01,迂遠別変電所（B）,151_01,迂遠別変電所（B）
151_02,迂遠別変電所（B）,151_01,迂遠別変電所（B）
38_01,王子製紙正門（B）,38_01,王子製紙正門（B）
38_02,王子製紙正門（B）,38_01,王子製紙正門（B）
115_01,昭和団地（B）,115_01,昭和団地（B）
115_02,昭和団地（B）,115_01,昭和団地（B）
i-576_01,ＭＯＯ都市間バスターミナル,i-576_01,ＭＯＯ都市間バスターミナル
i-577_01,釧路市役所前,i-577_01,釧路市役所前
i-578_01,新大楽毛駅,i-578_01,新大楽毛駅
i-579_01,大楽毛南1丁目,i-579_01,大楽毛南1丁目
i-579_02,大楽毛南1丁目,i-579_01,大楽毛南1丁目
i-580_01,大楽毛南2丁目,i-580_01,大楽毛南2丁目
i-580_02,大楽毛南2丁目,i-580_01,大楽毛南2丁目
i-581_01,大楽毛南3丁目,i-581_01,大楽毛南3丁目
i-581_02,大楽毛南3丁目,i-581_01,大楽毛南3丁目
i-582_01,大楽毛南5丁目,i-582_01,大楽毛南5丁目
i-582_02,大楽毛南5丁目,i-582_01,大楽毛南5丁目
i-583_01,大楽毛南入口,i-583_01,大楽毛南入口
i-583_02,大楽毛南入口,i-583_01,大楽毛南入口
i-584_01,昭和ＳＡ,i-584_01,昭和ＳＡ
i-585_01,イオン昭和東口,i-585_01,イオン昭和東口
i-585_02,イオン昭和東口,i-585_01,イオン昭和東口
i-586_01,大喜湯,i-586_01,大喜湯
841_01,摩周ユース,841_01,摩周ユース
841_02,摩周ユース,841_01,摩周ユース
i-588_01,摩周湖第1展望台,i-588_01,摩周湖第1展望台
