stop_id,stop_name,similar_stop_id,similar_stop_name
S0111000001,有磯営業所前,S0111000001,有磯営業所前
S011100000100000,有磯営業所前,S0111000001,有磯営業所前
S011100000100001,有磯営業所前,S0111000001,有磯営業所前
S0111000003,ゲートボール場前,S0111000003,ゲートボール場前
S011100000300000,ゲートボール場前,S0111000003,ゲートボール場前
S0111000005,駒場町２丁目,S0111000005,駒場町２丁目
S011100000500000,駒場町２丁目,S0111000005,駒場町２丁目
S0111000006,望洋団地東,S0111000006,望洋団地東
S011100000600000,望洋団地東,S0111000006,望洋団地東
S0111000007,望洋団地中央,S0111000007,望洋団地中央
S011100000700000,望洋団地中央,S0111000007,望洋団地中央
S0111000008,望洋団地入口,S0111000008,望洋団地入口
S011100000800000,望洋団地入口,S0111000008,望洋団地入口
S0111000009,北浜町,S0111000009,北浜町
S011100000900000,北浜町,S0111000009,北浜町
S0111000010,琴平町２丁目,S0111000010,琴平町２丁目
S011100001000000,琴平町２丁目,S0111000010,琴平町２丁目
S0111000011,汐見町,S0111000011,汐見町
S011100001100000,汐見町,S0111000011,汐見町
S0111000012,千島町,S0111000012,千島町
S011100001200000,千島町,S0111000012,千島町
S0111000013,市立病院前（根室市）,S0111000013,市立病院前（根室市）
S011100001300000,市立病院前（根室市）,S0111000013,市立病院前（根室市）
S011100001300001,市立病院前（根室市）,S0111000013,市立病院前（根室市）
S0111000014,花咲町二丁目,S0111000014,花咲町二丁目
S011100001400000,花咲町二丁目,S0111000014,花咲町二丁目
S011100001400001,花咲町二丁目,S0111000014,花咲町二丁目
S0111000015,弥栄町一丁目,S0111000015,弥栄町一丁目
S011100001500000,弥栄町一丁目,S0111000015,弥栄町一丁目
S011100001500001,弥栄町一丁目,S0111000015,弥栄町一丁目
S0111000016,市役所前（根室市）,S0111000016,市役所前（根室市）
S011100001600000,市役所前（根室市）,S0111000016,市役所前（根室市）
S011100001600001,市役所前（根室市）,S0111000016,市役所前（根室市）
S0111000017,駅前ターミナル（根室駅）,S0111000017,駅前ターミナル（根室駅）
S011100001700000,駅前ターミナル（根室駅）,S0111000017,駅前ターミナル（根室駅）
S011100001700001,駅前ターミナル（根室駅）,S0111000017,駅前ターミナル（根室駅）
S0111000018,振興局前（根室市）,S0111000018,振興局前（根室市）
S011100001800000,振興局前（根室市）,S0111000018,振興局前（根室市）
S0111000019,中学分岐点,S0111000019,中学分岐点
S011100001900000,中学分岐点,S0111000019,中学分岐点
S0111000020,緑ヶ岡団地入口,S0111000020,緑ヶ岡団地入口
S011100002000000,緑ヶ岡団地入口,S0111000020,緑ヶ岡団地入口
S0111000023,オワッタラウス,S0111000023,オワッタラウス
S011100002300000,オワッタラウス,S0111000023,オワッタラウス
S0111000024,月岡町２丁目,S0111000024,月岡町２丁目
S011100002400000,月岡町２丁目,S0111000024,月岡町２丁目
S0111000025,老人ホーム入口（根室市）,S0111000025,老人ホーム入口（根室市）
S011100002500000,老人ホーム入口（根室市）,S0111000025,老人ホーム入口（根室市）
S0111000026,車石入口,S0111000026,車石入口
S011100002600000,車石入口,S0111000026,車石入口
S0111000027,花咲港,S0111000027,花咲港
S011100002700000,花咲港,S0111000027,花咲港
S0111000028,花咲港中央,S0111000028,花咲港中央
S011100002800000,花咲港中央,S0111000028,花咲港中央
S0111000029,花咲港西,S0111000029,花咲港西
S011100002900000,花咲港西,S0111000029,花咲港西
S0111000030,公住入口［根室市］,S0111000030,公住入口［根室市］
S011100003000000,公住入口［根室市］,S0111000030,公住入口［根室市］
S011100003000001,公住入口［根室市］,S0111000030,公住入口［根室市］
S0111000031,光洋中学校前,S0111000031,光洋中学校前
S011100003100000,光洋中学校前,S0111000031,光洋中学校前
S011100003100001,光洋中学校前,S0111000031,光洋中学校前
S0111000032,無線前,S0111000032,無線前
S011100003200000,無線前,S0111000032,無線前
S011100003200001,無線前,S0111000032,無線前
S0111000033,月ヶ丘分岐点,S0111000033,月ヶ丘分岐点
S011100003300000,月ヶ丘分岐点,S0111000033,月ヶ丘分岐点
S0111000034,曙町,S0111000034,曙町
S011100003400000,曙町,S0111000034,曙町
S0111000035,文化会館前［根室市］,S0111000035,文化会館前［根室市］
S011100003500000,文化会館前［根室市］,S0111000035,文化会館前［根室市］
S0111000036,明治町一丁目,S0111000036,明治町一丁目
S011100003600000,明治町一丁目,S0111000036,明治町一丁目
S0111000037,商工会館前（根室市）,S0111000037,商工会館前（根室市）
S011100003700000,商工会館前（根室市）,S0111000037,商工会館前（根室市）
S011100003700001,商工会館前（根室市）,S0111000037,商工会館前（根室市）
S0111000038,本町五丁目,S0111000038,本町五丁目
S011100003800000,本町五丁目,S0111000038,本町五丁目
S011100003800001,本町五丁目,S0111000038,本町五丁目
S0111000039,郵便局前（根室市）,S0111000039,郵便局前（根室市）
S011100003900000,郵便局前（根室市）,S0111000039,郵便局前（根室市）
S011100003900001,郵便局前（根室市）,S0111000039,郵便局前（根室市）
S0111000040,梅ヶ枝町,S0111000040,梅ヶ枝町
S011100004000000,梅ヶ枝町,S0111000040,梅ヶ枝町
S0111000041,弥生町一丁目,S0111000041,弥生町一丁目
S011100004100000,弥生町一丁目,S0111000041,弥生町一丁目
S0111000042,弥生町二丁目,S0111000042,弥生町二丁目
S011100004200000,弥生町二丁目,S0111000042,弥生町二丁目
S0111000043,緑町二丁目,S0111000043,緑町二丁目
S011100004300000,緑町二丁目,S0111000043,緑町二丁目
S0111000044,駅前信金前,S0111000044,駅前信金前
S011100004400000,駅前信金前,S0111000044,駅前信金前
S011100004400001,駅前信金前,S0111000044,駅前信金前
S0111000045,北斗小学校前,S0111000045,北斗小学校前
S011100004500000,北斗小学校前,S0111000045,北斗小学校前
S011100004500001,北斗小学校前,S0111000045,北斗小学校前
S0111000046,清隆寺前,S0111000046,清隆寺前
S011100004600000,清隆寺前,S0111000046,清隆寺前
S011100004600001,清隆寺前,S0111000046,清隆寺前
S0111000047,セレモニーホール平和前,S0111000047,セレモニーホール平和前
S011100004700000,セレモニーホール平和前,S0111000047,セレモニーホール平和前
S011100004700001,セレモニーホール平和前,S0111000047,セレモニーホール平和前
S0111000048,定基町一丁目,S0111000048,定基町一丁目
S011100004800000,定基町一丁目,S0111000048,定基町一丁目
S011100004800001,定基町一丁目,S0111000048,定基町一丁目
S0111000049,岬町三丁目,S0111000049,岬町三丁目
S011100004900000,岬町三丁目,S0111000049,岬町三丁目
S011100004900001,岬町三丁目,S0111000049,岬町三丁目
S0111000050,共立病院前（根室市）,S0111000050,共立病院前（根室市）
S011100005000000,共立病院前（根室市）,S0111000050,共立病院前（根室市）
S011100005000001,共立病院前（根室市）,S0111000050,共立病院前（根室市）
S0111000051,花園町,S0111000051,花園町
S011100005100000,花園町,S0111000051,花園町
S011100005100001,花園町,S0111000051,花園町
S0111000053,敷島町二丁目,S0111000053,敷島町二丁目
S011100005300000,敷島町二丁目,S0111000053,敷島町二丁目
S0111000054,光和公園前,S0111000054,光和公園前
S011100005400000,光和公園前,S0111000054,光和公園前
S0111000055,光和町三丁目,S0111000055,光和町三丁目
S011100005500000,光和町三丁目,S0111000055,光和町三丁目
S0111000056,市営住宅前［根室市］,S0111000056,市営住宅前［根室市］
S011100005600000,市営住宅前［根室市］,S0111000056,市営住宅前［根室市］
S0111000057,宝林町三丁目,S0111000057,宝林町三丁目
S011100005700000,宝林町三丁目,S0111000057,宝林町三丁目
S0111000059,昭和町三丁目,S0111000059,昭和町三丁目
S011100005900000,昭和町三丁目,S0111000059,昭和町三丁目
S0111000060,成央小学校前,S0111000060,成央小学校前
S011100006000000,成央小学校前,S0111000060,成央小学校前
S0111000061,光洋町一丁目,S0111000061,光洋町一丁目
S011100006100000,光洋町一丁目,S0111000061,光洋町一丁目
S0111000062,光洋町三丁目,S0111000062,光洋町三丁目
S011100006200000,光洋町三丁目,S0111000062,光洋町三丁目
S0111000063,光洋町四丁目,S0111000063,光洋町四丁目
S011100006300000,光洋町四丁目,S0111000063,光洋町四丁目
S0111000064,公住南［根室市］,S0111000064,公住南［根室市］
S011100006400000,公住南［根室市］,S0111000064,公住南［根室市］
S0111000065,公住東［根室市］,S0111000065,公住東［根室市］
S011100006500000,公住東［根室市］,S0111000065,公住東［根室市］
S0111000066,公住北［根室市］,S0111000066,公住北［根室市］
S011100006600000,公住北［根室市］,S0111000066,公住北［根室市］
S0111000067,自衛隊官舎前［根室市］,S0111000067,自衛隊官舎前［根室市］
S011100006700000,自衛隊官舎前［根室市］,S0111000067,自衛隊官舎前［根室市］
S0111000069,光洋町南,S0111000069,光洋町南
S011100006900000,光洋町南,S0111000069,光洋町南
S0111000070,光洋町西,S0111000070,光洋町西
S011100007000000,光洋町西,S0111000070,光洋町西
S0111000071,光洋町二丁目,S0111000071,光洋町二丁目
S011100007100000,光洋町二丁目,S0111000071,光洋町二丁目
S0111000072,緑町一丁目,S0111000072,緑町一丁目
S011100007200000,緑町一丁目,S0111000072,緑町一丁目
S0111000074,運動公園前,S0111000074,運動公園前
S011100007400000,運動公園前,S0111000074,運動公園前
S011100007400001,運動公園前,S0111000074,運動公園前
S0111000075,西浜町２丁目,S0111000075,西浜町２丁目
S011100007500000,西浜町２丁目,S0111000075,西浜町２丁目
S011100007500001,西浜町２丁目,S0111000075,西浜町２丁目
S0111000076,西浜墓地前,S0111000076,西浜墓地前
S011100007600000,西浜墓地前,S0111000076,西浜墓地前
S0111000078,西浜団地前,S0111000078,西浜団地前
S011100007800000,西浜団地前,S0111000078,西浜団地前
S0111000082,穂香,S0111000082,穂香
S011100008200000,穂香,S0111000082,穂香
S0111000083,幌茂尻,S0111000083,幌茂尻
S011100008300000,幌茂尻,S0111000083,幌茂尻
S0111000084,温根沼,S0111000084,温根沼
S011100008400000,温根沼,S0111000084,温根沼
S0111000086,東梅,S0111000086,東梅
S011100008600000,東梅,S0111000086,東梅
S0111000087,ペンケ東梅,S0111000087,ペンケ東梅
S011100008700000,ペンケ東梅,S0111000087,ペンケ東梅
S0111000088,道の駅スワン４４ねむろ,S0111000088,道の駅スワン４４ねむろ
S011100008800000,道の駅スワン４４ねむろ,S0111000088,道の駅スワン４４ねむろ
S0111000089,基線,S0111000089,基線
S011100008900000,基線,S0111000089,基線
S0111000090,川口,S0111000090,川口
S011100009000000,川口,S0111000090,川口
S0111000091,湖南西口,S0111000091,湖南西口
S011100009100000,湖南西口,S0111000091,湖南西口
S0111000092,湖南中央,S0111000092,湖南中央
S011100009200000,湖南中央,S0111000092,湖南中央
S0111000093,厚床小中学校前,S0111000093,厚床小中学校前
S011100009300000,厚床小中学校前,S0111000093,厚床小中学校前
S0111000094,すずらん学園前,S0111000094,すずらん学園前
S011100009400000,すずらん学園前,S0111000094,すずらん学園前
S0111000095,厚床,S0111000095,厚床
S011100009500000,厚床,S0111000095,厚床
S0111000096,西浜ＳＣ前,S0111000096,西浜ＳＣ前
S011100009600000,西浜ＳＣ前,S0111000096,西浜ＳＣ前
S0111000097,宝町一丁目,S0111000097,宝町一丁目
S011100009700000,宝町一丁目,S0111000097,宝町一丁目
S0111000098,厚床駅前,S0111000098,厚床駅前
S011100009800000,厚床駅前,S0111000098,厚床駅前
S0111000099,伊藤牧場前,S0111000099,伊藤牧場前
S011100009900000,伊藤牧場前,S0111000099,伊藤牧場前
S0111000100,奥行,S0111000100,奥行
S011100010000000,奥行,S0111000100,奥行
S0111000101,別海高校前,S0111000101,別海高校前
S011100010100000,別海高校前,S0111000101,別海高校前
S0111000102,別海町交流館ぷらと前,S0111000102,別海町交流館ぷらと前
S011100010200000,別海町交流館ぷらと前,S0111000102,別海町交流館ぷらと前
S011100010200001,別海町交流館ぷらと前,S0111000102,別海町交流館ぷらと前
S0111000103,中春別,S0111000103,中春別
S011100010300000,中春別,S0111000103,中春別
S0111000104,中標津バスターミナル,S0111000104,中標津バスターミナル
S011100010400000,中標津バスターミナル,S0111000104,中標津バスターミナル
S0111000105,中標津町役場前,S0111000105,中標津町役場前
S011100010500000,中標津町役場前,S0111000105,中標津町役場前
S0111000106,道立ゆめの森公園入口,S0111000106,道立ゆめの森公園入口
S011100010600000,道立ゆめの森公園入口,S0111000106,道立ゆめの森公園入口
S0111000107,中標津空港,S0111000107,中標津空港
S011100010700000,中標津空港,S0111000107,中標津空港
S0111000108,明郷,S0111000108,明郷
S011100010800000,明郷,S0111000108,明郷
S0111000109,風連,S0111000109,風連
S011100010900000,風連,S0111000109,風連
S0111000110,旧別海温泉前,S0111000110,旧別海温泉前
S011100011000000,旧別海温泉前,S0111000110,旧別海温泉前
S0111000111,イーストタウン寿,S0111000111,イーストタウン寿
S011100011100000,イーストタウン寿,S0111000111,イーストタウン寿
S0111000112,寿町,S0111000112,寿町
S011100011200000,寿町,S0111000112,寿町
S0111000113,緑町,S0111000113,緑町
S011100011300000,緑町,S0111000113,緑町
S0111000114,競技場入口（別海町）,S0111000114,競技場入口（別海町）
S011100011400000,競技場入口（別海町）,S0111000114,競技場入口（別海町）
S0111000115,川上町,S0111000115,川上町
S011100011500000,川上町,S0111000115,川上町
S0111000116,別海町役場前,S0111000116,別海町役場前
S011100011600000,別海町役場前,S0111000116,別海町役場前
S0111000117,町立別海病院,S0111000117,町立別海病院
S011100011700000,町立別海病院,S0111000117,町立別海病院
S0111000118,信金前（別海町）,S0111000118,信金前（別海町）
S011100011800000,信金前（別海町）,S0111000118,信金前（別海町）
S0111000119,常盤,S0111000119,常盤
S011100011900000,常盤,S0111000119,常盤
S0111000120,宮舞,S0111000120,宮舞
S011100012000000,宮舞,S0111000120,宮舞
S0111000121,平糸,S0111000121,平糸
S011100012100000,平糸,S0111000121,平糸
S0111000122,公住前（別海町）,S0111000122,公住前（別海町）
S011100012200000,公住前（別海町）,S0111000122,公住前（別海町）
S0111000123,協和牧場,S0111000123,協和牧場
S011100012300000,協和牧場,S0111000123,協和牧場
S0111000124,協和,S0111000124,協和
S011100012400000,協和,S0111000124,協和
S0111000125,公社前（中標津町）,S0111000125,公社前（中標津町）
S011100012500000,公社前（中標津町）,S0111000125,公社前（中標津町）
S0111000126,桜ヶ丘,S0111000126,桜ヶ丘
S011100012600000,桜ヶ丘,S0111000126,桜ヶ丘
S0111000127,東武サウスヒルズ前,S0111000127,東武サウスヒルズ前
S011100012700000,東武サウスヒルズ前,S0111000127,東武サウスヒルズ前
S0111000128,町立病院入口（中標津町）,S0111000128,町立病院入口（中標津町）
S011100012800000,町立病院入口（中標津町）,S0111000128,町立病院入口（中標津町）
S0111000129,南町西１１条,S0111000129,南町西１１条
S011100012900000,南町西１１条,S0111000129,南町西１１条
S0111000130,中標津高校前,S0111000130,中標津高校前
S011100013000000,中標津高校前,S0111000130,中標津高校前
S0111000131,西４条通,S0111000131,西４条通
S011100013100000,西４条通,S0111000131,西４条通
S0111000132,中央十字街,S0111000132,中央十字街
S011100013200000,中央十字街,S0111000132,中央十字街
S0111000133,明治町三丁目,S0111000133,明治町三丁目
S011100013300000,明治町三丁目,S0111000133,明治町三丁目
S0111000134,根室高校前,S0111000134,根室高校前
S011100013400000,根室高校前,S0111000134,根室高校前
S0111000135,教員住宅前（根室市）,S0111000135,教員住宅前（根室市）
S011100013500000,教員住宅前（根室市）,S0111000135,教員住宅前（根室市）
S0111000136,新茶屋前,S0111000136,新茶屋前
S011100013600000,新茶屋前,S0111000136,新茶屋前
S0111000137,友知,S0111000137,友知
S011100013700000,友知,S0111000137,友知
S0111000138,ゴルフ場前,S0111000138,ゴルフ場前
S011100013800000,ゴルフ場前,S0111000138,ゴルフ場前
S0111000140,双沖一丁目,S0111000140,双沖一丁目
S011100014000000,双沖一丁目,S0111000140,双沖一丁目
S0111000141,双沖入口,S0111000141,双沖入口
S011100014100000,双沖入口,S0111000141,双沖入口
S0111000142,双沖港,S0111000142,双沖港
S011100014200000,双沖港,S0111000142,双沖港
S0111000143,沖根辺,S0111000143,沖根辺
S011100014300000,沖根辺,S0111000143,沖根辺
S0111000144,第二沖根辺,S0111000144,第二沖根辺
S011100014400000,第二沖根辺,S0111000144,第二沖根辺
S0111000145,引臼,S0111000145,引臼
S011100014500000,引臼,S0111000145,引臼
S0111000146,フラリ,S0111000146,フラリ
S011100014600000,フラリ,S0111000146,フラリ
S0111000148,歯舞郵便局前,S0111000148,歯舞郵便局前
S011100014800000,歯舞郵便局前,S0111000148,歯舞郵便局前
S0111000149,歯舞診療所前,S0111000149,歯舞診療所前
S011100014900000,歯舞診療所前,S0111000149,歯舞診療所前
S0111000150,歯舞信金前,S0111000150,歯舞信金前
S011100015000000,歯舞信金前,S0111000150,歯舞信金前
S0111000151,歯舞神社前,S0111000151,歯舞神社前
S011100015100000,歯舞神社前,S0111000151,歯舞神社前
S0111000152,法泉寺前,S0111000152,法泉寺前
S011100015200000,法泉寺前,S0111000152,法泉寺前
S0111000153,珸瑶瑁,S0111000153,珸瑶瑁
S011100015300000,珸瑶瑁,S0111000153,珸瑶瑁
S0111000154,珸瑶瑁一区,S0111000154,珸瑶瑁一区
S011100015400000,珸瑶瑁一区,S0111000154,珸瑶瑁一区
S0111000155,珸瑶瑁局前,S0111000155,珸瑶瑁局前
S011100015500000,珸瑶瑁局前,S0111000155,珸瑶瑁局前
S0111000157,とりといし,S0111000157,とりといし
S011100015700000,とりといし,S0111000157,とりといし
S0111000158,納沙布岬,S0111000158,納沙布岬
S011100015800000,納沙布岬,S0111000158,納沙布岬
S0111002706,湾中組合前,S0111002706,湾中組合前
S011100270600000,湾中組合前,S0111002706,湾中組合前
S0111002708,栄町,S0111002708,栄町
S011100270800000,栄町,S0111002708,栄町
S0111002709,駒場町入口,S0111002709,駒場町入口
S011100270900000,駒場町入口,S0111002709,駒場町入口
S0111002710,宝林町４丁目,S0111002710,宝林町４丁目
S011100271000000,宝林町４丁目,S0111002710,宝林町４丁目
S0111002711,建設管理部前,S0111002711,建設管理部前
S011100271100000,建設管理部前,S0111002711,建設管理部前
S0111002712,根室花まる前,S0111002712,根室花まる前
S011100271200000,根室花まる前,S0111002712,根室花まる前
S011100271200001,根室花まる前,S0111002712,根室花まる前
S0111002713,柏陵中学校前［旧西浜町４丁目］,S0111002713,柏陵中学校前［旧西浜町４丁目］
S011100271300000,柏陵中学校前［旧西浜町４丁目］,S0111002713,柏陵中学校前［旧西浜町４丁目］
S0111002714,西浜ナオエー前,S0111002714,西浜ナオエー前
S011100271400000,西浜ナオエー前,S0111002714,西浜ナオエー前
S0111002715,ニホロ入口,S0111002715,ニホロ入口
S011100271500000,ニホロ入口,S0111002715,ニホロ入口
S0111002716,自動車学校前,S0111002716,自動車学校前
S011100271600000,自動車学校前,S0111002716,自動車学校前
S0111002717,トモシリ岬入口,S0111002717,トモシリ岬入口
S011100271700000,トモシリ岬入口,S0111002717,トモシリ岬入口
S0111002718,歯舞２丁目,S0111002718,歯舞２丁目
S011100271800000,歯舞２丁目,S0111002718,歯舞２丁目
S0111002719,珸瑶瑁港入口,S0111002719,珸瑶瑁港入口
S011100271900000,珸瑶瑁港入口,S0111002719,珸瑶瑁港入口
