{"type": "FeatureCollection", "features": [{"type": "Feature", "geometry": {"type": "Point", "coordinates": [145.589330970334, 43.334844845673]}, "properties": {"stop_id": "S0111000001", "stop_name": "有磯営業所前", "route_ids": []}}, {"type": "Feature", "geometry": {"type": "Point", "coordinates": [145.589330970334, 43.334844845673]}, "properties": {"stop_id": "S011100000100000", "stop_name": "有磯営業所前", "route_ids": ["R011100002000000", "R011100003000000", "R011100004000000", "R011100004010000", "R011100005000000", "R011100006000000", "R011100006010000", "R011100008000000", "R011100008010000", "R011100805000000", "R011100805010000"]}}, {"type": "Feature", "geometry": {"type": "Point", "coordinates": [145.589330970334, 43.334844845673]}, "properties": {"stop_id": "S011100000100001", "stop_name": "有磯営業所前", "route_ids": ["R011100005000000"]}}, {"type": "Feature", "geometry": {"type": "Point", "coordinates": [145.592420805457, 43.3373706984018]}, "properties": {"stop_id": "S0111000003", "stop_name": "ゲートボール場前", "route_ids": []}}, {"type": "Feature", "geometry": {"type": "Point", "coordinates": [145.592420805457, 43.3373706984018]}, "properties": {"stop_id": "S011100000300000", "stop_name": "ゲートボール場前", "route_ids": ["R011100805000000", "R011100805010000"]}}, {"type": "Feature", "geometry": {"type": "Point", "coordinates": [145.594746711269, 43.3414761964408]}, "properties": {"stop_id": "S0111000005", "stop_name": "駒場町２丁目", "route_ids": []}}, {"type": "Feature", "geometry": {"type": "Point", "coordinates": [145.594746711269, 43.3414761964408]}, "properties": {"stop_id": "S011100000500000", "stop_name": "駒場町２丁目", "route_ids": ["R011100805000000", "R011100805010000"]}}, {"type": "Feature", "geometry": {"type": "Point", "coordinates": [145.597593375735, 43.3460070099027]}, "properties": {"stop_id": "S0111000006", "stop_name": "望洋団地東", "route_ids": []}}, {"type": "Feature", "geometry": {"type": "Point", "coordinates": [145.597593375735, 43.3460070099027]}, "properties": {"stop_id": "S011100000600000", "stop_name": "望洋団地東", "route_ids": ["R011100805000000", "R011100805010000"]}}, {"type": "Feature", "geometry": {"type": "Point", "coordinates": [145.596933637597, 43.3470919262242]}, "properties": {"stop_id": "S0111000007", "stop_name": "望洋団地中央", "route_ids": []}}, {"type": "Feature", "geometry": {"type": "Point", "coordinates": [145.596933637597, 43.3470919262242]}, "properties": {"stop_id": "S011100000700000", "stop_name": "望洋団地中央", "route_ids": ["R011100805000000", "R011100805010000"]}}, {"type": "Feature", "geometry": {"type": "Point", "coordinates": [145.59495454241, 43.3485934117976]}, "properties": {"stop_id": "S0111000008", "stop_name": "望洋団地入口", "route_ids": []}}, {"type": "Feature", "geometry": {"type": "Point", "coordinates": [145.59495454241, 43.3485934117976]}, "properties": {"stop_id": "S011100000800000", "stop_name": "望洋団地入口", "route_ids": ["R011100805000000", "R011100805010000"]}}, {"type": "Feature", "geometry": {"type": "Point", "coordinates": [145.591691036602, 43.3471698520388]}, "properties": {"stop_id": "S0111000009", "stop_name": "北浜町", "route_ids": []}}, {"type": "Feature", "geometry": {"type": "Point", "coordinates": [145.591691036602, 43.3471698520388]}, "properties": {"stop_id": "S011100000900000", "stop_name": "北浜町", "route_ids": ["R011100805000000", "R011100805010000"]}}, {"type": "Feature", "geometry": {"type": "Point", "coordinates": [145.589122009911, 43.3443402349244]}, "properties": {"stop_id": "S0111000010", "stop_name": "琴平町２丁目", "route_ids": []}}, {"type": "Feature", "geometry": {"type": "Point", "coordinates": [145.589122009911, 43.3443402349244]}, "properties": {"stop_id": "S011100001000000", "stop_name": "琴平町２丁目", "route_ids": ["R011100805000000", "R011100805010000"]}}, {"type": "Feature", "geometry": {"type": "Point", "coordinates": [145.58832365175, 43.3416495542778]}, "properties": {"stop_id": "S0111000011", "stop_name": "汐見町", "route_ids": []}}, {"type": "Feature", "geometry": {"type": "Point", "coordinates": [145.58832365175, 43.3416495542778]}, "properties": {"stop_id": "S011100001100000", "stop_name": "汐見町", "route_ids": ["R011100805000000", "R011100805010000"]}}, {"type": "Feature", "geometry": {"type": "Point", "coordinates": [145.58856692608, 43.3381169977289]}, "properties": {"stop_id": "S0111000012", "stop_name": "千島町", "route_ids": []}}, {"type": "Feature", "geometry": {"type": "Point", "coordinates": [145.58856692608, 43.3381169977289]}, "properties": {"stop_id": "S011100001200000", "stop_name": "千島町", "route_ids": ["R011100805000000", "R011100805010000"]}}, {"type": "Feature", "geometry": {"type": "Point", "coordinates": [145.585893800115, 43.3344281041817]}, "properties": {"stop_id": "S0111000013", "stop_name": "市立病院前（根室市）", "route_ids": []}}, {"type": "Feature", "geometry": {"type": "Point", "coordinates": [145.585893800115, 43.3344281041817]}, "properties": {"stop_id": "S011100001300000", "stop_name": "市立病院前（根室市）", "route_ids": ["R011100002000000", "R011100003000000", "R011100004000000", "R011100004010000", "R011100005000000", "R011100008000000", "R011100008010000", "R011100805000000", "R011100805010000"]}}, {"type": "Feature", "geometry": {"type": "Point", "coordinates": [145.585893800115, 43.3344281041817]}, "properties": {"stop_id": "S011100001300001", "stop_name": "市立病院前（根室市）", "route_ids": ["R011100005000000"]}}, {"type": "Feature", "geometry": {"type": "Point", "coordinates": [145.582178869415, 43.3341155069075]}, "properties": {"stop_id": "S0111000014", "stop_name": "花咲町二丁目", "route_ids": []}}, {"type": "Feature", "geometry": {"type": "Point", "coordinates": [145.582178869415, 43.3341155069075]}, "properties": {"stop_id": "S011100001400000", "stop_name": "花咲町二丁目", "route_ids": ["R011100002000000", "R011100003000000", "R011100005000000", "R011100805000000", "R011100805010000"]}}, {"type": "Feature", "geometry": {"type": "Point", "coordinates": [145.582178869415, 43.3341155069075]}, "properties": {"stop_id": "S011100001400001", "stop_name": "花咲町二丁目", "route_ids": ["R011100005000000"]}}, {"type": "Feature", "geometry": {"type": "Point", "coordinates": [145.583289973292, 43.3327875802947]}, "properties": {"stop_id": "S0111000015", "stop_name": "弥栄町一丁目", "route_ids": []}}, {"type": "Feature", "geometry": {"type": "Point", "coordinates": [145.583289973292, 43.3327875802947]}, "properties": {"stop_id": "S011100001500000", "stop_name": "弥栄町一丁目", "route_ids": ["R011100002000000", "R011100003000000", "R011100004000000", "R011100004010000", "R011100005000000", "R011100008000000", "R011100008010000", "R011100805000000", "R011100805010000"]}}, {"type": "Feature", "geometry": {"type": "Point", "coordinates": [145.583289973292, 43.3327875802947]}, "properties": {"stop_id": "S011100001500001", "stop_name": "弥栄町一丁目", "route_ids": ["R011100005000000"]}}, {"type": "Feature", "geometry": {"type": "Point", "coordinates": [145.583081895828, 43.3292897254643]}, "properties": {"stop_id": "S0111000016", "stop_name": "市役所前（根室市）", "route_ids": []}}, {"type": "Feature", "geometry": {"type": "Point", "coordinates": [145.583081895828, 43.3292897254643]}, "properties": {"stop_id": "S011100001600000", "stop_name": "市役所前（根室市）", "route_ids": ["R011100002000000", "R011100003000000", "R011100004000000", "R011100004010000", "R011100005000000", "R011100006000000", "R011100006010000", "R011100008000000", "R011100008010000", "R011100805000000", "R011100805010000"]}}, {"type": "Feature", "geometry": {"type": "Point", "coordinates": [145.583081895828, 43.3292897254643]}, "properties": {"stop_id": "S011100001600001", "stop_name": "市役所前（根室市）", "route_ids": ["R011100005000000", "R011100805000000", "R011100805010000"]}}, {"type": "Feature", "geometry": {"type": "Point", "coordinates": [145.582318221302, 43.3271198173563]}, "properties": {"stop_id": "S0111000017", "stop_name": "駅前ターミナル（根室駅）", "route_ids": []}}, {"type": "Feature", "geometry": {"type": "Point", "coordinates": [145.582318221302, 43.3271198173563]}, "properties": {"stop_id": "S011100001700000", "stop_name": "駅前ターミナル（根室駅）", "route_ids": ["R011100002000000", "R011100003000000", "R011100004000000", "R011100004010000", "R011100005000000", "R011100006000000", "R011100006010000", "R011100008000000", "R011100008010000", "R011100805000000", "R011100805010000"]}}, {"type": "Feature", "geometry": {"type": "Point", "coordinates": [145.582318221302, 43.3271198173563]}, "properties": {"stop_id": "S011100001700001", "stop_name": "駅前ターミナル（根室駅）", "route_ids": ["R011100005000000"]}}, {"type": "Feature", "geometry": {"type": "Point", "coordinates": [145.585651075438, 43.3298713464317]}, "properties": {"stop_id": "S0111000018", "stop_name": "振興局前（根室市）", "route_ids": []}}, {"type": "Feature", "geometry": {"type": "Point", "coordinates": [145.585651075438, 43.3298713464317]}, "properties": {"stop_id": "S011100001800000", "stop_name": "振興局前（根室市）", "route_ids": ["R011100805000000", "R011100805010000"]}}, {"type": "Feature", "geometry": {"type": "Point", "coordinates": [145.588914955778, 43.3257834097758]}, "properties": {"stop_id": "S0111000019", "stop_name": "中学分岐点", "route_ids": []}}, {"type": "Feature", "geometry": {"type": "Point", "coordinates": [145.588914955778, 43.3257834097758]}, "properties": {"stop_id": "S011100001900000", "stop_name": "中学分岐点", "route_ids": ["R011100805000000", "R011100805010000"]}}, {"type": "Feature", "geometry": {"type": "Point", "coordinates": [145.591796894506, 43.3221467944056]}, "properties": {"stop_id": "S0111000020", "stop_name": "緑ヶ岡団地入口", "route_ids": []}}, {"type": "Feature", "geometry": {"type": "Point", "coordinates": [145.591796894506, 43.3221467944056]}, "properties": {"stop_id": "S011100002000000", "stop_name": "緑ヶ岡団地入口", "route_ids": ["R011100805000000", "R011100805010000"]}}, {"type": "Feature", "geometry": {"type": "Point", "coordinates": [145.593152111355, 43.3049266716534]}, "properties": {"stop_id": "S0111000023", "stop_name": "オワッタラウス", "route_ids": []}}, {"type": "Feature", "geometry": {"type": "Point", "coordinates": [145.593152111355, 43.3049266716534]}, "properties": {"stop_id": "S011100002300000", "stop_name": "オワッタラウス", "route_ids": ["R011100805000000", "R011100805010000"]}}, {"type": "Feature", "geometry": {"type": "Point", "coordinates": [145.587180715843, 43.3004565016459]}, "properties": {"stop_id": "S0111000024", "stop_name": "月岡町２丁目", "route_ids": []}}, {"type": "Feature", "geometry": {"type": "Point", "coordinates": [145.587180715843, 43.3004565016459]}, "properties": {"stop_id": "S011100002400000", "stop_name": "月岡町２丁目", "route_ids": ["R011100805000000", "R011100805010000"]}}, {"type": "Feature", "geometry": {"type": "Point", "coordinates": [145.584785202003, 43.2988420238456]}, "properties": {"stop_id": "S0111000025", "stop_name": "老人ホーム入口（根室市）", "route_ids": []}}, {"type": "Feature", "geometry": {"type": "Point", "coordinates": [145.584785202003, 43.2988420238456]}, "properties": {"stop_id": "S011100002500000", "stop_name": "老人ホーム入口（根室市）", "route_ids": ["R011100805000000", "R011100805010000"]}}, {"type": "Feature", "geometry": {"type": "Point", "coordinates": [145.58534109671, 43.2931222388064]}, "properties": {"stop_id": "S0111000026", "stop_name": "車石入口", "route_ids": []}}, {"type": "Feature", "geometry": {"type": "Point", "coordinates": [145.58534109671, 43.2931222388064]}, "properties": {"stop_id": "S011100002600000", "stop_name": "車石入口", "route_ids": ["R011100805000000", "R011100805010000"]}}, {"type": "Feature", "geometry": {"type": "Point", "coordinates": [145.583848584442, 43.2870378396892]}, "properties": {"stop_id": "S0111000027", "stop_name": "花咲港", "route_ids": []}}, {"type": "Feature", "geometry": {"type": "Point", "coordinates": [145.583848584442, 43.2870378396892]}, "properties": {"stop_id": "S011100002700000", "stop_name": "花咲港", "route_ids": ["R011100805000000", "R011100805010000"]}}, {"type": "Feature", "geometry": {"type": "Point", "coordinates": [145.582216799489, 43.2867947540421]}, "properties": {"stop_id": "S0111000028", "stop_name": "花咲港中央", "route_ids": []}}, {"type": "Feature", "geometry": {"type": "Point", "coordinates": [145.582216799489, 43.2867947540421]}, "properties": {"stop_id": "S011100002800000", "stop_name": "花咲港中央", "route_ids": ["R011100805000000", "R011100805010000"]}}, {"type": "Feature", "geometry": {"type": "Point", "coordinates": [145.576661747895, 43.2865428469842]}, "properties": {"stop_id": "S0111000029", "stop_name": "花咲港西", "route_ids": []}}, {"type": "Feature", "geometry": {"type": "Point", "coordinates": [145.576661747895, 43.2865428469842]}, "properties": {"stop_id": "S011100002900000", "stop_name": "花咲港西", "route_ids": ["R011100805000000", "R011100805010000"]}}, {"type": "Feature", "geometry": {"type": "Point", "coordinates": [145.600372588073, 43.3213138707614]}, "properties": {"stop_id": "S0111000030", "stop_name": "公住入口［根室市］", "route_ids": []}}, {"type": "Feature", "geometry": {"type": "Point", "coordinates": [145.600372588073, 43.3213138707614]}, "properties": {"stop_id": "S011100003000000", "stop_name": "公住入口［根室市］", "route_ids": ["R011100002000000", "R011100003000000"]}}, {"type": "Feature", "geometry": {"type": "Point", "coordinates": [145.600372588073, 43.3213138707614]}, "properties": {"stop_id": "S011100003000001", "stop_name": "公住入口［根室市］", "route_ids": ["R011100002000000", "R011100003000000"]}}, {"type": "Feature", "geometry": {"type": "Point", "coordinates": [145.598810055273, 43.3238135165292]}, "properties": {"stop_id": "S0111000031", "stop_name": "光洋中学校前", "route_ids": []}}, {"type": "Feature", "geometry": {"type": "Point", "coordinates": [145.598810055273, 43.3238135165292]}, "properties": {"stop_id": "S011100003100000", "stop_name": "光洋中学校前", "route_ids": ["R011100002000000", "R011100003000000"]}}, {"type": "Feature", "geometry": {"type": "Point", "coordinates": [145.598810055273, 43.3238135165292]}, "properties": {"stop_id": "S011100003100001", "stop_name": "光洋中学校前", "route_ids": ["R011100002000000", "R011100003000000"]}}, {"type": "Feature", "geometry": {"type": "Point", "coordinates": [145.598775075487, 43.3276498639778]}, "properties": {"stop_id": "S0111000032", "stop_name": "無線前", "route_ids": []}}, {"type": "Feature", "geometry": {"type": "Point", "coordinates": [145.598775075487, 43.3276498639778]}, "properties": {"stop_id": "S011100003200000", "stop_name": "無線前", "route_ids": ["R011100002000000", "R011100003000000"]}}, {"type": "Feature", "geometry": {"type": "Point", "coordinates": [145.598775075487, 43.3276498639778]}, "properties": {"stop_id": "S011100003200001", "stop_name": "無線前", "route_ids": ["R011100002000000", "R011100003000000"]}}, {"type": "Feature", "geometry": {"type": "Point", "coordinates": [145.597351373956, 43.3308178379328]}, "properties": {"stop_id": "S0111000033", "stop_name": "月ヶ丘分岐点", "route_ids": []}}, {"type": "Feature", "geometry": {"type": "Point", "coordinates": [145.597351373956, 43.3308178379328]}, "properties": {"stop_id": "S011100003300000", "stop_name": "月ヶ丘分岐点", "route_ids": ["R011100002000000", "R011100003000000", "R011100008000000", "R011100008010000"]}}, {"type": "Feature", "geometry": {"type": "Point", "coordinates": [145.59606665115, 43.3324842596178]}, "properties": {"stop_id": "S0111000034", "stop_name": "曙町", "route_ids": []}}, {"type": "Feature", "geometry": {"type": "Point", "coordinates": [145.59606665115, 43.3324842596178]}, "properties": {"stop_id": "S011100003400000", "stop_name": "曙町", "route_ids": ["R011100002000000", "R011100003000000", "R011100008000000", "R011100008010000"]}}, {"type": "Feature", "geometry": {"type": "Point", "coordinates": [145.591101850651, 43.3318678337972]}, "properties": {"stop_id": "S0111000035", "stop_name": "文化会館前［根室市］", "route_ids": []}}, {"type": "Feature", "geometry": {"type": "Point", "coordinates": [145.591101850651, 43.3318678337972]}, "properties": {"stop_id": "S011100003500000", "stop_name": "文化会館前［根室市］", "route_ids": ["R011100002000000", "R011100003000000"]}}, {"type": "Feature", "geometry": {"type": "Point", "coordinates": [145.593393180123, 43.3338728863116]}, "properties": {"stop_id": "S0111000036", "stop_name": "明治町一丁目", "route_ids": []}}, {"type": "Feature", "geometry": {"type": "Point", "coordinates": [145.593393180123, 43.3338728863116]}, "properties": {"stop_id": "S011100003600000", "stop_name": "明治町一丁目", "route_ids": ["R011100002000000", "R011100003000000", "R011100008000000", "R011100008010000"]}}, {"type": "Feature", "geometry": {"type": "Point", "coordinates": [145.583220383984, 43.3350095353562]}, "properties": {"stop_id": "S0111000037", "stop_name": "商工会館前（根室市）", "route_ids": []}}, {"type": "Feature", "geometry": {"type": "Point", "coordinates": [145.583220383984, 43.3350095353562]}, "properties": {"stop_id": "S011100003700000", "stop_name": "商工会館前（根室市）", "route_ids": ["R011100002000000", "R011100003000000", "R011100005000000"]}}, {"type": "Feature", "geometry": {"type": "Point", "coordinates": [145.583220383984, 43.3350095353562]}, "properties": {"stop_id": "S011100003700001", "stop_name": "商工会館前（根室市）", "route_ids": ["R011100005000000"]}}, {"type": "Feature", "geometry": {"type": "Point", "coordinates": [145.582143947971, 43.337092581612]}, "properties": {"stop_id": "S0111000038", "stop_name": "本町五丁目", "route_ids": []}}, {"type": "Feature", "geometry": {"type": "Point", "coordinates": [145.582143947971, 43.337092581612]}, "properties": {"stop_id": "S011100003800000", "stop_name": "本町五丁目", "route_ids": ["R011100002000000", "R011100003000000", "R011100005000000"]}}, {"type": "Feature", "geometry": {"type": "Point", "coordinates": [145.582143947971, 43.337092581612]}, "properties": {"stop_id": "S011100003800001", "stop_name": "本町五丁目", "route_ids": ["R011100005000000"]}}, {"type": "Feature", "geometry": {"type": "Point", "coordinates": [145.580269151944, 43.3365109857831]}, "properties": {"stop_id": "S0111000039", "stop_name": "郵便局前（根室市）", "route_ids": []}}, {"type": "Feature", "geometry": {"type": "Point", "coordinates": [145.580269151944, 43.3365109857831]}, "properties": {"stop_id": "S011100003900000", "stop_name": "郵便局前（根室市）", "route_ids": ["R011100002000000", "R011100003000000", "R011100005000000"]}}, {"type": "Feature", "geometry": {"type": "Point", "coordinates": [145.580269151944, 43.3365109857831]}, "properties": {"stop_id": "S011100003900001", "stop_name": "郵便局前（根室市）", "route_ids": ["R011100005000000"]}}, {"type": "Feature", "geometry": {"type": "Point", "coordinates": [145.579852657449, 43.3345146807003]}, "properties": {"stop_id": "S0111000040", "stop_name": "梅ヶ枝町", "route_ids": []}}, {"type": "Feature", "geometry": {"type": "Point", "coordinates": [145.579852657449, 43.3345146807003]}, "properties": {"stop_id": "S011100004000000", "stop_name": "梅ヶ枝町", "route_ids": ["R011100002000000", "R011100003000000"]}}, {"type": "Feature", "geometry": {"type": "Point", "coordinates": [145.576485017588, 43.3327439363584]}, "properties": {"stop_id": "S0111000041", "stop_name": "弥生町一丁目", "route_ids": []}}, {"type": "Feature", "geometry": {"type": "Point", "coordinates": [145.576485017588, 43.3327439363584]}, "properties": {"stop_id": "S011100004100000", "stop_name": "弥生町一丁目", "route_ids": ["R011100002000000", "R011100003000000"]}}, {"type": "Feature", "geometry": {"type": "Point", "coordinates": [145.577526632388, 43.3321624461012]}, "properties": {"stop_id": "S0111000042", "stop_name": "弥生町二丁目", "route_ids": []}}, {"type": "Feature", "geometry": {"type": "Point", "coordinates": [145.577526632388, 43.3321624461012]}, "properties": {"stop_id": "S011100004200000", "stop_name": "弥生町二丁目", "route_ids": ["R011100002000000", "R011100003000000"]}}, {"type": "Feature", "geometry": {"type": "Point", "coordinates": [145.579922184835, 43.3332040754282]}, "properties": {"stop_id": "S0111000043", "stop_name": "緑町二丁目", "route_ids": []}}, {"type": "Feature", "geometry": {"type": "Point", "coordinates": [145.579922184835, 43.3332040754282]}, "properties": {"stop_id": "S011100004300000", "stop_name": "緑町二丁目", "route_ids": ["R011100002000000", "R011100003000000"]}}, {"type": "Feature", "geometry": {"type": "Point", "coordinates": [145.581866805979, 43.3280919074654]}, "properties": {"stop_id": "S0111000044", "stop_name": "駅前信金前", "route_ids": []}}, {"type": "Feature", "geometry": {"type": "Point", "coordinates": [145.581866805979, 43.3280919074654]}, "properties": {"stop_id": "S011100004400000", "stop_name": "駅前信金前", "route_ids": ["R011100002000000", "R011100003000000", "R011100005000000"]}}, {"type": "Feature", "geometry": {"type": "Point", "coordinates": [145.581866805979, 43.3280919074654]}, "properties": {"stop_id": "S011100004400001", "stop_name": "駅前信金前", "route_ids": ["R011100005000000"]}}, {"type": "Feature", "geometry": {"type": "Point", "coordinates": [145.577908884044, 43.3271456963275]}, "properties": {"stop_id": "S0111000045", "stop_name": "北斗小学校前", "route_ids": []}}, {"type": "Feature", "geometry": {"type": "Point", "coordinates": [145.577908884044, 43.3271456963275]}, "properties": {"stop_id": "S011100004500000", "stop_name": "北斗小学校前", "route_ids": ["R011100002000000", "R011100003000000", "R011100004000000", "R011100004010000", "R011100005000000", "R011100006000000", "R011100006010000"]}}, {"type": "Feature", "geometry": {"type": "Point", "coordinates": [145.577908884044, 43.3271456963275]}, "properties": {"stop_id": "S011100004500001", "stop_name": "北斗小学校前", "route_ids": ["R011100003000000", "R011100005000000"]}}, {"type": "Feature", "geometry": {"type": "Point", "coordinates": [145.575790904625, 43.3287600107322]}, "properties": {"stop_id": "S0111000046", "stop_name": "清隆寺前", "route_ids": []}}, {"type": "Feature", "geometry": {"type": "Point", "coordinates": [145.575790904625, 43.3287600107322]}, "properties": {"stop_id": "S011100004600000", "stop_name": "清隆寺前", "route_ids": ["R011100002000000", "R011100003000000", "R011100005000000"]}}, {"type": "Feature", "geometry": {"type": "Point", "coordinates": [145.575790904625, 43.3287600107322]}, "properties": {"stop_id": "S011100004600001", "stop_name": "清隆寺前", "route_ids": ["R011100002000000", "R011100003000000", "R011100005000000"]}}, {"type": "Feature", "geometry": {"type": "Point", "coordinates": [145.573985411358, 43.3301747074411]}, "properties": {"stop_id": "S0111000047", "stop_name": "セレモニーホール平和前", "route_ids": []}}, {"type": "Feature", "geometry": {"type": "Point", "coordinates": [145.573985411358, 43.3301747074411]}, "properties": {"stop_id": "S011100004700000", "stop_name": "セレモニーホール平和前", "route_ids": ["R011100002000000", "R011100003000000", "R011100005000000"]}}, {"type": "Feature", "geometry": {"type": "Point", "coordinates": [145.573985411358, 43.3301747074411]}, "properties": {"stop_id": "S011100004700001", "stop_name": "セレモニーホール平和前", "route_ids": ["R011100005000000"]}}, {"type": "Feature", "geometry": {"type": "Point", "coordinates": [145.572596650186, 43.3300878619619]}, "properties": {"stop_id": "S0111000048", "stop_name": "定基町一丁目", "route_ids": []}}, {"type": "Feature", "geometry": {"type": "Point", "coordinates": [145.572596650186, 43.3300878619619]}, "properties": {"stop_id": "S011100004800000", "stop_name": "定基町一丁目", "route_ids": ["R011100002000000", "R011100003000000", "R011100005000000"]}}, {"type": "Feature", "geometry": {"type": "Point", "coordinates": [145.572596650186, 43.3300878619619]}, "properties": {"stop_id": "S011100004800001", "stop_name": "定基町一丁目", "route_ids": ["R011100005000000"]}}, {"type": "Feature", "geometry": {"type": "Point", "coordinates": [145.570513644575, 43.3279526242198]}, "properties": {"stop_id": "S0111000049", "stop_name": "岬町三丁目", "route_ids": []}}, {"type": "Feature", "geometry": {"type": "Point", "coordinates": [145.570513644575, 43.3279526242198]}, "properties": {"stop_id": "S011100004900000", "stop_name": "岬町三丁目", "route_ids": ["R011100002000000", "R011100003000000", "R011100005000000"]}}, {"type": "Feature", "geometry": {"type": "Point", "coordinates": [145.570513644575, 43.3279526242198]}, "properties": {"stop_id": "S011100004900001", "stop_name": "岬町三丁目", "route_ids": ["R011100005000000"]}}, {"type": "Feature", "geometry": {"type": "Point", "coordinates": [145.57034015064, 43.3264510606701]}, "properties": {"stop_id": "S0111000050", "stop_name": "共立病院前（根室市）", "route_ids": []}}, {"type": "Feature", "geometry": {"type": "Point", "coordinates": [145.57034015064, 43.3264510606701]}, "properties": {"stop_id": "S011100005000000", "stop_name": "共立病院前（根室市）", "route_ids": ["R011100002000000", "R011100003000000", "R011100005000000"]}}, {"type": "Feature", "geometry": {"type": "Point", "coordinates": [145.57034015064, 43.3264510606701]}, "properties": {"stop_id": "S011100005000001", "stop_name": "共立病院前（根室市）", "route_ids": ["R011100005000000"]}}, {"type": "Feature", "geometry": {"type": "Point", "coordinates": [145.573013470675, 43.3272843915061]}, "properties": {"stop_id": "S0111000051", "stop_name": "花園町", "route_ids": []}}, {"type": "Feature", "geometry": {"type": "Point", "coordinates": [145.573013470675, 43.3272843915061]}, "properties": {"stop_id": "S011100005100000", "stop_name": "花園町", "route_ids": ["R011100002000000", "R011100003000000", "R011100005000000"]}}, {"type": "Feature", "geometry": {"type": "Point", "coordinates": [145.573013470675, 43.3272843915061]}, "properties": {"stop_id": "S011100005100001", "stop_name": "花園町", "route_ids": ["R011100005000000"]}}, {"type": "Feature", "geometry": {"type": "Point", "coordinates": [145.579644986115, 43.3250366353499]}, "properties": {"stop_id": "S0111000053", "stop_name": "敷島町二丁目", "route_ids": []}}, {"type": "Feature", "geometry": {"type": "Point", "coordinates": [145.579644986115, 43.3250366353499]}, "properties": {"stop_id": "S011100005300000", "stop_name": "敷島町二丁目", "route_ids": ["R011100002000000", "R011100003000000"]}}, {"type": "Feature", "geometry": {"type": "Point", "coordinates": [145.581207394469, 43.3243683687134]}, "properties": {"stop_id": "S0111000054", "stop_name": "光和公園前", "route_ids": []}}, {"type": "Feature", "geometry": {"type": "Point", "coordinates": [145.581207394469, 43.3243683687134]}, "properties": {"stop_id": "S011100005400000", "stop_name": "光和公園前", "route_ids": ["R011100002000000", "R011100003000000"]}}, {"type": "Feature", "geometry": {"type": "Point", "coordinates": [145.582769712066, 43.3250367484466]}, "properties": {"stop_id": "S0111000055", "stop_name": "光和町三丁目", "route_ids": []}}, {"type": "Feature", "geometry": {"type": "Point", "coordinates": [145.582769712066, 43.3250367484466]}, "properties": {"stop_id": "S011100005500000", "stop_name": "光和町三丁目", "route_ids": ["R011100002000000", "R011100003000000"]}}, {"type": "Feature", "geometry": {"type": "Point", "coordinates": [145.587074833476, 43.3258701383828]}, "properties": {"stop_id": "S0111000056", "stop_name": "市営住宅前［根室市］", "route_ids": []}}, {"type": "Feature", "geometry": {"type": "Point", "coordinates": [145.587074833476, 43.3258701383828]}, "properties": {"stop_id": "S011100005600000", "stop_name": "市営住宅前［根室市］", "route_ids": ["R011100002000000", "R011100003000000"]}}, {"type": "Feature", "geometry": {"type": "Point", "coordinates": [145.588428956849, 43.3247592085952]}, "properties": {"stop_id": "S0111000057", "stop_name": "宝林町三丁目", "route_ids": []}}, {"type": "Feature", "geometry": {"type": "Point", "coordinates": [145.588428956849, 43.3247592085952]}, "properties": {"stop_id": "S011100005700000", "stop_name": "宝林町三丁目", "route_ids": ["R011100002000000", "R011100003000000"]}}, {"type": "Feature", "geometry": {"type": "Point", "coordinates": [145.592699293079, 43.3265647037508]}, "properties": {"stop_id": "S0111000059", "stop_name": "昭和町三丁目", "route_ids": []}}, {"type": "Feature", "geometry": {"type": "Point", "coordinates": [145.592699293079, 43.3265647037508]}, "properties": {"stop_id": "S011100005900000", "stop_name": "昭和町三丁目", "route_ids": ["R011100002000000", "R011100003000000"]}}, {"type": "Feature", "geometry": {"type": "Point", "coordinates": [145.59509484441, 43.3276236921586]}, "properties": {"stop_id": "S0111000060", "stop_name": "成央小学校前", "route_ids": []}}, {"type": "Feature", "geometry": {"type": "Point", "coordinates": [145.59509484441, 43.3276236921586]}, "properties": {"stop_id": "S011100006000000", "stop_name": "成央小学校前", "route_ids": ["R011100002000000", "R011100003000000"]}}, {"type": "Feature", "geometry": {"type": "Point", "coordinates": [145.597212654108, 43.328509080077]}, "properties": {"stop_id": "S0111000061", "stop_name": "光洋町一丁目", "route_ids": []}}, {"type": "Feature", "geometry": {"type": "Point", "coordinates": [145.597212654108, 43.328509080077]}, "properties": {"stop_id": "S011100006100000", "stop_name": "光洋町一丁目", "route_ids": ["R011100002000000", "R011100003000000"]}}, {"type": "Feature", "geometry": {"type": "Point", "coordinates": [145.601483501557, 43.3227894297301]}, "properties": {"stop_id": "S0111000062", "stop_name": "光洋町三丁目", "route_ids": []}}, {"type": "Feature", "geometry": {"type": "Point", "coordinates": [145.601483501557, 43.3227894297301]}, "properties": {"stop_id": "S011100006200000", "stop_name": "光洋町三丁目", "route_ids": ["R011100002000000", "R011100003000000"]}}, {"type": "Feature", "geometry": {"type": "Point", "coordinates": [145.604712421695, 43.3222514162804]}, "properties": {"stop_id": "S0111000063", "stop_name": "光洋町四丁目", "route_ids": []}}, {"type": "Feature", "geometry": {"type": "Point", "coordinates": [145.604712421695, 43.3222514162804]}, "properties": {"stop_id": "S011100006300000", "stop_name": "光洋町四丁目", "route_ids": ["R011100002000000", "R011100003000000"]}}, {"type": "Feature", "geometry": {"type": "Point", "coordinates": [145.606483144604, 43.3215918367228]}, "properties": {"stop_id": "S0111000064", "stop_name": "公住南［根室市］", "route_ids": []}}, {"type": "Feature", "geometry": {"type": "Point", "coordinates": [145.606483144604, 43.3215918367228]}, "properties": {"stop_id": "S011100006400000", "stop_name": "公住南［根室市］", "route_ids": ["R011100002000000", "R011100003000000"]}}, {"type": "Feature", "geometry": {"type": "Point", "coordinates": [145.608323205054, 43.3224164579522]}, "properties": {"stop_id": "S0111000065", "stop_name": "公住東［根室市］", "route_ids": []}}, {"type": "Feature", "geometry": {"type": "Point", "coordinates": [145.608323205054, 43.3224164579522]}, "properties": {"stop_id": "S011100006500000", "stop_name": "公住東［根室市］", "route_ids": ["R011100002000000", "R011100003000000"]}}, {"type": "Feature", "geometry": {"type": "Point", "coordinates": [145.605996964671, 43.3232322487867]}, "properties": {"stop_id": "S0111000066", "stop_name": "公住北［根室市］", "route_ids": []}}, {"type": "Feature", "geometry": {"type": "Point", "coordinates": [145.605996964671, 43.3232322487867]}, "properties": {"stop_id": "S011100006600000", "stop_name": "公住北［根室市］", "route_ids": ["R011100002000000", "R011100003000000"]}}, {"type": "Feature", "geometry": {"type": "Point", "coordinates": [145.601587783483, 43.3209580543558]}, "properties": {"stop_id": "S0111000067", "stop_name": "自衛隊官舎前［根室市］", "route_ids": []}}, {"type": "Feature", "geometry": {"type": "Point", "coordinates": [145.601587783483, 43.3209580543558]}, "properties": {"stop_id": "S011100006700000", "stop_name": "自衛隊官舎前［根室市］", "route_ids": ["R011100002000000", "R011100003000000"]}}, {"type": "Feature", "geometry": {"type": "Point", "coordinates": [145.601692261666, 43.3162363981294]}, "properties": {"stop_id": "S0111000069", "stop_name": "光洋町南", "route_ids": []}}, {"type": "Feature", "geometry": {"type": "Point", "coordinates": [145.601692261666, 43.3162363981294]}, "properties": {"stop_id": "S011100006900000", "stop_name": "光洋町南", "route_ids": ["R011100002000000", "R011100003000000"]}}, {"type": "Feature", "geometry": {"type": "Point", "coordinates": [145.600407563656, 43.317538279932]}, "properties": {"stop_id": "S0111000070", "stop_name": "光洋町西", "route_ids": []}}, {"type": "Feature", "geometry": {"type": "Point", "coordinates": [145.600407563656, 43.317538279932]}, "properties": {"stop_id": "S011100007000000", "stop_name": "光洋町西", "route_ids": ["R011100002000000", "R011100003000000"]}}, {"type": "Feature", "geometry": {"type": "Point", "coordinates": [145.600442122513, 43.3198991111854]}, "properties": {"stop_id": "S0111000071", "stop_name": "光洋町二丁目", "route_ids": []}}, {"type": "Feature", "geometry": {"type": "Point", "coordinates": [145.600442122513, 43.3198991111854]}, "properties": {"stop_id": "S011100007100000", "stop_name": "光洋町二丁目", "route_ids": ["R011100002000000", "R011100003000000"]}}, {"type": "Feature", "geometry": {"type": "Point", "coordinates": [145.580442963642, 43.3333342871066]}, "properties": {"stop_id": "S0111000072", "stop_name": "緑町一丁目", "route_ids": []}}, {"type": "Feature", "geometry": {"type": "Point", "coordinates": [145.580442963642, 43.3333342871066]}, "properties": {"stop_id": "S011100007200000", "stop_name": "緑町一丁目", "route_ids": ["R011100003000000"]}}, {"type": "Feature", "geometry": {"type": "Point", "coordinates": [145.570652792932, 43.3239513696984]}, "properties": {"stop_id": "S0111000074", "stop_name": "運動公園前", "route_ids": []}}, {"type": "Feature", "geometry": {"type": "Point", "coordinates": [145.570652792932, 43.3239513696984]}, "properties": {"stop_id": "S011100007400000", "stop_name": "運動公園前", "route_ids": ["R011100004000000", "R011100004010000", "R011100005000000"]}}, {"type": "Feature", "geometry": {"type": "Point", "coordinates": [145.570652792932, 43.3239513696984]}, "properties": {"stop_id": "S011100007400001", "stop_name": "運動公園前", "route_ids": ["R011100005000000"]}}, {"type": "Feature", "geometry": {"type": "Point", "coordinates": [145.566729640841, 43.322258720988]}, "properties": {"stop_id": "S0111000075", "stop_name": "西浜町２丁目", "route_ids": []}}, {"type": "Feature", "geometry": {"type": "Point", "coordinates": [145.566729640841, 43.322258720988]}, "properties": {"stop_id": "S011100007500000", "stop_name": "西浜町２丁目", "route_ids": ["R011100004000000", "R011100004010000", "R011100005000000", "R011100006000000", "R011100006010000"]}}, {"type": "Feature", "geometry": {"type": "Point", "coordinates": [145.566729640841, 43.322258720988]}, "properties": {"stop_id": "S011100007500001", "stop_name": "西浜町２丁目", "route_ids": ["R011100005000000"]}}, {"type": "Feature", "geometry": {"type": "Point", "coordinates": [145.567042182944, 43.321234548719]}, "properties": {"stop_id": "S0111000076", "stop_name": "西浜墓地前", "route_ids": []}}, {"type": "Feature", "geometry": {"type": "Point", "coordinates": [145.567042182944, 43.321234548719]}, "properties": {"stop_id": "S011100007600000", "stop_name": "西浜墓地前", "route_ids": ["R011100004000000", "R011100004010000", "R011100005000000"]}}, {"type": "Feature", "geometry": {"type": "Point", "coordinates": [145.563292778073, 43.3173112691932]}, "properties": {"stop_id": "S0111000078", "stop_name": "西浜団地前", "route_ids": []}}, {"type": "Feature", "geometry": {"type": "Point", "coordinates": [145.563292778073, 43.3173112691932]}, "properties": {"stop_id": "S011100007800000", "stop_name": "西浜団地前", "route_ids": ["R011100004000000", "R011100004010000", "R011100005000000"]}}, {"type": "Feature", "geometry": {"type": "Point", "coordinates": [145.535969351277, 43.3089779401602]}, "properties": {"stop_id": "S0111000082", "stop_name": "穂香", "route_ids": []}}, {"type": "Feature", "geometry": {"type": "Point", "coordinates": [145.535969351277, 43.3089779401602]}, "properties": {"stop_id": "S011100008200000", "stop_name": "穂香", "route_ids": ["R011100004000000", "R011100004010000"]}}, {"type": "Feature", "geometry": {"type": "Point", "coordinates": [145.52312406882, 43.2969823767593]}, "properties": {"stop_id": "S0111000083", "stop_name": "幌茂尻", "route_ids": []}}, {"type": "Feature", "geometry": {"type": "Point", "coordinates": [145.52312406882, 43.2969823767593]}, "properties": {"stop_id": "S011100008300000", "stop_name": "幌茂尻", "route_ids": ["R011100004000000", "R011100004010000"]}}, {"type": "Feature", "geometry": {"type": "Point", "coordinates": [145.505696279465, 43.2787026741469]}, "properties": {"stop_id": "S0111000084", "stop_name": "温根沼", "route_ids": []}}, {"type": "Feature", "geometry": {"type": "Point", "coordinates": [145.505696279465, 43.2787026741469]}, "properties": {"stop_id": "S011100008400000", "stop_name": "温根沼", "route_ids": ["R011100004000000", "R011100004010000", "R011100006000000", "R011100006010000"]}}, {"type": "Feature", "geometry": {"type": "Point", "coordinates": [145.477991035978, 43.2689545710811]}, "properties": {"stop_id": "S0111000086", "stop_name": "東梅", "route_ids": []}}, {"type": "Feature", "geometry": {"type": "Point", "coordinates": [145.477991035978, 43.2689545710811]}, "properties": {"stop_id": "S011100008600000", "stop_name": "東梅", "route_ids": ["R011100004000000", "R011100004010000", "R011100006000000", "R011100006010000"]}}, {"type": "Feature", "geometry": {"type": "Point", "coordinates": [145.450563633606, 43.2579045505759]}, "properties": {"stop_id": "S0111000087", "stop_name": "ペンケ東梅", "route_ids": []}}, {"type": "Feature", "geometry": {"type": "Point", "coordinates": [145.450563633606, 43.2579045505759]}, "properties": {"stop_id": "S011100008700000", "stop_name": "ペンケ東梅", "route_ids": ["R011100004000000", "R011100004010000"]}}, {"type": "Feature", "geometry": {"type": "Point", "coordinates": [145.438029777332, 43.2613759075134]}, "properties": {"stop_id": "S0111000088", "stop_name": "道の駅スワン４４ねむろ", "route_ids": []}}, {"type": "Feature", "geometry": {"type": "Point", "coordinates": [145.438029777332, 43.2613759075134]}, "properties": {"stop_id": "S011100008800000", "stop_name": "道の駅スワン４４ねむろ", "route_ids": ["R011100004000000", "R011100004010000", "R011100006000000", "R011100006010000"]}}, {"type": "Feature", "geometry": {"type": "Point", "coordinates": [145.430981878697, 43.2599869300338]}, "properties": {"stop_id": "S0111000089", "stop_name": "基線", "route_ids": []}}, {"type": "Feature", "geometry": {"type": "Point", "coordinates": [145.430981878697, 43.2599869300338]}, "properties": {"stop_id": "S011100008900000", "stop_name": "基線", "route_ids": ["R011100004000000", "R011100004010000"]}}, {"type": "Feature", "geometry": {"type": "Point", "coordinates": [145.393728445805, 43.2564269842755]}, "properties": {"stop_id": "S0111000090", "stop_name": "川口", "route_ids": []}}, {"type": "Feature", "geometry": {"type": "Point", "coordinates": [145.393728445805, 43.2564269842755]}, "properties": {"stop_id": "S011100009000000", "stop_name": "川口", "route_ids": ["R011100004000000", "R011100004010000"]}}, {"type": "Feature", "geometry": {"type": "Point", "coordinates": [145.342761186553, 43.2492298270356]}, "properties": {"stop_id": "S0111000091", "stop_name": "湖南西口", "route_ids": []}}, {"type": "Feature", "geometry": {"type": "Point", "coordinates": [145.342761186553, 43.2492298270356]}, "properties": {"stop_id": "S011100009100000", "stop_name": "湖南西口", "route_ids": ["R011100004000000", "R011100004010000"]}}, {"type": "Feature", "geometry": {"type": "Point", "coordinates": [145.30123720138, 43.2471192108238]}, "properties": {"stop_id": "S0111000092", "stop_name": "湖南中央", "route_ids": []}}, {"type": "Feature", "geometry": {"type": "Point", "coordinates": [145.30123720138, 43.2471192108238]}, "properties": {"stop_id": "S011100009200000", "stop_name": "湖南中央", "route_ids": ["R011100004000000", "R011100004010000"]}}, {"type": "Feature", "geometry": {"type": "Point", "coordinates": [145.259366911606, 43.2318243912209]}, "properties": {"stop_id": "S0111000093", "stop_name": "厚床小中学校前", "route_ids": []}}, {"type": "Feature", "geometry": {"type": "Point", "coordinates": [145.259366911606, 43.2318243912209]}, "properties": {"stop_id": "S011100009300000", "stop_name": "厚床小中学校前", "route_ids": ["R011100004000000", "R011100004010000"]}}, {"type": "Feature", "geometry": {"type": "Point", "coordinates": [145.24981924941, 43.2302009782036]}, "properties": {"stop_id": "S0111000094", "stop_name": "すずらん学園前", "route_ids": []}}, {"type": "Feature", "geometry": {"type": "Point", "coordinates": [145.24981924941, 43.2302009782036]}, "properties": {"stop_id": "S011100009400000", "stop_name": "すずらん学園前", "route_ids": ["R011100004000000", "R011100004010000"]}}, {"type": "Feature", "geometry": {"type": "Point", "coordinates": [145.251659385675, 43.2298972609866]}, "properties": {"stop_id": "S0111000095", "stop_name": "厚床", "route_ids": []}}, {"type": "Feature", "geometry": {"type": "Point", "coordinates": [145.251659385675, 43.2298972609866]}, "properties": {"stop_id": "S011100009500000", "stop_name": "厚床", "route_ids": ["R011100004000000", "R011100004010000"]}}, {"type": "Feature", "geometry": {"type": "Point", "coordinates": [145.562285701089, 43.3205660534543]}, "properties": {"stop_id": "S0111000096", "stop_name": "西浜ＳＣ前", "route_ids": []}}, {"type": "Feature", "geometry": {"type": "Point", "coordinates": [145.562285701089, 43.3205660534543]}, "properties": {"stop_id": "S011100009600000", "stop_name": "西浜ＳＣ前", "route_ids": ["R011100005000000"]}}, {"type": "Feature", "geometry": {"type": "Point", "coordinates": [145.590094975639, 43.332145542042]}, "properties": {"stop_id": "S0111000097", "stop_name": "宝町一丁目", "route_ids": []}}, {"type": "Feature", "geometry": {"type": "Point", "coordinates": [145.590094975639, 43.332145542042]}, "properties": {"stop_id": "S011100009700000", "stop_name": "宝町一丁目", "route_ids": ["R011100006000000", "R011100006010000"]}}, {"type": "Feature", "geometry": {"type": "Point", "coordinates": [145.252284403489, 43.2288123432789]}, "properties": {"stop_id": "S0111000098", "stop_name": "厚床駅前", "route_ids": []}}, {"type": "Feature", "geometry": {"type": "Point", "coordinates": [145.252284403489, 43.2288123432789]}, "properties": {"stop_id": "S011100009800000", "stop_name": "厚床駅前", "route_ids": ["R011100006000000", "R011100006010000", "R011100007000000", "R011100007010000"]}}, {"type": "Feature", "geometry": {"type": "Point", "coordinates": [145.249852743273, 43.2484540119286]}, "properties": {"stop_id": "S0111000099", "stop_name": "伊藤牧場前", "route_ids": []}}, {"type": "Feature", "geometry": {"type": "Point", "coordinates": [145.249852743273, 43.2484540119286]}, "properties": {"stop_id": "S011100009900000", "stop_name": "伊藤牧場前", "route_ids": ["R011100006000000", "R011100006010000"]}}, {"type": "Feature", "geometry": {"type": "Point", "coordinates": [145.211448954518, 43.3137833831548]}, "properties": {"stop_id": "S0111000100", "stop_name": "奥行", "route_ids": []}}, {"type": "Feature", "geometry": {"type": "Point", "coordinates": [145.211448954518, 43.3137833831548]}, "properties": {"stop_id": "S011100010000000", "stop_name": "奥行", "route_ids": ["R011100006000000", "R011100006010000", "R011100007000000", "R011100007010000"]}}, {"type": "Feature", "geometry": {"type": "Point", "coordinates": [145.129610978054, 43.3867925615471]}, "properties": {"stop_id": "S0111000101", "stop_name": "別海高校前", "route_ids": []}}, {"type": "Feature", "geometry": {"type": "Point", "coordinates": [145.129610978054, 43.3867925615471]}, "properties": {"stop_id": "S011100010100000", "stop_name": "別海高校前", "route_ids": ["R011100006000000", "R011100006010000", "R011100007000000", "R011100007010000"]}}, {"type": "Feature", "geometry": {"type": "Point", "coordinates": [145.127562149127, 43.3927032401698]}, "properties": {"stop_id": "S0111000102", "stop_name": "別海町交流館ぷらと前", "route_ids": []}}, {"type": "Feature", "geometry": {"type": "Point", "coordinates": [145.127562149127, 43.3927032401698]}, "properties": {"stop_id": "S011100010200000", "stop_name": "別海町交流館ぷらと前", "route_ids": ["R011100006000000", "R011100006010000", "R011100007010000"]}}, {"type": "Feature", "geometry": {"type": "Point", "coordinates": [145.127562149127, 43.3927032401698]}, "properties": {"stop_id": "S011100010200001", "stop_name": "別海町交流館ぷらと前", "route_ids": ["R011100007000000"]}}, {"type": "Feature", "geometry": {"type": "Point", "coordinates": [145.058048786153, 43.4759199628103]}, "properties": {"stop_id": "S0111000103", "stop_name": "中春別", "route_ids": []}}, {"type": "Feature", "geometry": {"type": "Point", "coordinates": [145.058048786153, 43.4759199628103]}, "properties": {"stop_id": "S011100010300000", "stop_name": "中春別", "route_ids": ["R011100006000000", "R011100006010000", "R011100007000000", "R011100007010000"]}}, {"type": "Feature", "geometry": {"type": "Point", "coordinates": [144.976453941459, 43.5476358807091]}, "properties": {"stop_id": "S0111000104", "stop_name": "中標津バスターミナル", "route_ids": []}}, {"type": "Feature", "geometry": {"type": "Point", "coordinates": [144.976453941459, 43.5476358807091]}, "properties": {"stop_id": "S011100010400000", "stop_name": "中標津バスターミナル", "route_ids": ["R011100006000000", "R011100006010000", "R011100007000000", "R011100007010000"]}}, {"type": "Feature", "geometry": {"type": "Point", "coordinates": [144.970134551929, 43.5551000376996]}, "properties": {"stop_id": "S0111000105", "stop_name": "中標津町役場前", "route_ids": []}}, {"type": "Feature", "geometry": {"type": "Point", "coordinates": [144.970134551929, 43.5551000376996]}, "properties": {"stop_id": "S011100010500000", "stop_name": "中標津町役場前", "route_ids": ["R011100006000000", "R011100006010000"]}}, {"type": "Feature", "geometry": {"type": "Point", "coordinates": [144.964856338451, 43.5684315845659]}, "properties": {"stop_id": "S0111000106", "stop_name": "道立ゆめの森公園入口", "route_ids": []}}, {"type": "Feature", "geometry": {"type": "Point", "coordinates": [144.964856338451, 43.5684315845659]}, "properties": {"stop_id": "S011100010600000", "stop_name": "道立ゆめの森公園入口", "route_ids": ["R011100006000000", "R011100006010000"]}}, {"type": "Feature", "geometry": {"type": "Point", "coordinates": [144.956349861674, 43.5726755625301]}, "properties": {"stop_id": "S0111000107", "stop_name": "中標津空港", "route_ids": []}}, {"type": "Feature", "geometry": {"type": "Point", "coordinates": [144.956349861674, 43.5726755625301]}, "properties": {"stop_id": "S011100010700000", "stop_name": "中標津空港", "route_ids": ["R011100006000000", "R011100006010000"]}}, {"type": "Feature", "geometry": {"type": "Point", "coordinates": [145.245685805477, 43.2579492580953]}, "properties": {"stop_id": "S0111000108", "stop_name": "明郷", "route_ids": []}}, {"type": "Feature", "geometry": {"type": "Point", "coordinates": [145.245685805477, 43.2579492580953]}, "properties": {"stop_id": "S011100010800000", "stop_name": "明郷", "route_ids": ["R011100007000000", "R011100007010000"]}}, {"type": "Feature", "geometry": {"type": "Point", "coordinates": [145.224540000967, 43.2852195524977]}, "properties": {"stop_id": "S0111000109", "stop_name": "風連", "route_ids": []}}, {"type": "Feature", "geometry": {"type": "Point", "coordinates": [145.224540000967, 43.2852195524977]}, "properties": {"stop_id": "S011100010900000", "stop_name": "風連", "route_ids": ["R011100007000000", "R011100007010000"]}}, {"type": "Feature", "geometry": {"type": "Point", "coordinates": [145.154888626892, 43.3555992778947]}, "properties": {"stop_id": "S0111000110", "stop_name": "旧別海温泉前", "route_ids": []}}, {"type": "Feature", "geometry": {"type": "Point", "coordinates": [145.154888626892, 43.3555992778947]}, "properties": {"stop_id": "S011100011000000", "stop_name": "旧別海温泉前", "route_ids": ["R011100007000000", "R011100007010000"]}}, {"type": "Feature", "geometry": {"type": "Point", "coordinates": [145.128360972549, 43.3885110613713]}, "properties": {"stop_id": "S0111000111", "stop_name": "イーストタウン寿", "route_ids": []}}, {"type": "Feature", "geometry": {"type": "Point", "coordinates": [145.128360972549, 43.3885110613713]}, "properties": {"stop_id": "S011100011100000", "stop_name": "イーストタウン寿", "route_ids": ["R011100007000000", "R011100007010000"]}}, {"type": "Feature", "geometry": {"type": "Point", "coordinates": [145.126034787457, 43.3885370164483]}, "properties": {"stop_id": "S0111000112", "stop_name": "寿町", "route_ids": []}}, {"type": "Feature", "geometry": {"type": "Point", "coordinates": [145.126034787457, 43.3885370164483]}, "properties": {"stop_id": "S011100011200000", "stop_name": "寿町", "route_ids": ["R011100007000000", "R011100007010000"]}}, {"type": "Feature", "geometry": {"type": "Point", "coordinates": [145.122389341852, 43.3875647795551]}, "properties": {"stop_id": "S0111000113", "stop_name": "緑町", "route_ids": []}}, {"type": "Feature", "geometry": {"type": "Point", "coordinates": [145.122389341852, 43.3875647795551]}, "properties": {"stop_id": "S011100011300000", "stop_name": "緑町", "route_ids": ["R011100007000000", "R011100007010000"]}}, {"type": "Feature", "geometry": {"type": "Point", "coordinates": [145.115272083882, 43.3850648228521]}, "properties": {"stop_id": "S0111000114", "stop_name": "競技場入口（別海町）", "route_ids": []}}, {"type": "Feature", "geometry": {"type": "Point", "coordinates": [145.115272083882, 43.3850648228521]}, "properties": {"stop_id": "S011100011400000", "stop_name": "競技場入口（別海町）", "route_ids": ["R011100007000000", "R011100007010000"]}}, {"type": "Feature", "geometry": {"type": "Point", "coordinates": [145.113674909149, 43.3864534885204]}, "properties": {"stop_id": "S0111000115", "stop_name": "川上町", "route_ids": []}}, {"type": "Feature", "geometry": {"type": "Point", "coordinates": [145.113674909149, 43.3864534885204]}, "properties": {"stop_id": "S011100011500000", "stop_name": "川上町", "route_ids": ["R011100007000000", "R011100007010000"]}}, {"type": "Feature", "geometry": {"type": "Point", "coordinates": [145.118083801384, 43.3929806446221]}, "properties": {"stop_id": "S0111000116", "stop_name": "別海町役場前", "route_ids": []}}, {"type": "Feature", "geometry": {"type": "Point", "coordinates": [145.118083801384, 43.3929806446221]}, "properties": {"stop_id": "S011100011600000", "stop_name": "別海町役場前", "route_ids": ["R011100007000000", "R011100007010000"]}}, {"type": "Feature", "geometry": {"type": "Point", "coordinates": [145.123222292363, 43.3921475952363]}, "properties": {"stop_id": "S0111000117", "stop_name": "町立別海病院", "route_ids": []}}, {"type": "Feature", "geometry": {"type": "Point", "coordinates": [145.123222292363, 43.3921475952363]}, "properties": {"stop_id": "S011100011700000", "stop_name": "町立別海病院", "route_ids": ["R011100007000000", "R011100007010000"]}}, {"type": "Feature", "geometry": {"type": "Point", "coordinates": [145.124784581664, 43.3932239115984]}, "properties": {"stop_id": "S0111000118", "stop_name": "信金前（別海町）", "route_ids": []}}, {"type": "Feature", "geometry": {"type": "Point", "coordinates": [145.124784581664, 43.3932239115984]}, "properties": {"stop_id": "S011100011800000", "stop_name": "信金前（別海町）", "route_ids": ["R011100007000000", "R011100007010000"]}}, {"type": "Feature", "geometry": {"type": "Point", "coordinates": [145.122874853071, 43.3958190190934]}, "properties": {"stop_id": "S0111000119", "stop_name": "常盤", "route_ids": []}}, {"type": "Feature", "geometry": {"type": "Point", "coordinates": [145.122874853071, 43.3958190190934]}, "properties": {"stop_id": "S011100011900000", "stop_name": "常盤", "route_ids": ["R011100007000000", "R011100007010000"]}}, {"type": "Feature", "geometry": {"type": "Point", "coordinates": [145.119228971131, 43.40131302342]}, "properties": {"stop_id": "S0111000120", "stop_name": "宮舞", "route_ids": []}}, {"type": "Feature", "geometry": {"type": "Point", "coordinates": [145.119228971131, 43.40131302342]}, "properties": {"stop_id": "S011100012000000", "stop_name": "宮舞", "route_ids": ["R011100007000000", "R011100007010000"]}}, {"type": "Feature", "geometry": {"type": "Point", "coordinates": [145.091382234221, 43.4305880388115]}, "properties": {"stop_id": "S0111000121", "stop_name": "平糸", "route_ids": []}}, {"type": "Feature", "geometry": {"type": "Point", "coordinates": [145.091382234221, 43.4305880388115]}, "properties": {"stop_id": "S011100012100000", "stop_name": "平糸", "route_ids": ["R011100007000000", "R011100007010000"]}}, {"type": "Feature", "geometry": {"type": "Point", "coordinates": [145.060548886581, 43.4711636770786]}, "properties": {"stop_id": "S0111000122", "stop_name": "公住前（別海町）", "route_ids": []}}, {"type": "Feature", "geometry": {"type": "Point", "coordinates": [145.060548886581, 43.4711636770786]}, "properties": {"stop_id": "S011100012200000", "stop_name": "公住前（別海町）", "route_ids": ["R011100007000000", "R011100007010000"]}}, {"type": "Feature", "geometry": {"type": "Point", "coordinates": [145.041069892294, 43.4941116212441]}, "properties": {"stop_id": "S0111000123", "stop_name": "協和牧場", "route_ids": []}}, {"type": "Feature", "geometry": {"type": "Point", "coordinates": [145.041069892294, 43.4941116212441]}, "properties": {"stop_id": "S011100012300000", "stop_name": "協和牧場", "route_ids": ["R011100007000000", "R011100007010000"]}}, {"type": "Feature", "geometry": {"type": "Point", "coordinates": [145.01065419563, 43.519602270325]}, "properties": {"stop_id": "S0111000124", "stop_name": "協和", "route_ids": []}}, {"type": "Feature", "geometry": {"type": "Point", "coordinates": [145.01065419563, 43.519602270325]}, "properties": {"stop_id": "S011100012400000", "stop_name": "協和", "route_ids": ["R011100007000000", "R011100007010000"]}}, {"type": "Feature", "geometry": {"type": "Point", "coordinates": [144.9946823063, 43.535598045863]}, "properties": {"stop_id": "S0111000125", "stop_name": "公社前（中標津町）", "route_ids": []}}, {"type": "Feature", "geometry": {"type": "Point", "coordinates": [144.9946823063, 43.535598045863]}, "properties": {"stop_id": "S011100012500000", "stop_name": "公社前（中標津町）", "route_ids": ["R011100007000000", "R011100007010000"]}}, {"type": "Feature", "geometry": {"type": "Point", "coordinates": [144.981141532566, 43.5401543060476]}, "properties": {"stop_id": "S0111000126", "stop_name": "桜ヶ丘", "route_ids": []}}, {"type": "Feature", "geometry": {"type": "Point", "coordinates": [144.981141532566, 43.5401543060476]}, "properties": {"stop_id": "S011100012600000", "stop_name": "桜ヶ丘", "route_ids": ["R011100007000000", "R011100007010000"]}}, {"type": "Feature", "geometry": {"type": "Point", "coordinates": [144.976281087057, 43.5366996843]}, "properties": {"stop_id": "S0111000127", "stop_name": "東武サウスヒルズ前", "route_ids": []}}, {"type": "Feature", "geometry": {"type": "Point", "coordinates": [144.976281087057, 43.5366996843]}, "properties": {"stop_id": "S011100012700000", "stop_name": "東武サウスヒルズ前", "route_ids": ["R011100007000000", "R011100007010000"]}}, {"type": "Feature", "geometry": {"type": "Point", "coordinates": [144.971524646608, 43.5354930609765]}, "properties": {"stop_id": "S0111000128", "stop_name": "町立病院入口（中標津町）", "route_ids": []}}, {"type": "Feature", "geometry": {"type": "Point", "coordinates": [144.971524646608, 43.5354930609765]}, "properties": {"stop_id": "S011100012800000", "stop_name": "町立病院入口（中標津町）", "route_ids": ["R011100007000000", "R011100007010000"]}}, {"type": "Feature", "geometry": {"type": "Point", "coordinates": [144.972219067046, 43.5349375968503]}, "properties": {"stop_id": "S0111000129", "stop_name": "南町西１１条", "route_ids": []}}, {"type": "Feature", "geometry": {"type": "Point", "coordinates": [144.972219067046, 43.5349375968503]}, "properties": {"stop_id": "S011100012900000", "stop_name": "南町西１１条", "route_ids": ["R011100007000000", "R011100007010000"]}}, {"type": "Feature", "geometry": {"type": "Point", "coordinates": [144.972669942389, 43.541924623447]}, "properties": {"stop_id": "S0111000130", "stop_name": "中標津高校前", "route_ids": []}}, {"type": "Feature", "geometry": {"type": "Point", "coordinates": [144.972669942389, 43.541924623447]}, "properties": {"stop_id": "S011100013000000", "stop_name": "中標津高校前", "route_ids": ["R011100007000000", "R011100007010000"]}}, {"type": "Feature", "geometry": {"type": "Point", "coordinates": [144.968885350266, 43.5449623183035]}, "properties": {"stop_id": "S0111000131", "stop_name": "西４条通", "route_ids": []}}, {"type": "Feature", "geometry": {"type": "Point", "coordinates": [144.968885350266, 43.5449623183035]}, "properties": {"stop_id": "S011100013100000", "stop_name": "西４条通", "route_ids": ["R011100007000000", "R011100007010000"]}}, {"type": "Feature", "geometry": {"type": "Point", "coordinates": [144.973606923757, 43.5483474988873]}, "properties": {"stop_id": "S0111000132", "stop_name": "中央十字街", "route_ids": []}}, {"type": "Feature", "geometry": {"type": "Point", "coordinates": [144.973606923757, 43.5483474988873]}, "properties": {"stop_id": "S011100013200000", "stop_name": "中央十字街", "route_ids": ["R011100007000000", "R011100007010000"]}}, {"type": "Feature", "geometry": {"type": "Point", "coordinates": [145.599990081002, 43.3300888536414]}, "properties": {"stop_id": "S0111000133", "stop_name": "明治町三丁目", "route_ids": []}}, {"type": "Feature", "geometry": {"type": "Point", "coordinates": [145.599990081002, 43.3300888536414]}, "properties": {"stop_id": "S011100013300000", "stop_name": "明治町三丁目", "route_ids": ["R011100008000000", "R011100008010000"]}}, {"type": "Feature", "geometry": {"type": "Point", "coordinates": [145.604260569964, 43.3296463526705]}, "properties": {"stop_id": "S0111000134", "stop_name": "根室高校前", "route_ids": []}}, {"type": "Feature", "geometry": {"type": "Point", "coordinates": [145.604260569964, 43.3296463526705]}, "properties": {"stop_id": "S011100013400000", "stop_name": "根室高校前", "route_ids": ["R011100008000000", "R011100008010000"]}}, {"type": "Feature", "geometry": {"type": "Point", "coordinates": [145.608149196949, 43.3284834375547]}, "properties": {"stop_id": "S0111000135", "stop_name": "教員住宅前（根室市）", "route_ids": []}}, {"type": "Feature", "geometry": {"type": "Point", "coordinates": [145.608149196949, 43.3284834375547]}, "properties": {"stop_id": "S011100013500000", "stop_name": "教員住宅前（根室市）", "route_ids": ["R011100008000000", "R011100008010000"]}}, {"type": "Feature", "geometry": {"type": "Point", "coordinates": [145.633043250541, 43.3225649052549]}, "properties": {"stop_id": "S0111000136", "stop_name": "新茶屋前", "route_ids": []}}, {"type": "Feature", "geometry": {"type": "Point", "coordinates": [145.633043250541, 43.3225649052549]}, "properties": {"stop_id": "S011100013600000", "stop_name": "新茶屋前", "route_ids": ["R011100008000000", "R011100008010000"]}}, {"type": "Feature", "geometry": {"type": "Point", "coordinates": [145.657242496094, 43.3229042836426]}, "properties": {"stop_id": "S0111000137", "stop_name": "友知", "route_ids": []}}, {"type": "Feature", "geometry": {"type": "Point", "coordinates": [145.657242496094, 43.3229042836426]}, "properties": {"stop_id": "S011100013700000", "stop_name": "友知", "route_ids": ["R011100008000000", "R011100008010000"]}}, {"type": "Feature", "geometry": {"type": "Point", "coordinates": [145.668838396662, 43.3274006966548]}, "properties": {"stop_id": "S0111000138", "stop_name": "ゴルフ場前", "route_ids": []}}, {"type": "Feature", "geometry": {"type": "Point", "coordinates": [145.668838396662, 43.3274006966548]}, "properties": {"stop_id": "S011100013800000", "stop_name": "ゴルフ場前", "route_ids": ["R011100008000000", "R011100008010000"]}}, {"type": "Feature", "geometry": {"type": "Point", "coordinates": [145.688246345207, 43.3284863408951]}, "properties": {"stop_id": "S0111000140", "stop_name": "双沖一丁目", "route_ids": []}}, {"type": "Feature", "geometry": {"type": "Point", "coordinates": [145.688246345207, 43.3284863408951]}, "properties": {"stop_id": "S011100014000000", "stop_name": "双沖一丁目", "route_ids": ["R011100008000000", "R011100008010000"]}}, {"type": "Feature", "geometry": {"type": "Point", "coordinates": [145.693002793943, 43.3296495694733]}, "properties": {"stop_id": "S0111000141", "stop_name": "双沖入口", "route_ids": []}}, {"type": "Feature", "geometry": {"type": "Point", "coordinates": [145.693002793943, 43.3296495694733]}, "properties": {"stop_id": "S011100014100000", "stop_name": "双沖入口", "route_ids": ["R011100008000000", "R011100008010000"]}}, {"type": "Feature", "geometry": {"type": "Point", "coordinates": [145.697134338779, 43.3302052088241]}, "properties": {"stop_id": "S0111000142", "stop_name": "双沖港", "route_ids": []}}, {"type": "Feature", "geometry": {"type": "Point", "coordinates": [145.697134338779, 43.3302052088241]}, "properties": {"stop_id": "S011100014200000", "stop_name": "双沖港", "route_ids": ["R011100008000000", "R011100008010000"]}}, {"type": "Feature", "geometry": {"type": "Point", "coordinates": [145.709042577265, 43.3366805647925]}, "properties": {"stop_id": "S0111000143", "stop_name": "沖根辺", "route_ids": []}}, {"type": "Feature", "geometry": {"type": "Point", "coordinates": [145.709042577265, 43.3366805647925]}, "properties": {"stop_id": "S011100014300000", "stop_name": "沖根辺", "route_ids": ["R011100008000000", "R011100008010000"]}}, {"type": "Feature", "geometry": {"type": "Point", "coordinates": [145.713625520574, 43.3365158202325]}, "properties": {"stop_id": "S0111000144", "stop_name": "第二沖根辺", "route_ids": []}}, {"type": "Feature", "geometry": {"type": "Point", "coordinates": [145.713625520574, 43.3365158202325]}, "properties": {"stop_id": "S011100014400000", "stop_name": "第二沖根辺", "route_ids": ["R011100008000000", "R011100008010000"]}}, {"type": "Feature", "geometry": {"type": "Point", "coordinates": [145.724735617636, 43.3371237901924]}, "properties": {"stop_id": "S0111000145", "stop_name": "引臼", "route_ids": []}}, {"type": "Feature", "geometry": {"type": "Point", "coordinates": [145.724735617636, 43.3371237901924]}, "properties": {"stop_id": "S011100014500000", "stop_name": "引臼", "route_ids": ["R011100008000000", "R011100008010000"]}}, {"type": "Feature", "geometry": {"type": "Point", "coordinates": [145.735949764101, 43.3393201166757]}, "properties": {"stop_id": "S0111000146", "stop_name": "フラリ", "route_ids": []}}, {"type": "Feature", "geometry": {"type": "Point", "coordinates": [145.735949764101, 43.3393201166757]}, "properties": {"stop_id": "S011100014600000", "stop_name": "フラリ", "route_ids": ["R011100008000000", "R011100008010000"]}}, {"type": "Feature", "geometry": {"type": "Point", "coordinates": [145.750566494831, 43.3399889709163]}, "properties": {"stop_id": "S0111000148", "stop_name": "歯舞郵便局前", "route_ids": []}}, {"type": "Feature", "geometry": {"type": "Point", "coordinates": [145.750566494831, 43.3399889709163]}, "properties": {"stop_id": "S011100014800000", "stop_name": "歯舞郵便局前", "route_ids": ["R011100008000000", "R011100008010000"]}}, {"type": "Feature", "geometry": {"type": "Point", "coordinates": [145.753517514174, 43.3416208284099]}, "properties": {"stop_id": "S0111000149", "stop_name": "歯舞診療所前", "route_ids": []}}, {"type": "Feature", "geometry": {"type": "Point", "coordinates": [145.753517514174, 43.3416208284099]}, "properties": {"stop_id": "S011100014900000", "stop_name": "歯舞診療所前", "route_ids": ["R011100008000000", "R011100008010000"]}}, {"type": "Feature", "geometry": {"type": "Point", "coordinates": [145.755635348283, 43.3421503562526]}, "properties": {"stop_id": "S0111000150", "stop_name": "歯舞信金前", "route_ids": []}}, {"type": "Feature", "geometry": {"type": "Point", "coordinates": [145.755635348283, 43.3421503562526]}, "properties": {"stop_id": "S011100015000000", "stop_name": "歯舞信金前", "route_ids": ["R011100008000000", "R011100008010000"]}}, {"type": "Feature", "geometry": {"type": "Point", "coordinates": [145.76049586352, 43.3446502354308]}, "properties": {"stop_id": "S0111000151", "stop_name": "歯舞神社前", "route_ids": []}}, {"type": "Feature", "geometry": {"type": "Point", "coordinates": [145.76049586352, 43.3446502354308]}, "properties": {"stop_id": "S011100015100000", "stop_name": "歯舞神社前", "route_ids": ["R011100008000000", "R011100008010000"]}}, {"type": "Feature", "geometry": {"type": "Point", "coordinates": [145.768203146862, 43.3501533329732]}, "properties": {"stop_id": "S0111000152", "stop_name": "法泉寺前", "route_ids": []}}, {"type": "Feature", "geometry": {"type": "Point", "coordinates": [145.768203146862, 43.3501533329732]}, "properties": {"stop_id": "S011100015200000", "stop_name": "法泉寺前", "route_ids": ["R011100008000000", "R011100008010000"]}}, {"type": "Feature", "geometry": {"type": "Point", "coordinates": [145.780284907375, 43.3577049570114]}, "properties": {"stop_id": "S0111000153", "stop_name": "珸瑶瑁", "route_ids": []}}, {"type": "Feature", "geometry": {"type": "Point", "coordinates": [145.780284907375, 43.3577049570114]}, "properties": {"stop_id": "S011100015300000", "stop_name": "珸瑶瑁", "route_ids": ["R011100008000000", "R011100008010000"]}}, {"type": "Feature", "geometry": {"type": "Point", "coordinates": [145.787020130889, 43.362071001889]}, "properties": {"stop_id": "S0111000154", "stop_name": "珸瑶瑁一区", "route_ids": []}}, {"type": "Feature", "geometry": {"type": "Point", "coordinates": [145.787020130889, 43.362071001889]}, "properties": {"stop_id": "S011100015400000", "stop_name": "珸瑶瑁一区", "route_ids": ["R011100008000000", "R011100008010000"]}}, {"type": "Feature", "geometry": {"type": "Point", "coordinates": [145.793408267468, 43.3649007586768]}, "properties": {"stop_id": "S0111000155", "stop_name": "珸瑶瑁局前", "route_ids": []}}, {"type": "Feature", "geometry": {"type": "Point", "coordinates": [145.793408267468, 43.3649007586768]}, "properties": {"stop_id": "S011100015500000", "stop_name": "珸瑶瑁局前", "route_ids": ["R011100008000000", "R011100008010000"]}}, {"type": "Feature", "geometry": {"type": "Point", "coordinates": [145.804135726347, 43.3761498103973]}, "properties": {"stop_id": "S0111000157", "stop_name": "とりといし", "route_ids": []}}, {"type": "Feature", "geometry": {"type": "Point", "coordinates": [145.804135726347, 43.3761498103973]}, "properties": {"stop_id": "S011100015700000", "stop_name": "とりといし", "route_ids": ["R011100008000000", "R011100008010000"]}}, {"type": "Feature", "geometry": {"type": "Point", "coordinates": [145.811078956869, 43.3850118557125]}, "properties": {"stop_id": "S0111000158", "stop_name": "納沙布岬", "route_ids": []}}, {"type": "Feature", "geometry": {"type": "Point", "coordinates": [145.811078956869, 43.3850118557125]}, "properties": {"stop_id": "S011100015800000", "stop_name": "納沙布岬", "route_ids": ["R011100008000000", "R011100008010000"]}}, {"type": "Feature", "geometry": {"type": "Point", "coordinates": [145.496218501848, 43.2704567861227]}, "properties": {"stop_id": "S0111002706", "stop_name": "湾中組合前", "route_ids": []}}, {"type": "Feature", "geometry": {"type": "Point", "coordinates": [145.496218501848, 43.2704567861227]}, "properties": {"stop_id": "S011100270600000", "stop_name": "湾中組合前", "route_ids": ["R011100004000000", "R011100004010000", "R011100006000000", "R011100006010000"]}}, {"type": "Feature", "geometry": {"type": "Point", "coordinates": [145.588011521291, 43.3366154203492]}, "properties": {"stop_id": "S0111002708", "stop_name": "栄町", "route_ids": []}}, {"type": "Feature", "geometry": {"type": "Point", "coordinates": [145.588011521291, 43.3366154203492]}, "properties": {"stop_id": "S011100270800000", "stop_name": "栄町", "route_ids": ["R011100805000000", "R011100805010000"]}}, {"type": "Feature", "geometry": {"type": "Point", "coordinates": [145.594052446319, 43.3397315874186]}, "properties": {"stop_id": "S0111002709", "stop_name": "駒場町入口", "route_ids": []}}, {"type": "Feature", "geometry": {"type": "Point", "coordinates": [145.594052446319, 43.3397315874186]}, "properties": {"stop_id": "S011100270900000", "stop_name": "駒場町入口", "route_ids": ["R011100805000000", "R011100805010000"]}}, {"type": "Feature", "geometry": {"type": "Point", "coordinates": [145.59363727085, 43.3183191918222]}, "properties": {"stop_id": "S0111002710", "stop_name": "宝林町４丁目", "route_ids": []}}, {"type": "Feature", "geometry": {"type": "Point", "coordinates": [145.59363727085, 43.3183191918222]}, "properties": {"stop_id": "S011100271000000", "stop_name": "宝林町４丁目", "route_ids": ["R011100805000000", "R011100805010000"]}}, {"type": "Feature", "geometry": {"type": "Point", "coordinates": [145.595547197472, 43.3128424825327]}, "properties": {"stop_id": "S0111002711", "stop_name": "建設管理部前", "route_ids": []}}, {"type": "Feature", "geometry": {"type": "Point", "coordinates": [145.595547197472, 43.3128424825327]}, "properties": {"stop_id": "S011100271100000", "stop_name": "建設管理部前", "route_ids": ["R011100805000000", "R011100805010000"]}}, {"type": "Feature", "geometry": {"type": "Point", "coordinates": [145.573777428106, 43.3252881291325]}, "properties": {"stop_id": "S0111002712", "stop_name": "根室花まる前", "route_ids": []}}, {"type": "Feature", "geometry": {"type": "Point", "coordinates": [145.573777428106, 43.3252881291325]}, "properties": {"stop_id": "S011100271200000", "stop_name": "根室花まる前", "route_ids": ["R011100004000000", "R011100004010000", "R011100005000000", "R011100006000000", "R011100006010000"]}}, {"type": "Feature", "geometry": {"type": "Point", "coordinates": [145.573777428106, 43.3252881291325]}, "properties": {"stop_id": "S011100271200001", "stop_name": "根室花まる前", "route_ids": ["R011100005000000"]}}, {"type": "Feature", "geometry": {"type": "Point", "coordinates": [145.565618922875, 43.3179015608319]}, "properties": {"stop_id": "S0111002713", "stop_name": "柏陵中学校前［旧西浜町４丁目］", "route_ids": []}}, {"type": "Feature", "geometry": {"type": "Point", "coordinates": [145.565618922875, 43.3179015608319]}, "properties": {"stop_id": "S011100271300000", "stop_name": "柏陵中学校前［旧西浜町４丁目］", "route_ids": ["R011100004000000", "R011100004010000", "R011100005000000"]}}, {"type": "Feature", "geometry": {"type": "Point", "coordinates": [145.560098470117, 43.3194289569709]}, "properties": {"stop_id": "S0111002714", "stop_name": "西浜ナオエー前", "route_ids": []}}, {"type": "Feature", "geometry": {"type": "Point", "coordinates": [145.560098470117, 43.3194289569709]}, "properties": {"stop_id": "S011100271400000", "stop_name": "西浜ナオエー前", "route_ids": ["R011100004000000", "R011100004010000", "R011100005000000", "R011100006000000", "R011100006010000"]}}, {"type": "Feature", "geometry": {"type": "Point", "coordinates": [145.551210608242, 43.3157832363355]}, "properties": {"stop_id": "S0111002715", "stop_name": "ニホロ入口", "route_ids": []}}, {"type": "Feature", "geometry": {"type": "Point", "coordinates": [145.551210608242, 43.3157832363355]}, "properties": {"stop_id": "S011100271500000", "stop_name": "ニホロ入口", "route_ids": ["R011100004000000", "R011100004010000", "R011100006000000", "R011100006010000"]}}, {"type": "Feature", "geometry": {"type": "Point", "coordinates": [145.542114443628, 43.3119552382975]}, "properties": {"stop_id": "S0111002716", "stop_name": "自動車学校前", "route_ids": []}}, {"type": "Feature", "geometry": {"type": "Point", "coordinates": [145.542114443628, 43.3119552382975]}, "properties": {"stop_id": "S011100271600000", "stop_name": "自動車学校前", "route_ids": ["R011100004000000", "R011100004010000"]}}, {"type": "Feature", "geometry": {"type": "Point", "coordinates": [145.681476120152, 43.3282604277165]}, "properties": {"stop_id": "S0111002717", "stop_name": "トモシリ岬入口", "route_ids": []}}, {"type": "Feature", "geometry": {"type": "Point", "coordinates": [145.681476120152, 43.3282604277165]}, "properties": {"stop_id": "S011100271700000", "stop_name": "トモシリ岬入口", "route_ids": ["R011100008000000", "R011100008010000"]}}, {"type": "Feature", "geometry": {"type": "Point", "coordinates": [145.746816844284, 43.3396763718664]}, "properties": {"stop_id": "S0111002718", "stop_name": "歯舞２丁目", "route_ids": []}}, {"type": "Feature", "geometry": {"type": "Point", "coordinates": [145.746816844284, 43.3396763718664]}, "properties": {"stop_id": "S011100271800000", "stop_name": "歯舞２丁目", "route_ids": ["R011100008000000", "R011100008010000"]}}, {"type": "Feature", "geometry": {"type": "Point", "coordinates": [145.801636570064, 43.3670101820912]}, "properties": {"stop_id": "S0111002719", "stop_name": "珸瑶瑁港入口", "route_ids": []}}, {"type": "Feature", "geometry": {"type": "Point", "coordinates": [145.801636570064, 43.3670101820912]}, "properties": {"stop_id": "S011100271900000", "stop_name": "珸瑶瑁港入口", "route_ids": ["R011100008000000", "R011100008010000"]}}]}