stop_id,stop_name,similar_stop_id,similar_stop_name
1000_親,帯広駅バスターミナル,1000_親,帯広駅バスターミナル
1000_01,帯広駅バスターミナル,1000_親,帯広駅バスターミナル
1000_02,帯広駅バスターミナル,1000_親,帯広駅バスターミナル
1000_03,帯広駅バスターミナル,1000_親,帯広駅バスターミナル
1000_04,帯広駅バスターミナル,1000_親,帯広駅バスターミナル
1000_06,帯広駅バスターミナル,1000_親,帯広駅バスターミナル
1001_01,駅北11丁目,1001_01,駅北11丁目
1003_01,西2条9丁目,1003_01,西2条9丁目
1005_01,西2条7丁目,1005_01,西2条7丁目
1007_01,西2条4丁目,1007_01,西2条4丁目
1007_02,西2条4丁目,1007_01,西2条4丁目
1008_01,西2条2丁目,1008_01,西2条2丁目
1009_01,西2条1丁目,1009_01,西2条1丁目
1009_02,西2条1丁目,1009_01,西2条1丁目
1009_03,西2条1丁目,1009_01,西2条1丁目
1101_01,西5条1丁目,1101_01,西5条1丁目
1101_02,西5条1丁目,1101_01,西5条1丁目
1102_01,西5条北3丁目,1102_01,西5条北3丁目
1102_02,西5条北3丁目,1102_01,西5条北3丁目
1103_01,西5条北4丁目,1103_01,西5条北4丁目
1103_02,西5条北4丁目,1103_01,西5条北4丁目
1104_01,西7条北4丁目,1104_01,西7条北4丁目
1104_02,西7条北4丁目,1104_01,西7条北4丁目
1105_01,西9条北4丁目,1105_01,西9条北4丁目
1105_02,西9条北4丁目,1105_01,西9条北4丁目
1106_01,西11条北5丁目,1106_01,西11条北5丁目
1106_02,西11条北5丁目,1106_01,西11条北5丁目
1107_01,西13条北5丁目,1107_01,西13条北5丁目
1107_02,西13条北5丁目,1107_01,西13条北5丁目
1108_01,西13条北6丁目,1108_01,西13条北6丁目
1108_02,西13条北6丁目,1108_01,西13条北6丁目
1109_01,一中前,1109_01,一中前
1109_02,一中前,1109_01,一中前
1110_01,西13条北8丁目,1110_01,西13条北8丁目
1110_02,西13条北8丁目,1110_01,西13条北8丁目
1111_01,西15条北8丁目,1111_01,西15条北8丁目
1111_02,西15条北8丁目,1111_01,西15条北8丁目
1112_01,西16条北2丁目,1112_01,西16条北2丁目
1112_02,西16条北2丁目,1112_01,西16条北2丁目
1113_01,西17条北2丁目,1113_01,西17条北2丁目
1113_02,西17条北2丁目,1113_01,西17条北2丁目
1114_01,栄保育園前,1114_01,栄保育園前
1114_02,栄保育園前,1114_01,栄保育園前
1150_01,拓殖バス本社前,1150_01,拓殖バス本社前
1150_02,拓殖バス本社前,1150_01,拓殖バス本社前
1120_01,北報和,1120_01,北報和
1120_02,北報和,1120_01,北報和
1121_01,国立帯広病院前,1121_01,国立帯広病院前
1121_02,国立帯広病院前,1121_01,国立帯広病院前
1122_01,西17条北1丁目,1122_01,西17条北1丁目
1122_02,西17条北1丁目,1122_01,西17条北1丁目
1123_01,栄小学校前,1123_01,栄小学校前
1123_02,栄小学校前,1123_01,栄小学校前
1124_01,西16条,1124_01,西16条
1124_02,西16条,1124_01,西16条
1125_01,西16条中央,1125_01,西16条中央
1125_02,西16条中央,1125_01,西16条中央
1126_01,開発官舎前,1126_01,開発官舎前
1126_02,開発官舎前,1126_01,開発官舎前
1127_01,西15条北3丁目,1127_01,西15条北3丁目
1127_02,西15条北3丁目,1127_01,西15条北3丁目
1128_01,協立病院前,1128_01,協立病院前
1128_02,協立病院前,1128_01,協立病院前
1129_01,玄武住宅前,1129_01,玄武住宅前
1129_02,玄武住宅前,1129_01,玄武住宅前
1130_01,西13条1丁目,1130_01,西13条1丁目
1130_02,西13条1丁目,1130_01,西13条1丁目
1131_01,西12条2丁目,1131_01,西12条2丁目
1131_02,西12条2丁目,1131_01,西12条2丁目
1132_01,西11条2丁目,1132_01,西11条2丁目
1132_02,西11条2丁目,1132_01,西11条2丁目
1133_01,西10条3丁目,1133_01,西10条3丁目
1133_02,西10条3丁目,1133_01,西10条3丁目
1134_01,北栄校前,1134_01,北栄校前
1134_02,北栄校前,1134_01,北栄校前
1181_01,問屋町6丁目,1181_01,問屋町6丁目
1181_02,問屋町6丁目,1181_01,問屋町6丁目
1135_01,西7条3丁目,1135_01,西7条3丁目
1135_02,西7条3丁目,1135_01,西7条3丁目
1136_01,西5条3丁目,1136_01,西5条3丁目
1136_02,西5条3丁目,1136_01,西5条3丁目
1137_01,西5条4丁目,1137_01,西5条4丁目
1137_02,西5条4丁目,1137_01,西5条4丁目
1182_01,帯広市役所南口,1182_01,帯広市役所南口
1182_02,帯広市役所南口,1182_01,帯広市役所南口
1138_01,NHK前,1138_01,NHK前
1138_02,NHK前,1138_01,NHK前
1139_01,帯広中央公園前,1139_01,帯広中央公園前
1004_02,西2条8丁目,1004_02,西2条8丁目
1002_02,かじのビル前,1002_02,かじのビル前
1161_01,帯広駅西口,1161_01,帯広駅西口
1162_01,西3条9丁目,1162_01,西3条9丁目
1006_02,西2条6丁目,1006_02,西2条6丁目
1206_01,記念碑前,1206_01,記念碑前
1206_02,記念碑前,1206_01,記念碑前
1201_01,帯広郵便局前,1201_01,帯広郵便局前
1201_02,帯広郵便局前,1201_01,帯広郵便局前
1202_01,帯広第2合同庁舎前,1202_01,帯広第2合同庁舎前
1202_02,帯広第2合同庁舎前,1202_01,帯広第2合同庁舎前
1203_01,西5条13丁目,1203_01,西5条13丁目
1203_02,西5条13丁目,1203_01,西5条13丁目
1204_01,長崎屋前,1204_01,長崎屋前
1204_02,長崎屋前,1204_01,長崎屋前
1205_01,第一病院前,1205_01,第一病院前
1205_02,第一病院前,1205_01,第一病院前
1207_01,春駒通8条,1207_01,春駒通8条
1207_02,春駒通8条,1207_01,春駒通8条
1208_01,春駒通10条,1208_01,春駒通10条
1208_02,春駒通10条,1208_01,春駒通10条
1209_01,春駒通12条,1209_01,春駒通12条
1209_02,春駒通12条,1209_01,春駒通12条
1210_01,春駒通13条,1210_01,春駒通13条
1210_02,春駒通13条,1210_01,春駒通13条
1211_01,緑ヶ丘小学校前,1211_01,緑ヶ丘小学校前
1211_02,緑ヶ丘小学校前,1211_01,緑ヶ丘小学校前
1212_01,緑ヶ丘大通,1212_01,緑ヶ丘大通
1212_02,緑ヶ丘大通,1212_01,緑ヶ丘大通
1213_01,緑ヶ丘6丁目（帯広美術館入口）,1213_01,緑ヶ丘6丁目（帯広美術館入口）
1213_02,緑ヶ丘6丁目（帯広美術館入口）,1213_01,緑ヶ丘6丁目（帯広美術館入口）
1214_01,常盤通6丁目,1214_01,常盤通6丁目
1214_02,常盤通6丁目,1214_01,常盤通6丁目
1215_01,西16条6丁目,1215_01,西16条6丁目
1215_02,西16条6丁目,1215_01,西16条6丁目
1216_01,八中前,1216_01,八中前
1216_02,八中前,1216_01,八中前
1217_01,西17条6丁目,1217_01,西17条6丁目
1217_02,西17条6丁目,1217_01,西17条6丁目
1218_01,自由が丘1丁目,1218_01,自由が丘1丁目
1218_02,自由が丘1丁目,1218_01,自由が丘1丁目
1219_01,自由が丘2丁目,1219_01,自由が丘2丁目
1219_02,自由が丘2丁目,1219_01,自由が丘2丁目
1220_01,自由が丘3丁目,1220_01,自由が丘3丁目
1220_02,自由が丘3丁目,1220_01,自由が丘3丁目
1221_01,西19条6丁目,1221_01,西19条6丁目
1221_02,西19条6丁目,1221_01,西19条6丁目
1241_01,森の交流館下,1241_01,森の交流館下
1241_02,森の交流館下,1241_01,森の交流館下
1222_01,自由が丘団地,1222_01,自由が丘団地
1222_02,自由が丘団地,1222_01,自由が丘団地
1223_01,自由が丘6丁目,1223_01,自由が丘6丁目
1223_02,自由が丘6丁目,1223_01,自由が丘6丁目
1224_01,国際センター入口,1224_01,国際センター入口
1224_02,国際センター入口,1224_01,国際センター入口
1225_01,西20条6丁目,1225_01,西20条6丁目
1225_02,西20条6丁目,1225_01,西20条6丁目
1226_01,西10号6丁目（きぼう公園前）,1226_01,西10号6丁目（きぼう公園前）
1226_02,西10号6丁目（きぼう公園前）,1226_01,西10号6丁目（きぼう公園前）
1227_01,西10号5丁目（西20条中央）,1227_01,西10号5丁目（西20条中央）
1227_02,西10号5丁目（西20条中央）,1227_01,西10号5丁目（西20条中央）
1228_01,西20条5丁目,1228_01,西20条5丁目
1228_02,西20条5丁目,1228_01,西20条5丁目
1230_01,南商業高校前,1230_01,南商業高校前
1231_01,とりで公園前,1231_01,とりで公園前
1232_01,公住新緑団地前,1232_01,公住新緑団地前
1233_01,新緑通21条（メガドンキホーテ西帯広店前）,1233_01,新緑通21条（メガドンキホーテ西帯広店前）
1234_01,西20条4丁目,1234_01,西20条4丁目
1261_01,帯広の森野球場前,1261_01,帯広の森野球場前
1261_02,帯広の森野球場前,1261_01,帯広の森野球場前
1262_01,帯広の森体育館前,1262_01,帯広の森体育館前
1262_02,帯広の森体育館前,1262_01,帯広の森体育館前
1263_01,帯広の森屋内スケート場前,1263_01,帯広の森屋内スケート場前
1263_02,帯広の森屋内スケート場前,1263_01,帯広の森屋内スケート場前
1270_01,白樺学園前,1270_01,白樺学園前
1270_02,白樺学園前,1270_01,白樺学園前
1252_01,西8条15丁目,1252_01,西8条15丁目
1252_02,西8条15丁目,1252_01,西8条15丁目
1251_01,西8条13丁目,1251_01,西8条13丁目
1251_02,西8条13丁目,1251_01,西8条13丁目
1281_01,帯広駅南口,1281_01,帯広駅南口
1281_02,帯広駅南口,1281_01,帯広駅南口
2010_01,鈴蘭公園入口,2010_01,鈴蘭公園入口
2010_02,鈴蘭公園入口,2010_01,鈴蘭公園入口
2011_01,木野郵便局前,2011_01,木野郵便局前
2011_02,木野郵便局前,2011_01,木野郵便局前
2012_01,木野農協前,2012_01,木野農協前
2012_02,木野農協前,2012_01,木野農協前
2013_01,鈴蘭橋,2013_01,鈴蘭橋
2013_02,鈴蘭橋,2013_01,鈴蘭橋
2014_01,木野大通8丁目,2014_01,木野大通8丁目
2014_02,木野大通8丁目,2014_01,木野大通8丁目
2301_01,JA福祉施設前,2301_01,JA福祉施設前
2301_02,JA福祉施設前,2301_01,JA福祉施設前
2302_01,木野西通9丁目,2302_01,木野西通9丁目
2302_02,木野西通9丁目,2302_01,木野西通9丁目
2303_01,木野西通11丁目,2303_01,木野西通11丁目
2303_02,木野西通11丁目,2303_01,木野西通11丁目
2304_01,共栄台幼稚園前,2304_01,共栄台幼稚園前
2304_02,共栄台幼稚園前,2304_01,共栄台幼稚園前
2305_01,共栄団地,2305_01,共栄団地
2305_02,共栄団地,2305_01,共栄団地
2306_01,共栄台13丁目,2306_01,共栄台13丁目
2306_02,共栄台13丁目,2306_01,共栄台13丁目
2307_01,音更病院前,2307_01,音更病院前
2307_02,音更病院前,2307_01,音更病院前
2308_01,緑陽台南区,2308_01,緑陽台南区
2308_02,緑陽台南区,2308_01,緑陽台南区
2309_01,緑陽台公園前,2309_01,緑陽台公園前
2309_02,緑陽台公園前,2309_01,緑陽台公園前
2310_01,緑陽台8線,2310_01,緑陽台8線
2310_02,緑陽台8線,2310_01,緑陽台8線
2311_01,緑陽台北区,2311_01,緑陽台北区
2311_02,緑陽台北区,2311_01,緑陽台北区
2312_01,音更大通20丁目,2312_01,音更大通20丁目
2312_02,音更大通20丁目,2312_01,音更大通20丁目
2313_01,南住吉台,2313_01,南住吉台
2313_02,南住吉台,2313_01,南住吉台
2314_01,緑ヶ丘病院前,2314_01,緑ヶ丘病院前
2314_02,緑ヶ丘病院前,2314_01,緑ヶ丘病院前
2315_01,大谷短大前,2315_01,大谷短大前
2315_02,大谷短大前,2315_01,大谷短大前
2316_01,サンドームおとふけ前,2316_01,サンドームおとふけ前
2316_02,サンドームおとふけ前,2316_01,サンドームおとふけ前
2317_01,希望が丘公園前,2317_01,希望が丘公園前
2317_02,希望が丘公園前,2317_01,希望が丘公園前
2318_01,雄飛が丘南区,2318_01,雄飛が丘南区
2318_02,雄飛が丘南区,2318_01,雄飛が丘南区
2319_01,音更中学校前,2319_01,音更中学校前
2319_02,音更中学校前,2319_01,音更中学校前
2320_01,雄飛が丘会館前,2320_01,雄飛が丘会館前
2320_02,雄飛が丘会館前,2320_01,雄飛が丘会館前
2321_01,雄飛が丘仲区,2321_01,雄飛が丘仲区
2321_02,雄飛が丘仲区,2321_01,雄飛が丘仲区
2322_01,雄飛が丘仲公園前,2322_01,雄飛が丘仲公園前
2322_02,雄飛が丘仲公園前,2322_01,雄飛が丘仲公園前
2330_01,雄飛が丘北区,2330_01,雄飛が丘北区
2330_02,雄飛が丘北区,2330_01,雄飛が丘北区
2330_03,雄飛が丘北区,2330_01,雄飛が丘北区
2502_01,音更西1線,2502_01,音更西1線
2502_02,音更西1線,2502_01,音更西1線
2503_01,門前8号,2503_01,門前8号
2503_02,門前8号,2503_01,門前8号
2504_01,門前9号,2504_01,門前9号
2504_02,門前9号,2504_01,門前9号
2505_01,門前10号,2505_01,門前10号
2505_02,門前10号,2505_01,門前10号
2506_01,門前,2506_01,門前
2506_02,門前,2506_01,門前
2550_親,音更高校前,2550_親,音更高校前
2550_01,音更高校前,2550_親,音更高校前
2550_02,音更高校前,2550_親,音更高校前
2550_03,音更高校前,2550_親,音更高校前
2550_04,音更高校前,2550_親,音更高校前
2550_05,音更高校前,2550_親,音更高校前
2550_06,音更高校前,2550_親,音更高校前
2550_07,音更高校前,2550_親,音更高校前
1453_01,北親福祉センター,1453_01,北親福祉センター
1453_02,北親福祉センター,1453_01,北親福祉センター
1452_01,西8条北7丁目,1452_01,西8条北7丁目
1452_02,西8条北7丁目,1452_01,西8条北7丁目
1451_01,西11条北8丁目,1451_01,西11条北8丁目
1451_02,西11条北8丁目,1451_01,西11条北8丁目
2450_01,おおや整形前,2450_01,おおや整形前
2450_02,おおや整形前,2450_01,おおや整形前
2450_03,おおや整形前,2450_01,おおや整形前
2445_01,南鈴蘭南5丁目,2445_01,南鈴蘭南5丁目
2445_02,南鈴蘭南5丁目,2445_01,南鈴蘭南5丁目
2444_01,南鈴蘭南3丁目,2444_01,南鈴蘭南3丁目
2444_02,南鈴蘭南3丁目,2444_01,南鈴蘭南3丁目
2443_01,南鈴蘭,2443_01,南鈴蘭
2443_02,南鈴蘭,2443_01,南鈴蘭
2442_01,清和,2442_01,清和
2442_02,清和,2442_01,清和
2441_01,清和北,2441_01,清和北
2441_02,清和北,2441_01,清和北
2440_01,下音更中学校前,2440_01,下音更中学校前
2440_02,下音更中学校前,2440_01,下音更中学校前
2439_01,鈴蘭保育園前,2439_01,鈴蘭保育園前
2439_02,鈴蘭保育園前,2439_01,鈴蘭保育園前
2438_01,中鈴蘭,2438_01,中鈴蘭
2438_02,中鈴蘭,2438_01,中鈴蘭
2437_01,青葉町,2437_01,青葉町
2437_02,青葉町,2437_01,青葉町
2436_01,北鈴蘭南4丁目,2436_01,北鈴蘭南4丁目
2436_02,北鈴蘭南4丁目,2436_01,北鈴蘭南4丁目
2435_01,北蘭団地,2435_01,北蘭団地
2435_02,北蘭団地,2435_01,北蘭団地
2434_01,共栄新橋,2434_01,共栄新橋
2434_02,共栄新橋,2434_01,共栄新橋
2433_01,共栄台幼稚園前,2304_01,共栄台幼稚園前
2433_02,共栄台幼稚園前,2304_01,共栄台幼稚園前
2432_01,木野新町公園前,2432_01,木野新町公園前
2432_02,木野新町公園前,2432_01,木野新町公園前
2431_01,木野コミセン前,2431_01,木野コミセン前
2431_02,木野コミセン前,2431_01,木野コミセン前
1457_01,北栄校正門前,1457_01,北栄校正門前
1457_02,北栄校正門前,1457_01,北栄校正門前
1456_01,西7条北1丁目,1456_01,西7条北1丁目
1456_02,西7条北1丁目,1456_01,西7条北1丁目
1455_01,西7条北2丁目,1455_01,西7条北2丁目
1455_02,西7条北2丁目,1455_01,西7条北2丁目
2015_01,木野大通12丁目,2015_01,木野大通12丁目
2015_02,木野大通12丁目,2015_01,木野大通12丁目
2016_01,木野大通14丁目,2016_01,木野大通14丁目
2016_02,木野大通14丁目,2016_01,木野大通14丁目
2017_01,木野大通15丁目,2017_01,木野大通15丁目
2017_02,木野大通15丁目,2017_01,木野大通15丁目
2018_01,木野大通16丁目,2018_01,木野大通16丁目
2018_02,木野大通16丁目,2018_01,木野大通16丁目
2019_01,木野大通18丁目,2019_01,木野大通18丁目
2019_02,木野大通18丁目,2019_01,木野大通18丁目
2020_01,よつ葉乳業前,2020_01,よつ葉乳業前
2020_02,よつ葉乳業前,2020_01,よつ葉乳業前
2021_01,音更新通17丁目,2021_01,音更新通17丁目
2021_02,音更新通17丁目,2021_01,音更新通17丁目
2022_01,音更新通15丁目,2022_01,音更新通15丁目
2022_02,音更新通15丁目,2022_01,音更新通15丁目
2023_01,音更新通11丁目,2023_01,音更新通11丁目
2023_02,音更新通11丁目,2023_01,音更新通11丁目
2024_01,音更大通11丁目,2024_01,音更大通11丁目
2024_02,音更大通11丁目,2024_01,音更大通11丁目
2024_03,音更大通11丁目,2024_01,音更大通11丁目
2025_01,音更役場前,2025_01,音更役場前
2025_02,音更役場前,2025_01,音更役場前
2027_01,プロスパ6,2027_01,プロスパ6
2027_02,プロスパ6,2027_01,プロスパ6
2028_01,音更大通4丁目,2028_01,音更大通4丁目
2028_02,音更大通4丁目,2028_01,音更大通4丁目
2029_01,音更大通1丁目,2029_01,音更大通1丁目
2029_02,音更大通1丁目,2029_01,音更大通1丁目
2501_01,音更車両センター前,2501_01,音更車両センター前
2501_02,音更車両センター前,2501_01,音更車両センター前
2507_01,駒場中学校前,2507_01,駒場中学校前
2507_02,駒場中学校前,2507_01,駒場中学校前
2508_01,駒場,2508_01,駒場
2508_02,駒場,2508_01,駒場
2509_01,駒場郵便局前,2509_01,駒場郵便局前
2509_02,駒場郵便局前,2509_01,駒場郵便局前
2552_01,十勝牧場,2552_01,十勝牧場
2552_02,十勝牧場,2552_01,十勝牧場
2553_01,東士狩入口,2553_01,東士狩入口
2553_02,東士狩入口,2553_01,東士狩入口
2554_01,誉橋,2554_01,誉橋
2554_02,誉橋,2554_01,誉橋
2555_01,上然別,2555_01,上然別
2555_02,上然別,2555_01,上然別
2556_01,音更集団研修施設前,2556_01,音更集団研修施設前
2556_02,音更集団研修施設前,2556_01,音更集団研修施設前
2557_01,上然別6線,2557_01,上然別6線
2557_02,上然別6線,2557_01,上然別6線
3501_01,町界,3501_01,町界
3501_02,町界,3501_01,町界
3502_01,上然別10線,3502_01,上然別10線
3502_02,上然別10線,3502_01,上然別10線
3503_01,上然別11線,3503_01,上然別11線
3503_02,上然別11線,3503_01,上然別11線
3504_01,新然別,3504_01,新然別
3504_02,新然別,3504_01,新然別
3505_01,新然別13線,3505_01,新然別13線
3505_02,新然別13線,3505_01,新然別13線
3506_01,鹿追橋,3506_01,鹿追橋
3506_02,鹿追橋,3506_01,鹿追橋
3507_01,鹿追2号,3507_01,鹿追2号
3507_02,鹿追2号,3507_01,鹿追2号
3508_01,鹿追4号,3508_01,鹿追4号
3508_02,鹿追4号,3508_01,鹿追4号
3509_01,鹿追5号,3509_01,鹿追5号
3509_02,鹿追5号,3509_01,鹿追5号
3510_01,鹿追6号,3510_01,鹿追6号
3510_02,鹿追6号,3510_01,鹿追6号
3511_01,下市街,3511_01,下市街
3511_02,下市街,3511_01,下市街
3512_01,トリムセンター前,3512_01,トリムセンター前
3512_02,トリムセンター前,3512_01,トリムセンター前
3513_01,神田日勝記念美術館前（道の駅しかおい）,3513_01,神田日勝記念美術館前（道の駅しかおい）
3513_02,神田日勝記念美術館前（道の駅しかおい）,3513_01,神田日勝記念美術館前（道の駅しかおい）
3514_親,中市街,3514_親,中市街
3514_01,中市街,3514_親,中市街
3514_02,中市街,3514_親,中市街
3514_03,中市街,3514_親,中市街
3514_04,中市街,3514_親,中市街
3540_01,鹿追高校前,3540_01,鹿追高校前
3515_01,鹿追役場前,3515_01,鹿追役場前
3515_02,鹿追役場前,3515_01,鹿追役場前
3516_01,新町1丁目,3516_01,新町1丁目
3516_02,新町1丁目,3516_01,新町1丁目
3517_01,新町2丁目,3517_01,新町2丁目
3517_02,新町2丁目,3517_01,新町2丁目
3550_01,鹿追営業所前,3550_01,鹿追営業所前
3550_02,鹿追営業所前,3550_01,鹿追営業所前
3551_01,泉町3丁目,3551_01,泉町3丁目
3551_02,泉町3丁目,3551_01,泉町3丁目
3552_01,西町3丁目,3552_01,西町3丁目
3552_02,西町3丁目,3552_01,西町3丁目
3553_01,山岸農園前（カントリーパパ）,3553_01,山岸農園前（カントリーパパ）
3553_02,山岸農園前（カントリーパパ）,3553_01,山岸農園前（カントリーパパ）
2026_01,音更小学校前,2026_01,音更小学校前
2026_02,音更小学校前,2026_01,音更小学校前
3554_01,大草原の小さな家,3554_01,大草原の小さな家
3554_02,大草原の小さな家,3554_01,大草原の小さな家
3555_01,笹川,3555_01,笹川
3555_02,笹川,3555_01,笹川
3556_01,笹川北10線,3556_01,笹川北10線
3556_02,笹川北10線,3556_01,笹川北10線
3557_01,笹川北11線,3557_01,笹川北11線
3557_02,笹川北11線,3557_01,笹川北11線
3558_01,自衛隊前,3558_01,自衛隊前
3558_02,自衛隊前,3558_01,自衛隊前
3561_01,瓜幕22号,3561_01,瓜幕22号
3561_02,瓜幕22号,3561_01,瓜幕22号
3559_01,笹川北14線,3559_01,笹川北14線
3559_02,笹川北14線,3559_01,笹川北14線
3560_01,笹川北15線,3560_01,笹川北15線
3560_02,笹川北15線,3560_01,笹川北15線
3562_01,坂の上,3562_01,坂の上
3562_02,坂の上,3562_01,坂の上
3563_01,瓜幕西住宅前,3563_01,瓜幕西住宅前
3563_02,瓜幕西住宅前,3563_01,瓜幕西住宅前
3564_01,瓜幕,3564_01,瓜幕
3564_02,瓜幕,3564_01,瓜幕
3565_01,ライディングパーク（道の駅うりまく）,3565_01,ライディングパーク（道の駅うりまく）
3565_02,ライディングパーク（道の駅うりまく）,3565_01,ライディングパーク（道の駅うりまく）
3566_01,藤田牧場,3566_01,藤田牧場
3566_02,藤田牧場,3566_01,藤田牧場
3567_01,瓜幕26号,3567_01,瓜幕26号
3567_02,瓜幕26号,3567_01,瓜幕26号
3568_01,森のキッチンかわい,3568_01,森のキッチンかわい
3568_02,森のキッチンかわい,3568_01,森のキッチンかわい
3570_01,坂下,3570_01,坂下
3570_02,坂下,3570_01,坂下
3571_01,扇ヶ原展望台,3571_01,扇ヶ原展望台
3572_01,白雲橋（白雲山登山口）,3572_01,白雲橋（白雲山登山口）
3572_02,白雲橋（白雲山登山口）,3572_01,白雲橋（白雲山登山口）
3580_01,然別湖（然別湖畔温泉）,3580_01,然別湖（然別湖畔温泉）
3580_02,然別湖（然別湖畔温泉）,3580_01,然別湖（然別湖畔温泉）
3591_01,鹿追土木現業所前,3591_01,鹿追土木現業所前
3591_02,鹿追土木現業所前,3591_01,鹿追土木現業所前
3592_01,幌内西23線,3592_01,幌内西23線
3592_02,幌内西23線,3592_01,幌内西23線
3593_01,熊牛27号,3593_01,熊牛27号
3593_02,熊牛27号,3593_01,熊牛27号
4500_01,幸町4丁目,4500_01,幸町4丁目
4500_02,幸町4丁目,4500_01,幸町4丁目
4500_03,幸町4丁目,4500_01,幸町4丁目
4501_01,幸町2丁目,4501_01,幸町2丁目
4501_02,幸町2丁目,4501_01,幸町2丁目
4502_01,柏町1丁目,4502_01,柏町1丁目
4502_02,柏町1丁目,4502_01,柏町1丁目
4503_01,屈足総合会館前,4503_01,屈足総合会館前
4503_02,屈足総合会館前,4503_01,屈足総合会館前
4504_01,屈足22号,4504_01,屈足22号
4504_02,屈足22号,4504_01,屈足22号
4505_01,立教寺前,4505_01,立教寺前
4505_02,立教寺前,4505_01,立教寺前
4506_01,屈足中学校前,4506_01,屈足中学校前
4506_02,屈足中学校前,4506_01,屈足中学校前
4507_01,佐幌東2線,4507_01,佐幌東2線
4507_02,佐幌東2線,4507_01,佐幌東2線
4509_01,佐幌6号,4509_01,佐幌6号
4509_02,佐幌6号,4509_01,佐幌6号
4510_01,かえで団地,4510_01,かえで団地
4510_02,かえで団地,4510_01,かえで団地
4512_01,新得橋,4512_01,新得橋
4512_02,新得橋,4512_01,新得橋
4513_01,新得運動公園口,4513_01,新得運動公園口
4513_02,新得運動公園口,4513_01,新得運動公園口
1454_01,西7条北4丁目,1104_01,西7条北4丁目
1454_02,西7条北4丁目,1104_01,西7条北4丁目
4515_01,新得クリニック前,4515_01,新得クリニック前
4515_02,新得クリニック前,4515_01,新得クリニック前
4516_01,オダッシュ通,4516_01,オダッシュ通
4516_02,オダッシュ通,4516_01,オダッシュ通
4517_01,本通3丁目,4517_01,本通3丁目
4517_02,本通3丁目,4517_01,本通3丁目
4550_01,新得駅前,4550_01,新得駅前
4550_02,新得駅前,4550_01,新得駅前
4551_01,小松整骨院前,4551_01,小松整骨院前
4551_02,小松整骨院前,4551_01,小松整骨院前
4552_01,新得神社前,4552_01,新得神社前
4552_02,新得神社前,4552_01,新得神社前
4560_01,新得小学校前,4560_01,新得小学校前
4560_02,新得小学校前,4560_01,新得小学校前
4561_01,サホロクリニック前,4561_01,サホロクリニック前
4561_02,サホロクリニック前,4561_01,サホロクリニック前
4562_01,ひばりの団地,4562_01,ひばりの団地
4562_02,ひばりの団地,4562_01,ひばりの団地
4563_01,若草団地,4563_01,若草団地
4563_02,若草団地,4563_01,若草団地
4564_01,新得高等支援学校前,4564_01,新得高等支援学校前
4564_02,新得高等支援学校前,4564_01,新得高等支援学校前
4570_01,南新得（新得営業所）,4570_01,南新得（新得営業所）
4570_02,南新得（新得営業所）,4570_01,南新得（新得営業所）
2601_01,音更新通1丁目,2601_01,音更新通1丁目
2601_02,音更新通1丁目,2601_01,音更新通1丁目
2602_01,音更みはる野団地,2602_01,音更みはる野団地
2602_02,音更みはる野団地,2602_01,音更みはる野団地
2603_01,音更7号,2603_01,音更7号
2603_02,音更7号,2603_01,音更7号
2604_01,音更8号,2604_01,音更8号
2604_02,音更8号,2604_01,音更8号
2605_01,音更9号,2605_01,音更9号
2605_02,音更9号,2605_01,音更9号
2606_01,音更10号,2606_01,音更10号
2606_02,音更10号,2606_01,音更10号
2607_01,福平,2607_01,福平
2607_02,福平,2607_01,福平
2608_01,音更12号,2608_01,音更12号
2608_02,音更12号,2608_01,音更12号
2621_01,駒場ターミナル,2621_01,駒場ターミナル
2621_02,駒場ターミナル,2621_01,駒場ターミナル
2622_01,南武儀,2622_01,南武儀
2622_02,南武儀,2622_01,南武儀
2609_01,中士幌1号,2609_01,中士幌1号
2609_02,中士幌1号,2609_01,中士幌1号
2609_03,中士幌1号,2609_01,中士幌1号
2610_01,中士幌2号,2610_01,中士幌2号
2610_02,中士幌2号,2610_01,中士幌2号
2611_01,中士幌3号,2611_01,中士幌3号
2611_02,中士幌3号,2611_01,中士幌3号
2612_01,中士幌4号,2612_01,中士幌4号
2612_02,中士幌4号,2612_01,中士幌4号
2613_01,中士幌5号,2613_01,中士幌5号
2613_02,中士幌5号,2613_01,中士幌5号
2614_01,中士幌6号,2614_01,中士幌6号
2614_02,中士幌6号,2614_01,中士幌6号
2615_01,中士幌7号,2615_01,中士幌7号
2615_02,中士幌7号,2615_01,中士幌7号
2616_01,中士幌8号,2616_01,中士幌8号
2616_02,中士幌8号,2616_01,中士幌8号
2617_01,中士幌9号,2617_01,中士幌9号
2617_02,中士幌9号,2617_01,中士幌9号
5601_01,中士幌10号,5601_01,中士幌10号
5601_02,中士幌10号,5601_01,中士幌10号
5602_01,中士幌11号,5602_01,中士幌11号
5602_02,中士幌11号,5602_01,中士幌11号
5603_01,中士幌待合所,5603_01,中士幌待合所
5603_02,中士幌待合所,5603_01,中士幌待合所
5604_01,東中音更入口,5604_01,東中音更入口
5604_02,東中音更入口,5604_01,東中音更入口
5605_01,東団地入口,5605_01,東団地入口
5605_02,東団地入口,5605_01,東団地入口
5606_01,中士幌14号,5606_01,中士幌14号
5606_02,中士幌14号,5606_01,中士幌14号
5607_01,中士幌15号,5607_01,中士幌15号
5607_02,中士幌15号,5607_01,中士幌15号
5608_01,中士幌16号,5608_01,中士幌16号
5608_02,中士幌16号,5608_01,中士幌16号
5609_01,中士幌17号,5609_01,中士幌17号
5609_02,中士幌17号,5609_01,中士幌17号
5610_01,中士幌18号,5610_01,中士幌18号
5610_02,中士幌18号,5610_01,中士幌18号
5611_01,中士幌19号,5611_01,中士幌19号
5611_02,中士幌19号,5611_01,中士幌19号
5612_01,中士幌20号,5612_01,中士幌20号
5612_02,中士幌20号,5612_01,中士幌20号
5613_01,士幌21号,5613_01,士幌21号
5613_02,士幌21号,5613_01,士幌21号
5614_01,士幌22号（道の駅ピア21しほろ）,5614_01,士幌22号（道の駅ピア21しほろ）
5614_02,士幌22号（道の駅ピア21しほろ）,5614_01,士幌22号（道の駅ピア21しほろ）
5615_01,士幌23号,5615_01,士幌23号
5615_02,士幌23号,5615_01,士幌23号
5616_01,士幌24号,5616_01,士幌24号
5616_02,士幌24号,5616_01,士幌24号
5617_01,士幌25号,5617_01,士幌25号
5617_02,士幌25号,5617_01,士幌25号
5618_01,士幌,5618_01,士幌
5618_02,士幌,5618_01,士幌
5619_01,士幌農協前,5619_01,士幌農協前
5619_02,士幌農協前,5619_01,士幌農協前
5620_01,士幌信金前,5620_01,士幌信金前
5620_02,士幌信金前,5620_01,士幌信金前
5621_01,士幌待合所,5621_01,士幌待合所
5621_02,士幌待合所,5621_01,士幌待合所
5622_01,士幌保育所前,5622_01,士幌保育所前
5622_02,士幌保育所前,5622_01,士幌保育所前
5623_01,士幌西1線,5623_01,士幌西1線
5623_02,士幌西1線,5623_01,士幌西1線
5624_01,士幌基線,5624_01,士幌基線
5624_02,士幌基線,5624_01,士幌基線
5625_01,士幌27号,5625_01,士幌27号
5625_02,士幌27号,5625_01,士幌27号
5626_01,士幌28号,5626_01,士幌28号
5626_02,士幌28号,5626_01,士幌28号
5627_01,士幌29号,5627_01,士幌29号
5627_02,士幌29号,5627_01,士幌29号
5628_01,士幌30号,5628_01,士幌30号
5628_02,士幌30号,5628_01,士幌30号
5629_01,士幌31号,5629_01,士幌31号
5629_02,士幌31号,5629_01,士幌31号
5630_01,士幌32号,5630_01,士幌32号
5630_02,士幌32号,5630_01,士幌32号
5631_01,士幌33号,5631_01,士幌33号
5631_02,士幌33号,5631_01,士幌33号
5632_01,士幌34号,5632_01,士幌34号
5632_02,士幌34号,5632_01,士幌34号
5633_01,士幌35号,5633_01,士幌35号
5633_02,士幌35号,5633_01,士幌35号
6601_01,上士幌36号,6601_01,上士幌36号
6601_02,上士幌36号,6601_01,上士幌36号
6602_01,上士幌37号,6602_01,上士幌37号
6602_02,上士幌37号,6602_01,上士幌37号
6603_01,上士幌38号,6603_01,上士幌38号
6603_02,上士幌38号,6603_01,上士幌38号
6604_01,上士幌高校前,6604_01,上士幌高校前
6604_02,上士幌高校前,6604_01,上士幌高校前
6605_01,十勝バス上士幌営業所前,6605_01,十勝バス上士幌営業所前
6605_02,十勝バス上士幌営業所前,6605_01,十勝バス上士幌営業所前
6606_01,上士幌小学校前,6606_01,上士幌小学校前
6606_02,上士幌小学校前,6606_01,上士幌小学校前
6607_01,上士幌11区,6607_01,上士幌11区
6607_02,上士幌11区,6607_01,上士幌11区
6608_01,上士幌東2線,6608_01,上士幌東2線
6608_02,上士幌東2線,6608_01,上士幌東2線
6609_01,上士幌農協前,6609_01,上士幌農協前
6609_02,上士幌農協前,6609_01,上士幌農協前
6615_01,ハレタかみしほろ前,6615_01,ハレタかみしほろ前
6610_01,かちまい上士幌前,6610_01,かちまい上士幌前
6610_02,かちまい上士幌前,6610_01,かちまい上士幌前
6611_01,上士幌,6611_01,上士幌
6611_02,上士幌,6611_01,上士幌
6612_01,上士幌交通ターミナル,6612_01,上士幌交通ターミナル
6612_02,上士幌交通ターミナル,6612_01,上士幌交通ターミナル
6613_01,拓殖バス上士幌営業所前,6613_01,拓殖バス上士幌営業所前
9148_01,大通11丁目,9148_01,大通11丁目
1170_01,運転免許試験場,1170_01,運転免許試験場
1170_02,運転免許試験場,1170_01,運転免許試験場
9846_01,南2条3丁目,9846_01,南2条3丁目
9134_01,老人ホーム入口,9134_01,老人ホーム入口
9135_01,雄飛が丘仲区,2321_01,雄飛が丘仲区
4514_01,新得役場前,4514_01,新得役場前
4514_02,新得役場前,4514_01,新得役場前
9136_01,雄飛が丘会館前,2320_01,雄飛が丘会館前
9101_01,共栄コミセン前,9101_01,共栄コミセン前
9101_02,共栄コミセン前,9101_01,共栄コミセン前
9102_01,耳鼻咽喉科前,9102_01,耳鼻咽喉科前
9102_02,耳鼻咽喉科前,9102_01,耳鼻咽喉科前
9103_01,田中医院前,9103_01,田中医院前
1171_01,浄化センター前,1171_01,浄化センター前
1171_02,浄化センター前,1171_01,浄化センター前
1500_01,柏林台駅前,1500_01,柏林台駅前
1501_01,西14条北5丁目,1501_01,西14条北5丁目
1502_01,西12条北7丁目,1502_01,西12条北7丁目
2901_01,鈴蘭郵便局前,2901_01,鈴蘭郵便局前
9104_01,宏明館病院前,9104_01,宏明館病院前
9105_01,柳町小学校前,9105_01,柳町小学校前
9106_01,柳町南区,9106_01,柳町南区
2551_01,白樺並木前,2551_01,白樺並木前
2551_02,白樺並木前,2551_01,白樺並木前
3569_01,とかち鹿追ジオパークビジターセンター前,3569_01,とかち鹿追ジオパークビジターセンター前
3569_02,とかち鹿追ジオパークビジターセンター前,3569_01,とかち鹿追ジオパークビジターセンター前
4508_01,佐幌東1線,4508_01,佐幌東1線
4508_02,佐幌東1線,4508_01,佐幌東1線
4511_01,新得坂,4511_01,新得坂
4511_02,新得坂,4511_01,新得坂
9107_01,柳町中央公園前,9107_01,柳町中央公園前
9108_02,柳町仲区,9108_02,柳町仲区
9109_01,柳町北2公園前,9109_01,柳町北2公園前
9110_01,柳町北区東,9110_01,柳町北区東
9111_01,柳町公住前,9111_01,柳町公住前
9112_01,柳町北区,9112_01,柳町北区
9113_01,十勝勤医協柳町医院前,9113_01,十勝勤医協柳町医院前
9114_01,木野大通東17丁目,9114_01,木野大通東17丁目
9115_01,木野大通西18丁目,9115_01,木野大通西18丁目
9116_01,木野大通西19丁目,9116_01,木野大通西19丁目
9117_01,開進生活館前,9117_01,開進生活館前
9118_01,柳町9線,9118_01,柳町9線
9119_01,東通18丁目,9119_01,東通18丁目
9120_01,新通15丁目,9120_01,新通15丁目
9121_01,森林組合前,9121_01,森林組合前
9122_01,東通12丁目,9122_01,東通12丁目
9123_01,梢公住前,9123_01,梢公住前
9124_01,総合福祉センター前,9124_01,総合福祉センター前
9125_01,消防分団前,9125_01,消防分団前
9126_01,保健センター前,9126_01,保健センター前
9127_01,新通会館前,9127_01,新通会館前
9128_01,ひなげし公園前,9128_01,ひなげし公園前
9129_01,新通1丁目,9129_01,新通1丁目
9130_01,新通北1丁目,9130_01,新通北1丁目
9131_01,新通北2丁目,9131_01,新通北2丁目
9132_01,みはる野団地,9132_01,みはる野団地
9133_01,大通2丁目,9133_01,大通2丁目
9137_01,音更中学校前,2319_01,音更中学校前
9138_01,雄飛が丘南区,2318_01,雄飛が丘南区
9139_01,温水プール前,9139_01,温水プール前
9140_01,サンドーム前,9140_01,サンドーム前
9141_01,桜が丘,9141_01,桜が丘
9142_01,プロスパ6前,9142_01,プロスパ6前
9143_01,エーコープ音更前,9143_01,エーコープ音更前
9144_01,JA音更,9144_01,JA音更
9145_01,交通公園前,9145_01,交通公園前
9146_01,役場前クリニック,9146_01,役場前クリニック
9147_01,音更役場前,2025_01,音更役場前
9149_01,改善センター前,9149_01,改善センター前
9150_01,大谷短大前,2315_01,大谷短大前
9151_01,ふれあい交流館前,9151_01,ふれあい交流館前
9152_01,緑ヶ丘病院前,2314_01,緑ヶ丘病院前
9153_01,緑陽台北区,2311_01,緑陽台北区
9154_01,緑陽台公住前,9154_01,緑陽台公住前
9155_01,緑陽台北3公園前,9155_01,緑陽台北3公園前
9156_01,緑陽台8線,2310_01,緑陽台8線
9157_01,緑陽台公園前,2309_01,緑陽台公園前
9158_01,緑陽台仲区,9158_01,緑陽台仲区
9159_01,緑陽台南区,2308_01,緑陽台南区
9160_01,緑陽会館前,9160_01,緑陽会館前
9161_01,音更病院前,2307_01,音更病院前
9162_01,緑陽台歯科前,9162_01,緑陽台歯科前
9163_01,文化センター入口,9163_01,文化センター入口
9164_01,親水広場前,9164_01,親水広場前
9165_01,つつじ公園前,9165_01,つつじ公園前
9166_01,木野大通東14丁目,9166_01,木野大通東14丁目
9167_01,佐治整形前,9167_01,佐治整形前
9168_01,徳洲会病院前,9168_01,徳洲会病院前
9169_01,木野西通13丁目,9169_01,木野西通13丁目
9170_01,木野西通12丁目,9170_01,木野西通12丁目
9171_01,下音更小学校前,9171_01,下音更小学校前
9172_01,木野西通11丁目,2303_01,木野西通11丁目
9173_01,木野西通9丁目,2302_01,木野西通9丁目
9174_01,木野コミセン前,2431_01,木野コミセン前
9175_01,木野支所前,9175_01,木野支所前
9176_01,木野農協前,2012_01,木野農協前
9177_01,北宝来西通り,9177_01,北宝来西通り
9178_01,北宝来,9178_01,北宝来
9179_01,北宝来北,9179_01,北宝来北
9180_01,北宝来東,9180_01,北宝来東
9181_01,北宝来中央,9181_01,北宝来中央
9182_01,宝来中央,9182_01,宝来中央
9183_01,宝来中央公園前,9183_01,宝来中央公園前
9184_01,宝来東団地前,9184_01,宝来東団地前
9185_01,ひびき野東町,9185_01,ひびき野東町
9186_01,ひびき野仲町,9186_01,ひびき野仲町
9187_01,ひびき野西町,9187_01,ひびき野西町
9188_01,宝来西町南2丁目,9188_01,宝来西町南2丁目
9189_01,宝来西通り,9189_01,宝来西通り
9190_01,宝来,9190_01,宝来
9191_01,木野東会館前,9191_01,木野東会館前
9192_01,木野東通4丁目,9192_01,木野東通4丁目
9193_01,木野南公園前,9193_01,木野南公園前
9194_01,千野会館前,9194_01,千野会館前
9195_01,木野大通西2丁目,9195_01,木野大通西2丁目
9196_01,鈴蘭公園前,9196_01,鈴蘭公園前
9197_01,南鈴蘭,2443_01,南鈴蘭
9198_01,南鈴蘭南2丁目,9198_01,南鈴蘭南2丁目
9199_01,南鈴蘭北2丁目,9199_01,南鈴蘭北2丁目
9200_01,南鈴蘭北4線,9200_01,南鈴蘭北4線
9201_01,清和広場前,9201_01,清和広場前
9202_01,おおや整形前,2450_01,おおや整形前
9203_01,鈴蘭郵便局前,2901_01,鈴蘭郵便局前
9204_01,中鈴蘭,2438_01,中鈴蘭
9205_01,青葉町,2437_01,青葉町
9206_01,北蘭南5丁目,9206_01,北蘭南5丁目
9207_01,北蘭憩いの家前,9207_01,北蘭憩いの家前
9208_01,北蘭団地,2435_01,北蘭団地
9209_01,下音更中学校入口,9209_01,下音更中学校入口
9210_01,すずらん歯科前,9210_01,すずらん歯科前
9211_01,木野新町公園前,2432_01,木野新町公園前
9212_01,共栄台幼稚園前,2304_01,共栄台幼稚園前
9213_01,共栄台12丁目,9213_01,共栄台12丁目
9214_01,共栄団地,2305_01,共栄団地
9215_01,共栄台13丁目,2306_01,共栄台13丁目
9216_01,むつみ,9216_01,むつみ
9217_01,図書館前,9217_01,図書館前
9218_01,文化センター前,9218_01,文化センター前
9701_01,JR新得駅前,9701_01,JR新得駅前
9701_02,JR新得駅前,9701_01,JR新得駅前
9702_01,フクハラ新得店前,9702_01,フクハラ新得店前
9702_02,フクハラ新得店前,9702_01,フクハラ新得店前
9703_01,小松整骨院前,4551_01,小松整骨院前
9703_02,小松整骨院前,4551_01,小松整骨院前
9704_01,一心の1,9704_01,一心の1
9704_02,一心の1,9704_01,一心の1
9705_01,新得神社前,4552_01,新得神社前
9705_02,新得神社前,4552_01,新得神社前
9706_01,やすらぎ荘前,9706_01,やすらぎ荘前
9706_02,やすらぎ荘前,9706_01,やすらぎ荘前
9707_01,グループホームさくら前,9707_01,グループホームさくら前
9707_02,グループホームさくら前,9707_01,グループホームさくら前
9708_01,新生の1,9708_01,新生の1
9708_02,新生の1,9708_01,新生の1
9709_01,サホロクリニック前,4561_01,サホロクリニック前
9710_01,春光,9710_01,春光
9711_01,春陽西,9711_01,春陽西
9712_01,春陽南,9712_01,春陽南
9713_01,セイコーマート西3条店前,9713_01,セイコーマート西3条店前
9714_01,ひばり北,9714_01,ひばり北
9715_01,つつじヶ丘北,9715_01,つつじヶ丘北
9716_01,つつじヶ丘公園,9716_01,つつじヶ丘公園
9717_01,つつじヶ丘西,9717_01,つつじヶ丘西
9718_01,つつじヶ丘南,9718_01,つつじヶ丘南
9719_01,ひばり西,9719_01,ひばり西
9720_01,ひばり東,9720_01,ひばり東
9721_01,若草会館前,9721_01,若草会館前
9722_01,しらかば,9722_01,しらかば
9723_01,若草,9723_01,若草
9724_01,さくら西,9724_01,さくら西
9725_01,さくら中央,9725_01,さくら中央
9726_01,広和,9726_01,広和
9791_01,ひろね前,9791_01,ひろね前
9727_01,西栄,9727_01,西栄
9728_01,ひまわり,9728_01,ひまわり
9729_01,西和東,9729_01,西和東
9730_01,西和北,9730_01,西和北
9731_01,相馬商店前,9731_01,相馬商店前
9732_01,ハプセブン前,9732_01,ハプセブン前
9733_01,馬場クリーニング前,9733_01,馬場クリーニング前
9734_01,永交西,9734_01,永交西
9735_01,末広北,9735_01,末広北
9736_01,末広南,9736_01,末広南
9737_01,あけぼの西,9737_01,あけぼの西
9738_01,あけぼの東,9738_01,あけぼの東
9739_01,公営,9739_01,公営
9740_01,新得クリニック前,4515_01,新得クリニック前
9740_02,新得クリニック前,4515_01,新得クリニック前
9741_01,南進,9741_01,南進
9742_01,永交中央,9742_01,永交中央
9743_01,エーコープ前,9743_01,エーコープ前
9743_02,エーコープ前,9743_01,エーコープ前
9744_01,図書館前,9744_01,図書館前
9745_01,なごみ前,9745_01,なごみ前
9747_01,新得診療所前,9747_01,新得診療所前
9747_02,新得診療所前,9747_01,新得診療所前
9748_01,温水プール前,9748_01,温水プール前
9748_02,温水プール前,9748_01,温水プール前
9749_01,町民体育館前,9749_01,町民体育館前
9749_02,町民体育館前,9749_01,町民体育館前
9750_01,公民館前（新得町役場前）,9750_01,公民館前（新得町役場前）
9751_01,新栄,9751_01,新栄
9752_01,わたなべ歯科前,9752_01,わたなべ歯科前
9753_01,新泉寺前,9753_01,新泉寺前
9754_01,帯広信用金庫前,9754_01,帯広信用金庫前
9755_01,よしむら歯科前,9755_01,よしむら歯科前
9755_02,よしむら歯科前,9755_01,よしむら歯科前
9756_01,新得郵便局前,9756_01,新得郵便局前
9756_02,新得郵便局前,9756_01,新得郵便局前
9757_01,栄町北,9757_01,栄町北
9758_01,栄町東,9758_01,栄町東
9759_01,幼稚園前,9759_01,幼稚園前
9759_02,幼稚園前,9759_01,幼稚園前
9760_01,親和,9760_01,親和
9760_02,親和,9760_01,親和
9761_01,元町寿会館前,9761_01,元町寿会館前
9761_02,元町寿会館前,9761_01,元町寿会館前
9762_01,新得坂,4511_01,新得坂
9762_02,新得坂,4511_01,新得坂
9763_01,かえで西,9763_01,かえで西
9764_01,かえで中央,9764_01,かえで中央
9765_01,佐幌6号,4509_01,佐幌6号
9765_02,佐幌6号,4509_01,佐幌6号
9766_01,幸町4丁目,4500_01,幸町4丁目
9767_01,ムラカミ石油前,9767_01,ムラカミ石油前
9768_01,もみやま電気商会前,9768_01,もみやま電気商会前
9769_01,幸町2丁目,4501_01,幸町2丁目
9769_02,幸町2丁目,4501_01,幸町2丁目
9770_01,フクハラ屈足店前,9770_01,フクハラ屈足店前
9771_01,柏町1丁目,4502_01,柏町1丁目
9773_01,屈足常盤,9773_01,屈足常盤
9774_01,屈足南小学校裏門前,9774_01,屈足南小学校裏門前
9775_01,永福寺前,9775_01,永福寺前
9777_01,屈足22号,4504_01,屈足22号
9778_01,総合会館前,9778_01,総合会館前
9779_01,あいの郷ふれあい前,9779_01,あいの郷ふれあい前
9780_01,朝日の1,9780_01,朝日の1
9781_01,屈足親和,9781_01,屈足親和
9782_01,第2新進,9782_01,第2新進
9783_01,新緑,9783_01,新緑
9784_01,新友西,9784_01,新友西
9785_01,立教寺前,4505_01,立教寺前
9786_01,屈足中学校前,4506_01,屈足中学校前
9787_01,屈足坂前,9787_01,屈足坂前
9801_01,十勝清水駅前,9801_01,十勝清水駅前
9801_02,十勝清水駅前,9801_01,十勝清水駅前
9802_01,清水赤十字病院前,9802_01,清水赤十字病院前
9803_01,清水町役場前,9803_01,清水町役場前
9804_01,スーパープラザいちまる前,9804_01,スーパープラザいちまる前
9805_01,東団地　南10条6丁目,9805_01,東団地　南10条6丁目
9806_01,公苑東町　南9条9丁目,9806_01,公苑東町　南9条9丁目
9807_01,桂町　南8条9丁目,9807_01,桂町　南8条9丁目
9809_01,清和団地集会所前,9809_01,清和団地集会所前
9810_01,清和　南2条11丁目,9810_01,清和　南2条11丁目
9812_01,新栄　本通8丁目,9812_01,新栄　本通8丁目
9811_01,老人福祉センター前,9811_01,老人福祉センター前
9814_01,スーパーフクハラ前,9814_01,スーパーフクハラ前
9815_01,前田クリニック前,9815_01,前田クリニック前
9816_01,清水郵便局前,9816_01,清水郵便局前
9817_01,本通3丁目,9817_01,本通3丁目
9818_01,石川商店前,9818_01,石川商店前
9819_01,西文化児童遊園地前,9819_01,西文化児童遊園地前
9821_01,西清水　南1条西7丁目,9821_01,西清水　南1条西7丁目
9825_01,神居福祉館前,9825_01,神居福祉館前
9826_01,宮の森団地前,9826_01,宮の森団地前
9827_01,北星　北3条6丁目,9827_01,北星　北3条6丁目
9828_01,御影本通5丁目,9828_01,御影本通5丁目
9828_02,御影本通5丁目,9828_01,御影本通5丁目
9829_01,御影郵便局前,9829_01,御影郵便局前
9829_02,御影郵便局前,9829_01,御影郵便局前
9834_01,御影駅前,9834_01,御影駅前
9845_01,羽帯　国道38号線沿い,9845_01,羽帯　国道38号線沿い
9845_02,羽帯　国道38号線沿い,9845_01,羽帯　国道38号線沿い
9792_01,かえで団地,4510_01,かえで団地
3573_01,白樺峠,3573_01,白樺峠
3573_02,白樺峠,3573_01,白樺峠
6616_01,道の駅かみしほろ,6616_01,道の駅かみしほろ
6617_01,かみしほろ情報館前,6617_01,かみしほろ情報館前
6618_01,しんくみ上士幌支店前,6618_01,しんくみ上士幌支店前
9793_01,屈足神社前,9793_01,屈足神社前
9794_01,北友,9794_01,北友
9795_01,屈足保育園西,9795_01,屈足保育園西
9796_01,小規模多機能センターらら前,9796_01,小規模多機能センターらら前
9797_01,小田天光堂薬局前,9797_01,小田天光堂薬局前
9847_01,清水町体育館前,9847_01,清水町体育館前
9848_01,鉄南　北1条西5丁目,9848_01,鉄南　北1条西5丁目
9849_01,ツルハドラッグ前,9849_01,ツルハドラッグ前
