stop_id,stop_name,similar_stop_id,similar_stop_name
S0110000001,駅前ターミナル（稚内駅）,S0110000001,駅前ターミナル（稚内駅）
S011000000100000,駅前ターミナル（稚内駅）,S0110000001,駅前ターミナル（稚内駅）
S011000000100001,駅前ターミナル（稚内駅）,S0110000001,駅前ターミナル（稚内駅）
S011000000100002,駅前ターミナル（稚内駅）,S0110000001,駅前ターミナル（稚内駅）
S0110000002,中央三丁目,S0110000002,中央三丁目
S011000000200000,中央三丁目,S0110000002,中央三丁目
S0110000003,中央四丁目,S0110000003,中央四丁目
S011000000300000,中央四丁目,S0110000003,中央四丁目
S011000000300001,中央四丁目,S0110000003,中央四丁目
S0110000004,中央五丁目,S0110000004,中央五丁目
S011000000400000,中央五丁目,S0110000004,中央五丁目
S0110000005,港二丁目,S0110000005,港二丁目
S011000000500000,港二丁目,S0110000005,港二丁目
S011000000500001,港二丁目,S0110000005,港二丁目
S0110000006,消防署前（稚内市）,S0110000006,消防署前（稚内市）
S011000000600000,消防署前（稚内市）,S0110000006,消防署前（稚内市）
S0110000007,港五丁目,S0110000007,港五丁目
S011000000700000,港五丁目,S0110000007,港五丁目
S0110000008,南駅前［国道４０号］,S0110000008,南駅前［国道４０号］
S011000000800000,南駅前［国道４０号］,S0110000008,南駅前［国道４０号］
S0110000009,大黒三丁目［国道４０号］,S0110000009,大黒三丁目［国道４０号］
S011000000900000,大黒三丁目［国道４０号］,S0110000009,大黒三丁目［国道４０号］
S011000000900001,大黒三丁目［国道４０号］,S0110000009,大黒三丁目［国道４０号］
S0110000010,大黒四丁目,S0110000010,大黒四丁目
S011000001000000,大黒四丁目,S0110000010,大黒四丁目
S011000001000001,大黒四丁目,S0110000010,大黒四丁目
S0110000011,潮見一丁目,S0110000011,潮見一丁目
S011000001100000,潮見一丁目,S0110000011,潮見一丁目
S011000001100001,潮見一丁目,S0110000011,潮見一丁目
S0110000012,潮見三丁目,S0110000012,潮見三丁目
S011000001200000,潮見三丁目,S0110000012,潮見三丁目
S011000001200001,潮見三丁目,S0110000012,潮見三丁目
S0110000013,潮見五丁目,S0110000013,潮見五丁目
S011000001300000,潮見五丁目,S0110000013,潮見五丁目
S011000001300001,潮見五丁目,S0110000013,潮見五丁目
S0110000014,はまなす一丁目,S0110000014,はまなす一丁目
S011000001400000,はまなす一丁目,S0110000014,はまなす一丁目
S011000001400001,はまなす一丁目,S0110000014,はまなす一丁目
S0110000015,はまなす団地,S0110000015,はまなす団地
S011000001500000,はまなす団地,S0110000015,はまなす団地
S011000001500001,はまなす団地,S0110000015,はまなす団地
S0110000016,はまなす三丁目,S0110000016,はまなす三丁目
S011000001600000,はまなす三丁目,S0110000016,はまなす三丁目
S011000001600001,はまなす三丁目,S0110000016,はまなす三丁目
S0110000017,はまなす四丁目,S0110000017,はまなす四丁目
S011000001700000,はまなす四丁目,S0110000017,はまなす四丁目
S011000001700001,はまなす四丁目,S0110000017,はまなす四丁目
S0110000018,はまなす五丁目,S0110000018,はまなす五丁目
S011000001800000,はまなす五丁目,S0110000018,はまなす五丁目
S011000001800001,はまなす五丁目,S0110000018,はまなす五丁目
S0110000019,声問一丁目,S0110000019,声問一丁目
S011000001900000,声問一丁目,S0110000019,声問一丁目
S011000001900001,声問一丁目,S0110000019,声問一丁目
S0110000020,声問局前,S0110000020,声問局前
S011000002000000,声問局前,S0110000020,声問局前
S011000002000001,声問局前,S0110000020,声問局前
S0110000021,声問橋,S0110000021,声問橋
S011000002100000,声問橋,S0110000021,声問橋
S0110000022,声問,S0110000022,声問
S011000002200000,声問,S0110000022,声問
S0110000037,萩見一丁目,S0110000037,萩見一丁目
S011000003700000,萩見一丁目,S0110000037,萩見一丁目
S0110000038,栄三丁目,S0110000038,栄三丁目
S011000003800000,栄三丁目,S0110000038,栄三丁目
S0110000039,栄二丁目,S0110000039,栄二丁目
S011000003900000,栄二丁目,S0110000039,栄二丁目
S0110000040,大黒五丁目［富岡線］,S0110000040,大黒五丁目［富岡線］
S011000004000000,大黒五丁目［富岡線］,S0110000040,大黒五丁目［富岡線］
S0110000041,市役所前（稚内市）,S0110000041,市役所前（稚内市）
S011000004100000,市役所前（稚内市）,S0110000041,市役所前（稚内市）
S011000004100001,市役所前（稚内市）,S0110000041,市役所前（稚内市）
S0110000042,稚内郵便局前,S0110000042,稚内郵便局前
S011000004200000,稚内郵便局前,S0110000042,稚内郵便局前
S011000004200001,稚内郵便局前,S0110000042,稚内郵便局前
S0110000043,神社前,S0110000043,神社前
S011000004300000,神社前,S0110000043,神社前
S011000004300001,神社前,S0110000043,神社前
S0110000044,中央公園前,S0110000044,中央公園前
S011000004400000,中央公園前,S0110000044,中央公園前
S011000004400001,中央公園前,S0110000044,中央公園前
S0110000045,港一丁目,S0110000045,港一丁目
S011000004500000,港一丁目,S0110000045,港一丁目
S011000004500001,港一丁目,S0110000045,港一丁目
S0110000046,港三丁目,S0110000046,港三丁目
S011000004600000,港三丁目,S0110000046,港三丁目
S011000004600001,港三丁目,S0110000046,港三丁目
S0110000047,鈴蘭幼稚園,S0110000047,鈴蘭幼稚園
S011000004700000,鈴蘭幼稚園,S0110000047,鈴蘭幼稚園
S011000004700001,鈴蘭幼稚園,S0110000047,鈴蘭幼稚園
S0110000048,港四丁目,S0110000048,港四丁目
S011000004800000,港四丁目,S0110000048,港四丁目
S011000004800001,港四丁目,S0110000048,港四丁目
S0110000049,南駅前［市内線］,S0110000049,南駅前［市内線］
S011000004900000,南駅前［市内線］,S0110000049,南駅前［市内線］
S011000004900001,南駅前［市内線］,S0110000049,南駅前［市内線］
S0110000050,大黒三丁目［緑町線］,S0110000050,大黒三丁目［緑町線］
S011000005000000,大黒三丁目［緑町線］,S0110000050,大黒三丁目［緑町線］
S011000005000001,大黒三丁目［緑町線］,S0110000050,大黒三丁目［緑町線］
S0110000051,南小学校前,S0110000051,南小学校前
S011000005100000,南小学校前,S0110000051,南小学校前
S011000005100001,南小学校前,S0110000051,南小学校前
S0110000052,緑三丁目,S0110000052,緑三丁目
S011000005200000,緑三丁目,S0110000052,緑三丁目
S011000005200001,緑三丁目,S0110000052,緑三丁目
S0110000053,緑四丁目,S0110000053,緑四丁目
S011000005300000,緑四丁目,S0110000053,緑四丁目
S0110000054,道職員住宅前（稚内市）,S0110000054,道職員住宅前（稚内市）
S011000005400000,道職員住宅前（稚内市）,S0110000054,道職員住宅前（稚内市）
S0110000055,緑五丁目,S0110000055,緑五丁目
S011000005500000,緑五丁目,S0110000055,緑五丁目
S0110000056,緑六丁目,S0110000056,緑六丁目
S011000005600000,緑六丁目,S0110000056,緑六丁目
S0110000057,緑ニュータウン,S0110000057,緑ニュータウン
S011000005700000,緑ニュータウン,S0110000057,緑ニュータウン
S0110000058,坂の下,S0110000058,坂の下
S011000005800000,坂の下,S0110000058,坂の下
S0110000059,中山宅前,S0110000059,中山宅前
S011000005900000,中山宅前,S0110000059,中山宅前
S0110000060,西浜会館前,S0110000060,西浜会館前
S011000006000000,西浜会館前,S0110000060,西浜会館前
S0110000061,米山宅前,S0110000061,米山宅前
S011000006100000,米山宅前,S0110000061,米山宅前
S0110000062,香林宅前,S0110000062,香林宅前
S011000006200000,香林宅前,S0110000062,香林宅前
S0110000063,桜井宅前,S0110000063,桜井宅前
S011000006300000,桜井宅前,S0110000063,桜井宅前
S0110000064,田村宅前,S0110000064,田村宅前
S011000006400000,田村宅前,S0110000064,田村宅前
S0110000065,豊浜,S0110000065,豊浜
S011000006500000,豊浜,S0110000065,豊浜
S0110000066,吉田宅前,S0110000066,吉田宅前
S011000006600000,吉田宅前,S0110000066,吉田宅前
S0110000067,伊勢宅前,S0110000067,伊勢宅前
S011000006700000,伊勢宅前,S0110000067,伊勢宅前
S0110000068,富士見園前,S0110000068,富士見園前
S011000006800000,富士見園前,S0110000068,富士見園前
S0110000069,富士見五丁目,S0110000069,富士見五丁目
S011000006900000,富士見五丁目,S0110000069,富士見五丁目
S0110000070,富士見四丁目,S0110000070,富士見四丁目
S011000007000000,富士見四丁目,S0110000070,富士見四丁目
S0110000071,宗谷パレス前,S0110000071,宗谷パレス前
S011000007100000,宗谷パレス前,S0110000071,宗谷パレス前
S0110000072,稚内温泉前,S0110000072,稚内温泉前
S011000007200000,稚内温泉前,S0110000072,稚内温泉前
S0110000073,富士見三丁目,S0110000073,富士見三丁目
S011000007300000,富士見三丁目,S0110000073,富士見三丁目
S0110000074,富士見二丁目,S0110000074,富士見二丁目
S011000007400000,富士見二丁目,S0110000074,富士見二丁目
S0110000075,富士見一丁目,S0110000075,富士見一丁目
S011000007500000,富士見一丁目,S0110000075,富士見一丁目
S0110000076,ノシャップ五丁目,S0110000076,ノシャップ五丁目
S011000007600000,ノシャップ五丁目,S0110000076,ノシャップ五丁目
S0110000077,ノシャップ四丁目,S0110000077,ノシャップ四丁目
S011000007700000,ノシャップ四丁目,S0110000077,ノシャップ四丁目
S0110000078,ノシャップ三丁目,S0110000078,ノシャップ三丁目
S011000007800000,ノシャップ三丁目,S0110000078,ノシャップ三丁目
S0110000079,ノシャップ,S0110000079,ノシャップ
S011000007900000,ノシャップ,S0110000079,ノシャップ
S011000007900001,ノシャップ,S0110000079,ノシャップ
S0110000080,ノシャップ一丁目,S0110000080,ノシャップ一丁目
S011000008000000,ノシャップ一丁目,S0110000080,ノシャップ一丁目
S011000008000001,ノシャップ一丁目,S0110000080,ノシャップ一丁目
S0110000081,恵比須五丁目,S0110000081,恵比須五丁目
S011000008100000,恵比須五丁目,S0110000081,恵比須五丁目
S011000008100001,恵比須五丁目,S0110000081,恵比須五丁目
S0110000082,恵比須四丁目,S0110000082,恵比須四丁目
S011000008200000,恵比須四丁目,S0110000082,恵比須四丁目
S011000008200001,恵比須四丁目,S0110000082,恵比須四丁目
S0110000083,恵比須三丁目,S0110000083,恵比須三丁目
S011000008300000,恵比須三丁目,S0110000083,恵比須三丁目
S011000008300001,恵比須三丁目,S0110000083,恵比須三丁目
S0110000084,恵比須一丁目,S0110000084,恵比須一丁目
S011000008400000,恵比須一丁目,S0110000084,恵比須一丁目
S011000008400001,恵比須一丁目,S0110000084,恵比須一丁目
S0110000085,稚中前,S0110000085,稚中前
S011000008500000,稚中前,S0110000085,稚中前
S011000008500001,稚中前,S0110000085,稚中前
S0110000086,宝来四丁目,S0110000086,宝来四丁目
S011000008600000,宝来四丁目,S0110000086,宝来四丁目
S011000008600001,宝来四丁目,S0110000086,宝来四丁目
S0110000087,宝来三丁目,S0110000087,宝来三丁目
S011000008700000,宝来三丁目,S0110000087,宝来三丁目
S011000008700001,宝来三丁目,S0110000087,宝来三丁目
S0110000088,宝来二丁目,S0110000088,宝来二丁目
S011000008800000,宝来二丁目,S0110000088,宝来二丁目
S011000008800001,宝来二丁目,S0110000088,宝来二丁目
S0110000089,大黒三丁目［市内線］,S0110000089,大黒三丁目［市内線］
S011000008900000,大黒三丁目［市内線］,S0110000089,大黒三丁目［市内線］
S011000008900001,大黒三丁目［市内線］,S0110000089,大黒三丁目［市内線］
S0110000090,大黒五丁目［市内線］,S0110000090,大黒五丁目［市内線］
S011000009000000,大黒五丁目［市内線］,S0110000090,大黒五丁目［市内線］
S011000009000001,大黒五丁目［市内線］,S0110000090,大黒五丁目［市内線］
S0110000091,潮見四丁目,S0110000091,潮見四丁目
S011000009100000,潮見四丁目,S0110000091,潮見四丁目
S011000009100001,潮見四丁目,S0110000091,潮見四丁目
S0110000092,稚内建設管理部前,S0110000092,稚内建設管理部前
S011000009200000,稚内建設管理部前,S0110000092,稚内建設管理部前
S0110000093,声問二丁目,S0110000093,声問二丁目
S011000009300000,声問二丁目,S0110000093,声問二丁目
S0110000094,声問三丁目,S0110000094,声問三丁目
S011000009400000,声問三丁目,S0110000094,声問三丁目
S0110000095,声問ふれあい橋,S0110000095,声問ふれあい橋
S011000009500000,声問ふれあい橋,S0110000095,声問ふれあい橋
S011000009500001,声問ふれあい橋,S0110000095,声問ふれあい橋
S0110000096,養護学校前（稚内市）,S0110000096,養護学校前（稚内市）
S011000009600000,養護学校前（稚内市）,S0110000096,養護学校前（稚内市）
S0110000097,ふれあい公園,S0110000097,ふれあい公園
S011000009700000,ふれあい公園,S0110000097,ふれあい公園
S0110000098,明治乳業前,S0110000098,明治乳業前
S011000009800000,明治乳業前,S0110000098,明治乳業前
S0110000099,声問五丁目,S0110000099,声問五丁目
S011000009900000,声問五丁目,S0110000099,声問五丁目
S0110000100,緑ヶ丘学園前,S0110000100,緑ヶ丘学園前
S011000010000000,緑ヶ丘学園前,S0110000100,緑ヶ丘学園前
S0110000101,大沼公園入口,S0110000101,大沼公園入口
S011000010100000,大沼公園入口,S0110000101,大沼公園入口
S0110000102,自動車学校前［稚内市］,S0110000102,自動車学校前［稚内市］
S011000010200000,自動車学校前［稚内市］,S0110000102,自動車学校前［稚内市］
S0110000103,メグマ原生花園,S0110000103,メグマ原生花園
S011000010300000,メグマ原生花園,S0110000103,メグマ原生花園
S0110000104,増幌入口,S0110000104,増幌入口
S011000010400000,増幌入口,S0110000104,増幌入口
S0110000105,増幌橋,S0110000105,増幌橋
S011000010500000,増幌橋,S0110000105,増幌橋
S0110000106,富磯南１,S0110000106,富磯南１
S011000010600000,富磯南１,S0110000106,富磯南１
S0110000107,富磯南２,S0110000107,富磯南２
S011000010700000,富磯南２,S0110000107,富磯南２
S0110000108,富磯中央,S0110000108,富磯中央
S011000010800000,富磯中央,S0110000108,富磯中央
S0110000109,富磯小学校前,S0110000109,富磯小学校前
S011000010900000,富磯小学校前,S0110000109,富磯小学校前
S0110000110,富磯,S0110000110,富磯
S011000011000000,富磯,S0110000110,富磯
S0110000111,富磯橋,S0110000111,富磯橋
S011000011100000,富磯橋,S0110000111,富磯橋
S0110000112,富磯漁港前,S0110000112,富磯漁港前
S011000011200000,富磯漁港前,S0110000112,富磯漁港前
S0110000113,宗谷１,S0110000113,宗谷１
S011000011300000,宗谷１,S0110000113,宗谷１
S0110000114,宗谷,S0110000114,宗谷
S011000011400000,宗谷,S0110000114,宗谷
S0110000115,宗谷中学校前,S0110000115,宗谷中学校前
S011000011500000,宗谷中学校前,S0110000115,宗谷中学校前
S0110000116,恩頃間内,S0110000116,恩頃間内
S011000011600000,恩頃間内,S0110000116,恩頃間内
S0110000117,第二清浜,S0110000117,第二清浜
S011000011700000,第二清浜,S0110000117,第二清浜
S0110000118,珊内,S0110000118,珊内
S011000011800000,珊内,S0110000118,珊内
S0110000119,宗谷岬,S0110000119,宗谷岬
S011000011900000,宗谷岬,S0110000119,宗谷岬
S0110000120,宗谷岬漁港前,S0110000120,宗谷岬漁港前
S011000012000000,宗谷岬漁港前,S0110000120,宗谷岬漁港前
S0110000121,宗谷岬会館前,S0110000121,宗谷岬会館前
S011000012100000,宗谷岬会館前,S0110000121,宗谷岬会館前
S0110000122,宗谷岬３区,S0110000122,宗谷岬３区
S011000012200000,宗谷岬３区,S0110000122,宗谷岬３区
S0110000123,大岬小学校前,S0110000123,大岬小学校前
S011000012300000,大岬小学校前,S0110000123,大岬小学校前
S0110000124,東浦,S0110000124,東浦
S011000012400000,東浦,S0110000124,東浦
S0110000125,苗太路,S0110000125,苗太路
S011000012500000,苗太路,S0110000125,苗太路
S0110000126,鈴木宅前,S0110000126,鈴木宅前
S011000012600000,鈴木宅前,S0110000126,鈴木宅前
S0110000127,知来別学校前,S0110000127,知来別学校前
S011000012700000,知来別学校前,S0110000127,知来別学校前
S0110000128,知来別漁港前,S0110000128,知来別漁港前
S011000012800000,知来別漁港前,S0110000128,知来別漁港前
S0110000129,天野宅前,S0110000129,天野宅前
S011000012900000,天野宅前,S0110000129,天野宅前
S0110000130,知来別シネシンコ,S0110000130,知来別シネシンコ
S011000013000000,知来別シネシンコ,S0110000130,知来別シネシンコ
S0110000131,浜鬼志別シネシンコ,S0110000131,浜鬼志別シネシンコ
S011000013100000,浜鬼志別シネシンコ,S0110000131,浜鬼志別シネシンコ
S0110000132,浜鬼志別局前,S0110000132,浜鬼志別局前
S011000013200000,浜鬼志別局前,S0110000132,浜鬼志別局前
S0110000133,管理センター前（浜鬼志別）,S0110000133,管理センター前（浜鬼志別）
S0110000134,新生農場前,S0110000134,新生農場前
S011000013400000,新生農場前,S0110000134,新生農場前
S011000013400001,新生農場前,S0110000134,新生農場前
S0110000135,国民健康保険病院前（猿払村）,S0110000135,国民健康保険病院前（猿払村）
S011000013500000,国民健康保険病院前（猿払村）,S0110000135,国民健康保険病院前（猿払村）
S011000013500001,国民健康保険病院前（猿払村）,S0110000135,国民健康保険病院前（猿払村）
S0110000136,Ａコープ前,S0110000136,Ａコープ前
S0110000137,鬼志別ターミナル,S0110000137,鬼志別ターミナル
S011000013700000,鬼志別ターミナル,S0110000137,鬼志別ターミナル
S0110000138,浜鬼志別,S0110000138,浜鬼志別
S011000013800000,浜鬼志別,S0110000138,浜鬼志別
S0110000139,開発事業所前（猿払村）,S0110000139,開発事業所前（猿払村）
S011000013900000,開発事業所前（猿払村）,S0110000139,開発事業所前（猿払村）
S0110000140,村営牧場前（猿払村）,S0110000140,村営牧場前（猿払村）
S011000014000000,村営牧場前（猿払村）,S0110000140,村営牧場前（猿払村）
S0110000141,さるふつ公園前,S0110000141,さるふつ公園前
S011000014100000,さるふつ公園前,S0110000141,さるふつ公園前
S0110000142,恵山辺,S0110000142,恵山辺
S011000014200000,恵山辺,S0110000142,恵山辺
S0110000143,猿骨,S0110000143,猿骨
S011000014300000,猿骨,S0110000143,猿骨
S0110000144,芦野,S0110000144,芦野
S011000014400000,芦野,S0110000144,芦野
S0110000145,芦野高台,S0110000145,芦野高台
S011000014500000,芦野高台,S0110000145,芦野高台
S0110000146,猿払,S0110000146,猿払
S011000014600000,猿払,S0110000146,猿払
S0110000147,浜猿払,S0110000147,浜猿払
S011000014700000,浜猿払,S0110000147,浜猿払
S0110000148,生産団地前（猿払村）,S0110000148,生産団地前（猿払村）
S011000014800000,生産団地前（猿払村）,S0110000148,生産団地前（猿払村）
S0110000149,浅茅野,S0110000149,浅茅野
S011000014900000,浅茅野,S0110000149,浅茅野
S0110000150,ひょうたん沼入口,S0110000150,ひょうたん沼入口
S011000015000000,ひょうたん沼入口,S0110000150,ひょうたん沼入口
S0110000151,飛行場前（猿払村）,S0110000151,飛行場前（猿払村）
S011000015100000,飛行場前（猿払村）,S0110000151,飛行場前（猿払村）
S0110000152,安別,S0110000152,安別
S011000015200000,安別,S0110000152,安別
S0110000153,山軽,S0110000153,山軽
S011000015300000,山軽,S0110000153,山軽
S0110000154,よつ葉乳業前,S0110000154,よつ葉乳業前
S011000015400000,よつ葉乳業前,S0110000154,よつ葉乳業前
S0110000155,ベニヤ原生花園,S0110000155,ベニヤ原生花園
S011000015500000,ベニヤ原生花園,S0110000155,ベニヤ原生花園
S0110000156,工業団地前（浜頓別町）,S0110000156,工業団地前（浜頓別町）
S011000015600000,工業団地前（浜頓別町）,S0110000156,工業団地前（浜頓別町）
S0110000157,営林署前（浜頓別町）,S0110000157,営林署前（浜頓別町）
S011000015700000,営林署前（浜頓別町）,S0110000157,営林署前（浜頓別町）
S0110000158,大通三丁目,S0110000158,大通三丁目
S011000015800000,大通三丁目,S0110000158,大通三丁目
S0110000159,浜頓別ターミナル,S0110000159,浜頓別ターミナル
S011000015900000,浜頓別ターミナル,S0110000159,浜頓別ターミナル
S0110000160,浜頓別高校前,S0110000160,浜頓別高校前
S011000016000000,浜頓別高校前,S0110000160,浜頓別高校前
S0110000161,農試住宅前（浜頓別町）,S0110000161,農試住宅前（浜頓別町）
S011000016100000,農試住宅前（浜頓別町）,S0110000161,農試住宅前（浜頓別町）
S0110000162,金ヶ丘,S0110000162,金ヶ丘
S011000016200000,金ヶ丘,S0110000162,金ヶ丘
S0110000163,常盤,S0110000163,常盤
S011000016300000,常盤,S0110000163,常盤
S0110000164,下頓別四町内,S0110000164,下頓別四町内
S011000016400000,下頓別四町内,S0110000164,下頓別四町内
S0110000165,下頓別,S0110000165,下頓別
S011000016500000,下頓別,S0110000165,下頓別
S0110000166,高砂,S0110000166,高砂
S011000016600000,高砂,S0110000166,高砂
S0110000167,新弥生,S0110000167,新弥生
S011000016700000,新弥生,S0110000167,新弥生
S0110000168,弥生,S0110000168,弥生
S011000016800000,弥生,S0110000168,弥生
S0110000169,寿,S0110000169,寿
S011000016900000,寿,S0110000169,寿
S0110000170,スキー場前,S0110000170,スキー場前
S011000017000000,スキー場前,S0110000170,スキー場前
S0110000171,自動車学校前［中頓別町］,S0110000171,自動車学校前［中頓別町］
S011000017100000,自動車学校前［中頓別町］,S0110000171,自動車学校前［中頓別町］
S0110000172,旭台団地前,S0110000172,旭台団地前
S011000017200000,旭台団地前,S0110000172,旭台団地前
S0110000173,中頓別ターミナル,S0110000173,中頓別ターミナル
S011000017300000,中頓別ターミナル,S0110000173,中頓別ターミナル
S0110000174,本通り,S0110000174,本通り
S011000017400000,本通り,S0110000174,本通り
S0110000175,中頓別長寿園前,S0110000175,中頓別長寿園前
S011000017500000,中頓別長寿園前,S0110000175,中頓別長寿園前
S0110000176,天北厚生園前,S0110000176,天北厚生園前
S011000017600000,天北厚生園前,S0110000176,天北厚生園前
S0110000177,共進会場前,S0110000177,共進会場前
S011000017700000,共進会場前,S0110000177,共進会場前
S0110000178,上駒,S0110000178,上駒
S011000017800000,上駒,S0110000178,上駒
S0110000179,松音知一号線,S0110000179,松音知一号線
S011000017900000,松音知一号線,S0110000179,松音知一号線
S0110000180,松音知,S0110000180,松音知
S011000018000000,松音知,S0110000180,松音知
S0110000181,松音知宝来,S0110000181,松音知宝来
S011000018100000,松音知宝来,S0110000181,松音知宝来
S0110000182,周麿,S0110000182,周麿
S011000018200000,周麿,S0110000182,周麿
S0110000183,藤山一号線,S0110000183,藤山一号線
S011000018300000,藤山一号線,S0110000183,藤山一号線
S0110000184,藤山,S0110000184,藤山
S011000018400000,藤山,S0110000184,藤山
S0110000185,ピンネシリ温泉,S0110000185,ピンネシリ温泉
S011000018500000,ピンネシリ温泉,S0110000185,ピンネシリ温泉
S0110000186,豊平入口,S0110000186,豊平入口
S011000018600000,豊平入口,S0110000186,豊平入口
S0110000187,恵野,S0110000187,恵野
S011000018700000,恵野,S0110000187,恵野
S0110000188,神崎入口,S0110000188,神崎入口
S011000018800000,神崎入口,S0110000188,神崎入口
S0110000189,上頓別,S0110000189,上頓別
S011000018900000,上頓別,S0110000189,上頓別
S0110000190,８号の沢,S0110000190,８号の沢
S011000019000000,８号の沢,S0110000190,８号の沢
S0110000191,岩手,S0110000191,岩手
S011000019100000,岩手,S0110000191,岩手
S0110000192,駐在所前（中頓別）,S0110000192,駐在所前（中頓別）
S011000019200000,駐在所前（中頓別）,S0110000192,駐在所前（中頓別）
S0110000193,小頓別,S0110000193,小頓別
S011000019300000,小頓別,S0110000193,小頓別
S0110000194,秋田入口,S0110000194,秋田入口
S011000019400000,秋田入口,S0110000194,秋田入口
S0110000195,上音威子府,S0110000195,上音威子府
S011000019500000,上音威子府,S0110000195,上音威子府
S0110000196,北線,S0110000196,北線
S011000019600000,北線,S0110000196,北線
S0110000197,音威子府,S0110000197,音威子府
S011000019700000,音威子府,S0110000197,音威子府
S0110000198,萩見四丁目,S0110000198,萩見四丁目
S011000019800000,萩見四丁目,S0110000198,萩見四丁目
S0110000199,萩見五丁目,S0110000199,萩見五丁目
S011000019900000,萩見五丁目,S0110000199,萩見五丁目
S0110000200,朝日入口,S0110000200,朝日入口
S011000020000000,朝日入口,S0110000200,朝日入口
S0110000201,萩見ニュータウン,S0110000201,萩見ニュータウン
S011000020100000,萩見ニュータウン,S0110000201,萩見ニュータウン
S0110000202,北星学園前,S0110000202,北星学園前
S011000020200000,北星学園前,S0110000202,北星学園前
S0110000203,富岡五丁目,S0110000203,富岡五丁目
S011000020300000,富岡五丁目,S0110000203,富岡五丁目
S0110000204,富岡児童センター前,S0110000204,富岡児童センター前
S011000020400000,富岡児童センター前,S0110000204,富岡児童センター前
S0110000205,富岡三丁目,S0110000205,富岡三丁目
S011000020500000,富岡三丁目,S0110000205,富岡三丁目
S0110000206,富岡二丁目,S0110000206,富岡二丁目
S011000020600000,富岡二丁目,S0110000206,富岡二丁目
S0110000207,富岡一丁目,S0110000207,富岡一丁目
S011000020700000,富岡一丁目,S0110000207,富岡一丁目
S0110000208,萩見三丁目,S0110000208,萩見三丁目
S011000020800000,萩見三丁目,S0110000208,萩見三丁目
S0110000209,技術専門学院前（稚内市）,S0110000209,技術専門学院前（稚内市）
S011000020900000,技術専門学院前（稚内市）,S0110000209,技術専門学院前（稚内市）
S0110000210,ユアーズ前,S0110000210,ユアーズ前
S011000021000000,ユアーズ前,S0110000210,ユアーズ前
S0110000211,朝日二丁目,S0110000211,朝日二丁目
S011000021100000,朝日二丁目,S0110000211,朝日二丁目
S0110000212,朝日六丁目,S0110000212,朝日六丁目
S011000021200000,朝日六丁目,S0110000212,朝日六丁目
S0110000213,朝日五丁目,S0110000213,朝日五丁目
S011000021300000,朝日五丁目,S0110000213,朝日五丁目
S0110000214,栄四丁目,S0110000214,栄四丁目
S011000021400000,栄四丁目,S0110000214,栄四丁目
S011000021400001,栄四丁目,S0110000214,栄四丁目
S0110000215,禎心会病院,S0110000215,禎心会病院
S011000021500000,禎心会病院,S0110000215,禎心会病院
S0110000216,合同庁舎前（稚内市）,S0110000216,合同庁舎前（稚内市）
S011000021600000,合同庁舎前（稚内市）,S0110000216,合同庁舎前（稚内市）
S0110000217,末広四丁目,S0110000217,末広四丁目
S011000021700000,末広四丁目,S0110000217,末広四丁目
S0110000218,末広三丁目,S0110000218,末広三丁目
S011000021800000,末広三丁目,S0110000218,末広三丁目
S0110000219,末広二丁目,S0110000219,末広二丁目
S011000021900000,末広二丁目,S0110000219,末広二丁目
S0110000220,南駅前［緑町線］,S0110000220,南駅前［緑町線］
S011000022000000,南駅前［緑町線］,S0110000220,南駅前［緑町線］
S011000022000001,南駅前［緑町線］,S0110000220,南駅前［緑町線］
S0110000221,緑五丁目２８番,S0110000221,緑五丁目２８番
S011000022100000,緑五丁目２８番,S0110000221,緑五丁目２８番
S0110000222,緑五丁目２５番,S0110000222,緑五丁目２５番
S011000022200000,緑五丁目２５番,S0110000222,緑五丁目２５番
S0110000223,雇用促進住宅前（稚内市）,S0110000223,雇用促進住宅前（稚内市）
S011000022300000,雇用促進住宅前（稚内市）,S0110000223,雇用促進住宅前（稚内市）
S0110000224,森林公園前（稚内市）,S0110000224,森林公園前（稚内市）
S011000022400000,森林公園前（稚内市）,S0110000224,森林公園前（稚内市）
S0110000225,こまどり五丁目,S0110000225,こまどり五丁目
S011000022500000,こまどり五丁目,S0110000225,こまどり五丁目
S0110000226,栄ニュータウン,S0110000226,栄ニュータウン
S011000022600000,栄ニュータウン,S0110000226,栄ニュータウン
S0110000227,栄一丁目,S0110000227,栄一丁目
S011000022700000,栄一丁目,S0110000227,栄一丁目
S0110000228,こまどり四丁目,S0110000228,こまどり四丁目
S011000022800000,こまどり四丁目,S0110000228,こまどり四丁目
