{"type": "FeatureCollection", "features": [{"type": "Feature", "geometry": {"type": "Point", "coordinates": [141.676144041449, 45.4176997808715]}, "properties": {"stop_id": "S0110000001", "stop_name": "駅前ターミナル（稚内駅）", "route_ids": []}}, {"type": "Feature", "geometry": {"type": "Point", "coordinates": [141.676144041449, 45.4176997808715]}, "properties": {"stop_id": "S011000000100000", "stop_name": "駅前ターミナル（稚内駅）", "route_ids": ["R011000003000000", "R011000003010000", "R011000005000000", "R011000005010000", "R011000008000000", "R011000009000000", "R011000009010000", "R011000010000000", "R011000010010000", "R011000011000000", "R011000012000000", "R011000012010000", "R011001257000000", "R011001257010000", "R011001258000000", "R011001292000000", "R011001292010000", "R011001293000000", "R011001293010000", "R011001294000000", "R011001295000000"]}}, {"type": "Feature", "geometry": {"type": "Point", "coordinates": [141.676144041449, 45.4176997808715]}, "properties": {"stop_id": "S011000000100001", "stop_name": "駅前ターミナル（稚内駅）", "route_ids": ["R011000003000000", "R011000005000000", "R011000005010000", "R011000011010000"]}}, {"type": "Feature", "geometry": {"type": "Point", "coordinates": [141.676144041449, 45.4176997808715]}, "properties": {"stop_id": "S011000000100002", "stop_name": "駅前ターミナル（稚内駅）", "route_ids": ["R011000003010000"]}}, {"type": "Feature", "geometry": {"type": "Point", "coordinates": [141.676074778638, 45.4151740502087]}, "properties": {"stop_id": "S0110000002", "stop_name": "中央三丁目", "route_ids": []}}, {"type": "Feature", "geometry": {"type": "Point", "coordinates": [141.676074778638, 45.4151740502087]}, "properties": {"stop_id": "S011000000200000", "stop_name": "中央三丁目", "route_ids": ["R011001258000000"]}}, {"type": "Feature", "geometry": {"type": "Point", "coordinates": [141.674963922429, 45.4130301808085]}, "properties": {"stop_id": "S0110000003", "stop_name": "中央四丁目", "route_ids": []}}, {"type": "Feature", "geometry": {"type": "Point", "coordinates": [141.674963922429, 45.4130301808085]}, "properties": {"stop_id": "S011000000300000", "stop_name": "中央四丁目", "route_ids": ["R011000003000000", "R011000003010000", "R011000005000000", "R011000005010000", "R011000008000000", "R011000009000000", "R011000009010000", "R011000010000000", "R011000010010000", "R011000011000000", "R011000011010000", "R011000012000000", "R011000012010000", "R011001257000000", "R011001257010000", "R011001258000000", "R011001292000000", "R011001292010000", "R011001293000000", "R011001293010000", "R011001294000000", "R011001295000000"]}}, {"type": "Feature", "geometry": {"type": "Point", "coordinates": [141.674963922429, 45.4130301808085]}, "properties": {"stop_id": "S011000000300001", "stop_name": "中央四丁目", "route_ids": ["R011000003000000", "R011000003010000", "R011000005000000", "R011000005010000"]}}, {"type": "Feature", "geometry": {"type": "Point", "coordinates": [141.675727920924, 45.4103916455426]}, "properties": {"stop_id": "S0110000004", "stop_name": "中央五丁目", "route_ids": []}}, {"type": "Feature", "geometry": {"type": "Point", "coordinates": [141.675727920924, 45.4103916455426]}, "properties": {"stop_id": "S011000000400000", "stop_name": "中央五丁目", "route_ids": ["R011001258000000"]}}, {"type": "Feature", "geometry": {"type": "Point", "coordinates": [141.674547658726, 45.407787761378]}, "properties": {"stop_id": "S0110000005", "stop_name": "港二丁目", "route_ids": []}}, {"type": "Feature", "geometry": {"type": "Point", "coordinates": [141.674547658726, 45.407787761378]}, "properties": {"stop_id": "S011000000500000", "stop_name": "港二丁目", "route_ids": ["R011000003000000", "R011000003010000", "R011000005000000", "R011000005010000", "R011000008000000", "R011000009000000", "R011000009010000", "R011000010000000", "R011000010010000", "R011000011000000", "R011000011010000", "R011000012000000", "R011000012010000", "R011001257000000", "R011001257010000", "R011001258000000", "R011001292000000", "R011001292010000", "R011001293000000", "R011001293010000", "R011001294000000", "R011001295000000"]}}, {"type": "Feature", "geometry": {"type": "Point", "coordinates": [141.674547658726, 45.407787761378]}, "properties": {"stop_id": "S011000000500001", "stop_name": "港二丁目", "route_ids": ["R011000003000000", "R011000003010000", "R011000005000000", "R011000005010000"]}}, {"type": "Feature", "geometry": {"type": "Point", "coordinates": [141.677360220583, 45.4030054652249]}, "properties": {"stop_id": "S0110000006", "stop_name": "消防署前（稚内市）", "route_ids": []}}, {"type": "Feature", "geometry": {"type": "Point", "coordinates": [141.677360220583, 45.4030054652249]}, "properties": {"stop_id": "S011000000600000", "stop_name": "消防署前（稚内市）", "route_ids": ["R011000009000000", "R011000009010000", "R011000010000000", "R011000010010000", "R011001257000000", "R011001257010000", "R011001258000000"]}}, {"type": "Feature", "geometry": {"type": "Point", "coordinates": [141.681214175718, 45.4007315741984]}, "properties": {"stop_id": "S0110000007", "stop_name": "港五丁目", "route_ids": []}}, {"type": "Feature", "geometry": {"type": "Point", "coordinates": [141.681214175718, 45.4007315741984]}, "properties": {"stop_id": "S011000000700000", "stop_name": "港五丁目", "route_ids": ["R011000009000000", "R011000009010000", "R011000010000000", "R011000010010000", "R011001257000000", "R011001257010000", "R011001258000000"]}}, {"type": "Feature", "geometry": {"type": "Point", "coordinates": [141.684790328617, 45.3991954293251]}, "properties": {"stop_id": "S0110000008", "stop_name": "南駅前［国道４０号］", "route_ids": []}}, {"type": "Feature", "geometry": {"type": "Point", "coordinates": [141.684790328617, 45.3991954293251]}, "properties": {"stop_id": "S011000000800000", "stop_name": "南駅前［国道４０号］", "route_ids": ["R011000009000000", "R011000009010000", "R011000010000000", "R011000010010000", "R011001257000000", "R011001257010000", "R011001258000000"]}}, {"type": "Feature", "geometry": {"type": "Point", "coordinates": [141.688366447891, 45.3981453352696]}, "properties": {"stop_id": "S0110000009", "stop_name": "大黒三丁目［国道４０号］", "route_ids": []}}, {"type": "Feature", "geometry": {"type": "Point", "coordinates": [141.688366447891, 45.3981453352696]}, "properties": {"stop_id": "S011000000900000", "stop_name": "大黒三丁目［国道４０号］", "route_ids": ["R011000009000000", "R011000009010000", "R011000010000000", "R011000010010000", "R011000015000000", "R011000016000000", "R011000017000000", "R011001257000000", "R011001257010000", "R011001258000000"]}}, {"type": "Feature", "geometry": {"type": "Point", "coordinates": [141.688366447891, 45.3981453352696]}, "properties": {"stop_id": "S011000000900001", "stop_name": "大黒三丁目［国道４０号］", "route_ids": ["R011000015000000", "R011000016000000", "R011000017000000"]}}, {"type": "Feature", "geometry": {"type": "Point", "coordinates": [141.692671677889, 45.3968956382617]}, "properties": {"stop_id": "S0110000010", "stop_name": "大黒四丁目", "route_ids": []}}, {"type": "Feature", "geometry": {"type": "Point", "coordinates": [141.692671677889, 45.3968956382617]}, "properties": {"stop_id": "S011000001000000", "stop_name": "大黒四丁目", "route_ids": ["R011000009000000", "R011000009010000", "R011000010000000", "R011000010010000", "R011000015000000", "R011000016000000", "R011000017000000", "R011001257000000", "R011001257010000", "R011001258000000"]}}, {"type": "Feature", "geometry": {"type": "Point", "coordinates": [141.692671677889, 45.3968956382617]}, "properties": {"stop_id": "S011000001000001", "stop_name": "大黒四丁目", "route_ids": ["R011000015000000", "R011000016000000", "R011000017000000"]}}, {"type": "Feature", "geometry": {"type": "Point", "coordinates": [141.698921219772, 45.3948735344614]}, "properties": {"stop_id": "S0110000011", "stop_name": "潮見一丁目", "route_ids": []}}, {"type": "Feature", "geometry": {"type": "Point", "coordinates": [141.698921219772, 45.3948735344614]}, "properties": {"stop_id": "S011000001100000", "stop_name": "潮見一丁目", "route_ids": ["R011000003000000", "R011000003010000", "R011000005000000", "R011000005010000", "R011000008000000", "R011000009000000", "R011000009010000", "R011000010000000", "R011000010010000", "R011000011000000", "R011000011010000", "R011000014000000", "R011001257000000", "R011001257010000", "R011001258000000", "R011001292000000", "R011001292010000", "R011001293000000", "R011001293010000", "R011001294000000", "R011001295000000"]}}, {"type": "Feature", "geometry": {"type": "Point", "coordinates": [141.698921219772, 45.3948735344614]}, "properties": {"stop_id": "S011000001100001", "stop_name": "潮見一丁目", "route_ids": ["R011000005000000", "R011000005010000"]}}, {"type": "Feature", "geometry": {"type": "Point", "coordinates": [141.701420948079, 45.395342312248]}, "properties": {"stop_id": "S0110000012", "stop_name": "潮見三丁目", "route_ids": []}}, {"type": "Feature", "geometry": {"type": "Point", "coordinates": [141.701420948079, 45.395342312248]}, "properties": {"stop_id": "S011000001200000", "stop_name": "潮見三丁目", "route_ids": ["R011000003000000", "R011000003010000", "R011000005000000", "R011000005010000", "R011000008000000", "R011000011000000", "R011000011010000", "R011000013000000", "R011000013010000", "R011000014000000", "R011001257000000", "R011001258000000", "R011001292000000", "R011001292010000", "R011001293000000", "R011001293010000", "R011001294000000", "R011001295000000"]}}, {"type": "Feature", "geometry": {"type": "Point", "coordinates": [141.701420948079, 45.395342312248]}, "properties": {"stop_id": "S011000001200001", "stop_name": "潮見三丁目", "route_ids": ["R011000005000000", "R011000005010000"]}}, {"type": "Feature", "geometry": {"type": "Point", "coordinates": [141.707323193473, 45.3948738232788]}, "properties": {"stop_id": "S0110000013", "stop_name": "潮見五丁目", "route_ids": []}}, {"type": "Feature", "geometry": {"type": "Point", "coordinates": [141.707323193473, 45.3948738232788]}, "properties": {"stop_id": "S011000001300000", "stop_name": "潮見五丁目", "route_ids": ["R011000003000000", "R011000003010000", "R011000005000000", "R011000005010000", "R011000008000000", "R011000009000000", "R011000009010000", "R011000010000000", "R011000010010000", "R011000011000000", "R011000011010000", "R011000013000000", "R011000013010000", "R011000014000000", "R011001257000000", "R011001257010000", "R011001258000000", "R011001292000000", "R011001292010000", "R011001293000000", "R011001293010000", "R011001294000000", "R011001295000000"]}}, {"type": "Feature", "geometry": {"type": "Point", "coordinates": [141.707323193473, 45.3948738232788]}, "properties": {"stop_id": "S011000001300001", "stop_name": "潮見五丁目", "route_ids": ["R011000005000000", "R011000005010000", "R011000008000000", "R011001294000000", "R011001295000000"]}}, {"type": "Feature", "geometry": {"type": "Point", "coordinates": [141.711801920133, 45.3950388873606]}, "properties": {"stop_id": "S0110000014", "stop_name": "はまなす一丁目", "route_ids": []}}, {"type": "Feature", "geometry": {"type": "Point", "coordinates": [141.711801920133, 45.3950388873606]}, "properties": {"stop_id": "S011000001400000", "stop_name": "はまなす一丁目", "route_ids": ["R011000005000000", "R011000005010000", "R011000008000000", "R011001257000000", "R011001257010000", "R011001258000000", "R011001294000000", "R011001295000000"]}}, {"type": "Feature", "geometry": {"type": "Point", "coordinates": [141.711801920133, 45.3950388873606]}, "properties": {"stop_id": "S011000001400001", "stop_name": "はまなす一丁目", "route_ids": ["R011000005000000", "R011000005010000"]}}, {"type": "Feature", "geometry": {"type": "Point", "coordinates": [141.718433226439, 45.3950911922531]}, "properties": {"stop_id": "S0110000015", "stop_name": "はまなす団地", "route_ids": []}}, {"type": "Feature", "geometry": {"type": "Point", "coordinates": [141.718433226439, 45.3950911922531]}, "properties": {"stop_id": "S011000001500000", "stop_name": "はまなす団地", "route_ids": ["R011000005000000", "R011000005010000", "R011000008000000", "R011001257000000", "R011001257010000", "R011001258000000", "R011001294000000", "R011001295000000"]}}, {"type": "Feature", "geometry": {"type": "Point", "coordinates": [141.718433226439, 45.3950911922531]}, "properties": {"stop_id": "S011000001500001", "stop_name": "はまなす団地", "route_ids": ["R011000005000000", "R011000005010000"]}}, {"type": "Feature", "geometry": {"type": "Point", "coordinates": [141.724231238294, 45.3957336731013]}, "properties": {"stop_id": "S0110000016", "stop_name": "はまなす三丁目", "route_ids": []}}, {"type": "Feature", "geometry": {"type": "Point", "coordinates": [141.724231238294, 45.3957336731013]}, "properties": {"stop_id": "S011000001600000", "stop_name": "はまなす三丁目", "route_ids": ["R011000005000000", "R011000005010000", "R011001257000000", "R011001257010000", "R011001258000000"]}}, {"type": "Feature", "geometry": {"type": "Point", "coordinates": [141.724231238294, 45.3957336731013]}, "properties": {"stop_id": "S011000001600001", "stop_name": "はまなす三丁目", "route_ids": ["R011000005000000", "R011000005010000"]}}, {"type": "Feature", "geometry": {"type": "Point", "coordinates": [141.73124436418, 45.39706187463]}, "properties": {"stop_id": "S0110000017", "stop_name": "はまなす四丁目", "route_ids": []}}, {"type": "Feature", "geometry": {"type": "Point", "coordinates": [141.73124436418, 45.39706187463]}, "properties": {"stop_id": "S011000001700000", "stop_name": "はまなす四丁目", "route_ids": ["R011000005000000", "R011000005010000", "R011001257000000", "R011001257010000", "R011001258000000"]}}, {"type": "Feature", "geometry": {"type": "Point", "coordinates": [141.73124436418, 45.39706187463]}, "properties": {"stop_id": "S011000001700001", "stop_name": "はまなす四丁目", "route_ids": ["R011000005000000", "R011000005010000"]}}, {"type": "Feature", "geometry": {"type": "Point", "coordinates": [141.7366604393, 45.3981209574081]}, "properties": {"stop_id": "S0110000018", "stop_name": "はまなす五丁目", "route_ids": []}}, {"type": "Feature", "geometry": {"type": "Point", "coordinates": [141.7366604393, 45.3981209574081]}, "properties": {"stop_id": "S011000001800000", "stop_name": "はまなす五丁目", "route_ids": ["R011000005000000", "R011000005010000", "R011001257000000", "R011001257010000", "R011001258000000"]}}, {"type": "Feature", "geometry": {"type": "Point", "coordinates": [141.7366604393, 45.3981209574081]}, "properties": {"stop_id": "S011000001800001", "stop_name": "はまなす五丁目", "route_ids": ["R011000005000000", "R011000005010000"]}}, {"type": "Feature", "geometry": {"type": "Point", "coordinates": [141.74961012351, 45.4048393198799]}, "properties": {"stop_id": "S0110000019", "stop_name": "声問一丁目", "route_ids": []}}, {"type": "Feature", "geometry": {"type": "Point", "coordinates": [141.74961012351, 45.4048393198799]}, "properties": {"stop_id": "S011000001900000", "stop_name": "声問一丁目", "route_ids": ["R011000005000000", "R011000005010000", "R011001257000000", "R011001257010000", "R011001258000000"]}}, {"type": "Feature", "geometry": {"type": "Point", "coordinates": [141.74961012351, 45.4048393198799]}, "properties": {"stop_id": "S011000001900001", "stop_name": "声問一丁目", "route_ids": ["R011000005000000", "R011000005010000"]}}, {"type": "Feature", "geometry": {"type": "Point", "coordinates": [141.75460969704, 45.4040930567671]}, "properties": {"stop_id": "S0110000020", "stop_name": "声問局前", "route_ids": []}}, {"type": "Feature", "geometry": {"type": "Point", "coordinates": [141.75460969704, 45.4040930567671]}, "properties": {"stop_id": "S011000002000000", "stop_name": "声問局前", "route_ids": ["R011000005000000", "R011000005010000", "R011001257000000", "R011001257010000", "R011001258000000"]}}, {"type": "Feature", "geometry": {"type": "Point", "coordinates": [141.75460969704, 45.4040930567671]}, "properties": {"stop_id": "S011000002000001", "stop_name": "声問局前", "route_ids": ["R011000005000000", "R011000005010000"]}}, {"type": "Feature", "geometry": {"type": "Point", "coordinates": [141.76009529308, 45.4039543739461]}, "properties": {"stop_id": "S0110000021", "stop_name": "声問橋", "route_ids": []}}, {"type": "Feature", "geometry": {"type": "Point", "coordinates": [141.76009529308, 45.4039543739461]}, "properties": {"stop_id": "S011000002100000", "stop_name": "声問橋", "route_ids": ["R011000005000000", "R011000005010000", "R011001257000000", "R011001257010000", "R011001258000000"]}}, {"type": "Feature", "geometry": {"type": "Point", "coordinates": [141.765268401579, 45.4040673852868]}, "properties": {"stop_id": "S0110000022", "stop_name": "声問", "route_ids": []}}, {"type": "Feature", "geometry": {"type": "Point", "coordinates": [141.765268401579, 45.4040673852868]}, "properties": {"stop_id": "S011000002200000", "stop_name": "声問", "route_ids": ["R011000005000000", "R011000005010000", "R011001257000000", "R011001257010000", "R011001258000000"]}}, {"type": "Feature", "geometry": {"type": "Point", "coordinates": [141.704302951491, 45.3905079415064]}, "properties": {"stop_id": "S0110000037", "stop_name": "萩見一丁目", "route_ids": []}}, {"type": "Feature", "geometry": {"type": "Point", "coordinates": [141.704302951491, 45.3905079415064]}, "properties": {"stop_id": "S011000003700000", "stop_name": "萩見一丁目", "route_ids": ["R011000009000000", "R011000009010000", "R011000010000000", "R011000010010000", "R011001257010000"]}}, {"type": "Feature", "geometry": {"type": "Point", "coordinates": [141.701768465793, 45.3905946491805]}, "properties": {"stop_id": "S0110000038", "stop_name": "栄三丁目", "route_ids": []}}, {"type": "Feature", "geometry": {"type": "Point", "coordinates": [141.701768465793, 45.3905946491805]}, "properties": {"stop_id": "S011000003800000", "stop_name": "栄三丁目", "route_ids": ["R011000009000000", "R011000009010000", "R011000010000000", "R011000010010000", "R011001257010000"]}}, {"type": "Feature", "geometry": {"type": "Point", "coordinates": [141.699581109616, 45.3915406372121]}, "properties": {"stop_id": "S0110000039", "stop_name": "栄二丁目", "route_ids": []}}, {"type": "Feature", "geometry": {"type": "Point", "coordinates": [141.699581109616, 45.3915406372121]}, "properties": {"stop_id": "S011000003900000", "stop_name": "栄二丁目", "route_ids": ["R011000009000000", "R011000009010000", "R011000010000000", "R011000010010000", "R011001257010000"]}}, {"type": "Feature", "geometry": {"type": "Point", "coordinates": [141.692914841783, 45.3949948407339]}, "properties": {"stop_id": "S0110000040", "stop_name": "大黒五丁目［富岡線］", "route_ids": []}}, {"type": "Feature", "geometry": {"type": "Point", "coordinates": [141.692914841783, 45.3949948407339]}, "properties": {"stop_id": "S011000004000000", "stop_name": "大黒五丁目［富岡線］", "route_ids": ["R011000009000000", "R011000009010000", "R011000010000000", "R011000010010000", "R011000015000000", "R011000016000000", "R011001257010000"]}}, {"type": "Feature", "geometry": {"type": "Point", "coordinates": [141.673922195586, 45.4153388863329]}, "properties": {"stop_id": "S0110000041", "stop_name": "市役所前（稚内市）", "route_ids": []}}, {"type": "Feature", "geometry": {"type": "Point", "coordinates": [141.673922195586, 45.4153388863329]}, "properties": {"stop_id": "S011000004100000", "stop_name": "市役所前（稚内市）", "route_ids": ["R011000003000000", "R011000003010000", "R011000005000000", "R011000005010000", "R011000008000000", "R011000009000000", "R011000009010000", "R011000010000000", "R011000010010000", "R011000011000000", "R011000011010000", "R011000012000000", "R011000012010000", "R011001257000000", "R011001257010000", "R011001292000000", "R011001292010000", "R011001293000000", "R011001293010000", "R011001294000000", "R011001295000000"]}}, {"type": "Feature", "geometry": {"type": "Point", "coordinates": [141.673922195586, 45.4153388863329]}, "properties": {"stop_id": "S011000004100001", "stop_name": "市役所前（稚内市）", "route_ids": ["R011000003000000", "R011000003010000", "R011000005000000", "R011000005010000"]}}, {"type": "Feature", "geometry": {"type": "Point", "coordinates": [141.673922068716, 45.4171702563185]}, "properties": {"stop_id": "S0110000042", "stop_name": "稚内郵便局前", "route_ids": []}}, {"type": "Feature", "geometry": {"type": "Point", "coordinates": [141.673922068716, 45.4171702563185]}, "properties": {"stop_id": "S011000004200000", "stop_name": "稚内郵便局前", "route_ids": ["R011000003000000", "R011000003010000", "R011000005000000", "R011000005010000", "R011000008000000", "R011000009000000", "R011000009010000", "R011000010000000", "R011000010010000", "R011000011000000", "R011000011010000", "R011000012000000", "R011000012010000", "R011001257000000", "R011001257010000", "R011001292010000", "R011001293010000", "R011001294000000"]}}, {"type": "Feature", "geometry": {"type": "Point", "coordinates": [141.673922068716, 45.4171702563185]}, "properties": {"stop_id": "S011000004200001", "stop_name": "稚内郵便局前", "route_ids": ["R011000003000000", "R011000003010000", "R011000005000000", "R011000005010000", "R011001292000000"]}}, {"type": "Feature", "geometry": {"type": "Point", "coordinates": [141.673331704951, 45.4192272724604]}, "properties": {"stop_id": "S0110000043", "stop_name": "神社前", "route_ids": []}}, {"type": "Feature", "geometry": {"type": "Point", "coordinates": [141.673331704951, 45.4192272724604]}, "properties": {"stop_id": "S011000004300000", "stop_name": "神社前", "route_ids": ["R011000003010000", "R011000005000000", "R011000005010000", "R011000008000000", "R011000009010000", "R011000010000000", "R011000011000000", "R011000011010000", "R011000012010000", "R011001257000000", "R011001257010000", "R011001292000000", "R011001292010000"]}}, {"type": "Feature", "geometry": {"type": "Point", "coordinates": [141.673331704951, 45.4192272724604]}, "properties": {"stop_id": "S011000004300001", "stop_name": "神社前", "route_ids": ["R011000003000000", "R011000003010000", "R011000005000000", "R011000005010000"]}}, {"type": "Feature", "geometry": {"type": "Point", "coordinates": [141.67576200248, 45.4195918940796]}, "properties": {"stop_id": "S0110000044", "stop_name": "中央公園前", "route_ids": []}}, {"type": "Feature", "geometry": {"type": "Point", "coordinates": [141.67576200248, 45.4195918940796]}, "properties": {"stop_id": "S011000004400000", "stop_name": "中央公園前", "route_ids": ["R011000003010000", "R011000005000000", "R011000005010000", "R011000008000000", "R011000009010000", "R011000010000000", "R011000011000000", "R011000012010000", "R011001292010000"]}}, {"type": "Feature", "geometry": {"type": "Point", "coordinates": [141.67576200248, 45.4195918940796]}, "properties": {"stop_id": "S011000004400001", "stop_name": "中央公園前", "route_ids": ["R011000003000000"]}}, {"type": "Feature", "geometry": {"type": "Point", "coordinates": [141.673679602142, 45.4090028585716]}, "properties": {"stop_id": "S0110000045", "stop_name": "港一丁目", "route_ids": []}}, {"type": "Feature", "geometry": {"type": "Point", "coordinates": [141.673679602142, 45.4090028585716]}, "properties": {"stop_id": "S011000004500000", "stop_name": "港一丁目", "route_ids": ["R011000003000000", "R011000003010000", "R011000005000000", "R011000005010000", "R011000008000000", "R011000009000000", "R011000010010000", "R011000011000000", "R011000011010000", "R011000012000000", "R011000012010000", "R011001292000000", "R011001292010000", "R011001293000000", "R011001293010000", "R011001294000000", "R011001295000000"]}}, {"type": "Feature", "geometry": {"type": "Point", "coordinates": [141.673679602142, 45.4090028585716]}, "properties": {"stop_id": "S011000004500001", "stop_name": "港一丁目", "route_ids": ["R011000003000000", "R011000003010000", "R011000005000000", "R011000005010000"]}}, {"type": "Feature", "geometry": {"type": "Point", "coordinates": [141.674443773666, 45.4038646334217]}, "properties": {"stop_id": "S0110000046", "stop_name": "港三丁目", "route_ids": []}}, {"type": "Feature", "geometry": {"type": "Point", "coordinates": [141.674443773666, 45.4038646334217]}, "properties": {"stop_id": "S011000004600000", "stop_name": "港三丁目", "route_ids": ["R011000003000000", "R011000003010000", "R011000005000000", "R011000005010000", "R011000008000000", "R011000011000000", "R011000011010000", "R011000012000000", "R011000012010000", "R011001292000000", "R011001292010000", "R011001293000000", "R011001293010000", "R011001294000000", "R011001295000000"]}}, {"type": "Feature", "geometry": {"type": "Point", "coordinates": [141.674443773666, 45.4038646334217]}, "properties": {"stop_id": "S011000004600001", "stop_name": "港三丁目", "route_ids": ["R011000003000000", "R011000003010000", "R011000005000000", "R011000005010000"]}}, {"type": "Feature", "geometry": {"type": "Point", "coordinates": [141.675728488258, 45.4021982176369]}, "properties": {"stop_id": "S0110000047", "stop_name": "鈴蘭幼稚園", "route_ids": []}}, {"type": "Feature", "geometry": {"type": "Point", "coordinates": [141.675728488258, 45.4021982176369]}, "properties": {"stop_id": "S011000004700000", "stop_name": "鈴蘭幼稚園", "route_ids": ["R011000003000000", "R011000003010000", "R011000005000000", "R011000005010000", "R011000008000000", "R011000011000000", "R011000011010000", "R011000012000000", "R011000012010000", "R011001292000000", "R011001292010000", "R011001293000000", "R011001293010000", "R011001294000000", "R011001295000000"]}}, {"type": "Feature", "geometry": {"type": "Point", "coordinates": [141.675728488258, 45.4021982176369]}, "properties": {"stop_id": "S011000004700001", "stop_name": "鈴蘭幼稚園", "route_ids": ["R011000003000000", "R011000003010000", "R011000005000000", "R011000005010000"]}}, {"type": "Feature", "geometry": {"type": "Point", "coordinates": [141.678783895498, 45.400115247701]}, "properties": {"stop_id": "S0110000048", "stop_name": "港四丁目", "route_ids": []}}, {"type": "Feature", "geometry": {"type": "Point", "coordinates": [141.678783895498, 45.400115247701]}, "properties": {"stop_id": "S011000004800000", "stop_name": "港四丁目", "route_ids": ["R011000003000000", "R011000003010000", "R011000005000000", "R011000005010000", "R011000008000000", "R011000011000000", "R011000011010000", "R011000012000000", "R011000012010000", "R011001292000000", "R011001292010000", "R011001293000000", "R011001293010000", "R011001294000000", "R011001295000000"]}}, {"type": "Feature", "geometry": {"type": "Point", "coordinates": [141.678783895498, 45.400115247701]}, "properties": {"stop_id": "S011000004800001", "stop_name": "港四丁目", "route_ids": ["R011000003000000", "R011000003010000", "R011000005000000", "R011000005010000"]}}, {"type": "Feature", "geometry": {"type": "Point", "coordinates": [141.683644638013, 45.3987180186207]}, "properties": {"stop_id": "S0110000049", "stop_name": "南駅前［市内線］", "route_ids": []}}, {"type": "Feature", "geometry": {"type": "Point", "coordinates": [141.683644638013, 45.3987180186207]}, "properties": {"stop_id": "S011000004900000", "stop_name": "南駅前［市内線］", "route_ids": ["R011000003000000", "R011000003010000", "R011000005000000", "R011000005010000", "R011000008000000", "R011000011000000", "R011000011010000", "R011000012000000", "R011000012010000", "R011001292000000", "R011001292010000", "R011001293000000", "R011001293010000", "R011001294000000", "R011001295000000"]}}, {"type": "Feature", "geometry": {"type": "Point", "coordinates": [141.683644638013, 45.3987180186207]}, "properties": {"stop_id": "S011000004900001", "stop_name": "南駅前［市内線］", "route_ids": ["R011000003000000", "R011000003010000", "R011000005000000", "R011000005010000"]}}, {"type": "Feature", "geometry": {"type": "Point", "coordinates": [141.687012495563, 45.3969214822205]}, "properties": {"stop_id": "S0110000050", "stop_name": "大黒三丁目［緑町線］", "route_ids": []}}, {"type": "Feature", "geometry": {"type": "Point", "coordinates": [141.687012495563, 45.3969214822205]}, "properties": {"stop_id": "S011000005000000", "stop_name": "大黒三丁目［緑町線］", "route_ids": ["R011000003000000", "R011000003010000", "R011000012000000", "R011000012010000", "R011000013000000", "R011000013010000", "R011000014000000", "R011000015000000", "R011000016000000", "R011000017000000"]}}, {"type": "Feature", "geometry": {"type": "Point", "coordinates": [141.687012495563, 45.3969214822205]}, "properties": {"stop_id": "S011000005000001", "stop_name": "大黒三丁目［緑町線］", "route_ids": ["R011000017000000"]}}, {"type": "Feature", "geometry": {"type": "Point", "coordinates": [141.685623904832, 45.3945345778108]}, "properties": {"stop_id": "S0110000051", "stop_name": "南小学校前", "route_ids": []}}, {"type": "Feature", "geometry": {"type": "Point", "coordinates": [141.685623904832, 45.3945345778108]}, "properties": {"stop_id": "S011000005100000", "stop_name": "南小学校前", "route_ids": ["R011000003000000", "R011000003010000", "R011000012000000", "R011000012010000", "R011000013000000", "R011000013010000", "R011000014000000", "R011000015000000", "R011000016000000", "R011000017000000"]}}, {"type": "Feature", "geometry": {"type": "Point", "coordinates": [141.685623904832, 45.3945345778108]}, "properties": {"stop_id": "S011000005100001", "stop_name": "南小学校前", "route_ids": ["R011000017000000"]}}, {"type": "Feature", "geometry": {"type": "Point", "coordinates": [141.681561999097, 45.3915660564675]}, "properties": {"stop_id": "S0110000052", "stop_name": "緑三丁目", "route_ids": []}}, {"type": "Feature", "geometry": {"type": "Point", "coordinates": [141.681561999097, 45.3915660564675]}, "properties": {"stop_id": "S011000005200000", "stop_name": "緑三丁目", "route_ids": ["R011000003000000", "R011000003010000", "R011000012000000", "R011000012010000", "R011000013000000", "R011000013010000", "R011000014000000", "R011000015000000", "R011000016000000", "R011000017000000"]}}, {"type": "Feature", "geometry": {"type": "Point", "coordinates": [141.681561999097, 45.3915660564675]}, "properties": {"stop_id": "S011000005200001", "stop_name": "緑三丁目", "route_ids": ["R011000017000000"]}}, {"type": "Feature", "geometry": {"type": "Point", "coordinates": [141.678402729436, 45.3893960782085]}, "properties": {"stop_id": "S0110000053", "stop_name": "緑四丁目", "route_ids": []}}, {"type": "Feature", "geometry": {"type": "Point", "coordinates": [141.678402729436, 45.3893960782085]}, "properties": {"stop_id": "S011000005300000", "stop_name": "緑四丁目", "route_ids": ["R011000003000000", "R011000003010000", "R011000012000000", "R011000012010000", "R011000013000000", "R011000013010000", "R011000014000000", "R011000015000000", "R011000016000000", "R011000017000000"]}}, {"type": "Feature", "geometry": {"type": "Point", "coordinates": [141.674618566996, 45.3865403996624]}, "properties": {"stop_id": "S0110000054", "stop_name": "道職員住宅前（稚内市）", "route_ids": []}}, {"type": "Feature", "geometry": {"type": "Point", "coordinates": [141.674618566996, 45.3865403996624]}, "properties": {"stop_id": "S011000005400000", "stop_name": "道職員住宅前（稚内市）", "route_ids": ["R011000003000000", "R011000003010000", "R011000012000000", "R011000012010000", "R011000013000000", "R011000013010000", "R011000014000000", "R011000015000000", "R011000016000000", "R011000017000000"]}}, {"type": "Feature", "geometry": {"type": "Point", "coordinates": [141.67232726374, 45.3844572460249]}, "properties": {"stop_id": "S0110000055", "stop_name": "緑五丁目", "route_ids": []}}, {"type": "Feature", "geometry": {"type": "Point", "coordinates": [141.67232726374, 45.3844572460249]}, "properties": {"stop_id": "S011000005500000", "stop_name": "緑五丁目", "route_ids": ["R011000003000000", "R011000003010000", "R011000012000000", "R011000012010000", "R011000013000000", "R011000013010000", "R011000014000000", "R011000015000000", "R011000016000000", "R011000017000000"]}}, {"type": "Feature", "geometry": {"type": "Point", "coordinates": [141.669862274137, 45.3837020467055]}, "properties": {"stop_id": "S0110000056", "stop_name": "緑六丁目", "route_ids": []}}, {"type": "Feature", "geometry": {"type": "Point", "coordinates": [141.669862274137, 45.3837020467055]}, "properties": {"stop_id": "S011000005600000", "stop_name": "緑六丁目", "route_ids": ["R011000003000000", "R011000003010000", "R011000012000000", "R011000012010000", "R011000013000000", "R011000013010000", "R011000014000000"]}}, {"type": "Feature", "geometry": {"type": "Point", "coordinates": [141.665834922086, 45.3831203833237]}, "properties": {"stop_id": "S0110000057", "stop_name": "緑ニュータウン", "route_ids": []}}, {"type": "Feature", "geometry": {"type": "Point", "coordinates": [141.665834922086, 45.3831203833237]}, "properties": {"stop_id": "S011000005700000", "stop_name": "緑ニュータウン", "route_ids": ["R011000003000000", "R011000003010000"]}}, {"type": "Feature", "geometry": {"type": "Point", "coordinates": [141.653614376668, 45.3757858041084]}, "properties": {"stop_id": "S0110000058", "stop_name": "坂の下", "route_ids": []}}, {"type": "Feature", "geometry": {"type": "Point", "coordinates": [141.653614376668, 45.3757858041084]}, "properties": {"stop_id": "S011000005800000", "stop_name": "坂の下", "route_ids": ["R011000003000000", "R011000003010000"]}}, {"type": "Feature", "geometry": {"type": "Point", "coordinates": [141.648440972933, 45.3799517764194]}, "properties": {"stop_id": "S0110000059", "stop_name": "中山宅前", "route_ids": []}}, {"type": "Feature", "geometry": {"type": "Point", "coordinates": [141.648440972933, 45.3799517764194]}, "properties": {"stop_id": "S011000005900000", "stop_name": "中山宅前", "route_ids": ["R011000003000000", "R011000003010000"]}}, {"type": "Feature", "geometry": {"type": "Point", "coordinates": [141.646774365662, 45.381401192189]}, "properties": {"stop_id": "S0110000060", "stop_name": "西浜会館前", "route_ids": []}}, {"type": "Feature", "geometry": {"type": "Point", "coordinates": [141.646774365662, 45.381401192189]}, "properties": {"stop_id": "S011000006000000", "stop_name": "西浜会館前", "route_ids": ["R011000003000000", "R011000003010000"]}}, {"type": "Feature", "geometry": {"type": "Point", "coordinates": [141.645697976661, 45.3828940256057]}, "properties": {"stop_id": "S0110000061", "stop_name": "米山宅前", "route_ids": []}}, {"type": "Feature", "geometry": {"type": "Point", "coordinates": [141.645697976661, 45.3828940256057]}, "properties": {"stop_id": "S011000006100000", "stop_name": "米山宅前", "route_ids": ["R011000003000000", "R011000003010000"]}}, {"type": "Feature", "geometry": {"type": "Point", "coordinates": [141.643024346802, 45.3868691351329]}, "properties": {"stop_id": "S0110000062", "stop_name": "香林宅前", "route_ids": []}}, {"type": "Feature", "geometry": {"type": "Point", "coordinates": [141.643024346802, 45.3868691351329]}, "properties": {"stop_id": "S011000006200000", "stop_name": "香林宅前", "route_ids": ["R011000003000000", "R011000003010000"]}}, {"type": "Feature", "geometry": {"type": "Point", "coordinates": [141.640559059114, 45.3904276368075]}, "properties": {"stop_id": "S0110000063", "stop_name": "桜井宅前", "route_ids": []}}, {"type": "Feature", "geometry": {"type": "Point", "coordinates": [141.640559059114, 45.3904276368075]}, "properties": {"stop_id": "S011000006300000", "stop_name": "桜井宅前", "route_ids": ["R011000003000000", "R011000003010000"]}}, {"type": "Feature", "geometry": {"type": "Point", "coordinates": [141.638788151755, 45.3939514443789]}, "properties": {"stop_id": "S0110000064", "stop_name": "田村宅前", "route_ids": []}}, {"type": "Feature", "geometry": {"type": "Point", "coordinates": [141.638788151755, 45.3939514443789]}, "properties": {"stop_id": "S011000006400000", "stop_name": "田村宅前", "route_ids": ["R011000003000000", "R011000003010000"]}}, {"type": "Feature", "geometry": {"type": "Point", "coordinates": [141.637954698398, 45.3968416821657]}, "properties": {"stop_id": "S0110000065", "stop_name": "豊浜", "route_ids": []}}, {"type": "Feature", "geometry": {"type": "Point", "coordinates": [141.637954698398, 45.3968416821657]}, "properties": {"stop_id": "S011000006500000", "stop_name": "豊浜", "route_ids": ["R011000003000000", "R011000003010000"]}}, {"type": "Feature", "geometry": {"type": "Point", "coordinates": [141.636287738192, 45.4033946312942]}, "properties": {"stop_id": "S0110000066", "stop_name": "吉田宅前", "route_ids": []}}, {"type": "Feature", "geometry": {"type": "Point", "coordinates": [141.636287738192, 45.4033946312942]}, "properties": {"stop_id": "S011000006600000", "stop_name": "吉田宅前", "route_ids": ["R011000003000000", "R011000003010000"]}}, {"type": "Feature", "geometry": {"type": "Point", "coordinates": [141.635940180585, 45.4087238191849]}, "properties": {"stop_id": "S0110000067", "stop_name": "伊勢宅前", "route_ids": []}}, {"type": "Feature", "geometry": {"type": "Point", "coordinates": [141.635940180585, 45.4087238191849]}, "properties": {"stop_id": "S011000006700000", "stop_name": "伊勢宅前", "route_ids": ["R011000003000000", "R011000003010000"]}}, {"type": "Feature", "geometry": {"type": "Point", "coordinates": [141.636599437818, 45.4145304129197]}, "properties": {"stop_id": "S0110000068", "stop_name": "富士見園前", "route_ids": []}}, {"type": "Feature", "geometry": {"type": "Point", "coordinates": [141.636599437818, 45.4145304129197]}, "properties": {"stop_id": "S011000006800000", "stop_name": "富士見園前", "route_ids": ["R011000003000000", "R011000003010000"]}}, {"type": "Feature", "geometry": {"type": "Point", "coordinates": [141.637432523712, 45.4169520160066]}, "properties": {"stop_id": "S0110000069", "stop_name": "富士見五丁目", "route_ids": []}}, {"type": "Feature", "geometry": {"type": "Point", "coordinates": [141.637432523712, 45.4169520160066]}, "properties": {"stop_id": "S011000006900000", "stop_name": "富士見五丁目", "route_ids": ["R011000003000000", "R011000003010000", "R011000011000000", "R011000011010000"]}}, {"type": "Feature", "geometry": {"type": "Point", "coordinates": [141.638091994672, 45.4196687153945]}, "properties": {"stop_id": "S0110000070", "stop_name": "富士見四丁目", "route_ids": []}}, {"type": "Feature", "geometry": {"type": "Point", "coordinates": [141.638091994672, 45.4196687153945]}, "properties": {"stop_id": "S011000007000000", "stop_name": "富士見四丁目", "route_ids": ["R011000003000000", "R011000003010000", "R011000011000000", "R011000011010000"]}}, {"type": "Feature", "geometry": {"type": "Point", "coordinates": [141.638751572566, 45.4208404676261]}, "properties": {"stop_id": "S0110000071", "stop_name": "宗谷パレス前", "route_ids": []}}, {"type": "Feature", "geometry": {"type": "Point", "coordinates": [141.638751572566, 45.4208404676261]}, "properties": {"stop_id": "S011000007100000", "stop_name": "宗谷パレス前", "route_ids": ["R011000003000000", "R011000003010000", "R011000011000000", "R011000011010000"]}}, {"type": "Feature", "geometry": {"type": "Point", "coordinates": [141.638161326707, 45.4211963059736]}, "properties": {"stop_id": "S0110000072", "stop_name": "稚内温泉前", "route_ids": []}}, {"type": "Feature", "geometry": {"type": "Point", "coordinates": [141.638161326707, 45.4211963059736]}, "properties": {"stop_id": "S011000007200000", "stop_name": "稚内温泉前", "route_ids": ["R011000003000000", "R011000003010000", "R011000011000000", "R011000011010000"]}}, {"type": "Feature", "geometry": {"type": "Point", "coordinates": [141.636841895112, 45.4228366820841]}, "properties": {"stop_id": "S0110000073", "stop_name": "富士見三丁目", "route_ids": []}}, {"type": "Feature", "geometry": {"type": "Point", "coordinates": [141.636841895112, 45.4228366820841]}, "properties": {"stop_id": "S011000007300000", "stop_name": "富士見三丁目", "route_ids": ["R011000003000000", "R011000003010000", "R011000011000000", "R011000011010000"]}}, {"type": "Feature", "geometry": {"type": "Point", "coordinates": [141.6382302933, 45.4280010193761]}, "properties": {"stop_id": "S0110000074", "stop_name": "富士見二丁目", "route_ids": []}}, {"type": "Feature", "geometry": {"type": "Point", "coordinates": [141.6382302933, 45.4280010193761]}, "properties": {"stop_id": "S011000007400000", "stop_name": "富士見二丁目", "route_ids": ["R011000003000000", "R011000003010000", "R011000011000000", "R011000011010000"]}}, {"type": "Feature", "geometry": {"type": "Point", "coordinates": [141.640139383986, 45.4344759757498]}, "properties": {"stop_id": "S0110000075", "stop_name": "富士見一丁目", "route_ids": []}}, {"type": "Feature", "geometry": {"type": "Point", "coordinates": [141.640139383986, 45.4344759757498]}, "properties": {"stop_id": "S011000007500000", "stop_name": "富士見一丁目", "route_ids": ["R011000003000000", "R011000003010000", "R011000011000000", "R011000011010000"]}}, {"type": "Feature", "geometry": {"type": "Point", "coordinates": [141.641527947318, 45.4372534564857]}, "properties": {"stop_id": "S0110000076", "stop_name": "ノシャップ五丁目", "route_ids": []}}, {"type": "Feature", "geometry": {"type": "Point", "coordinates": [141.641527947318, 45.4372534564857]}, "properties": {"stop_id": "S011000007600000", "stop_name": "ノシャップ五丁目", "route_ids": ["R011000003000000", "R011000003010000", "R011000011000000", "R011000011010000"]}}, {"type": "Feature", "geometry": {"type": "Point", "coordinates": [141.64517317137, 45.4410031163017]}, "properties": {"stop_id": "S0110000077", "stop_name": "ノシャップ四丁目", "route_ids": []}}, {"type": "Feature", "geometry": {"type": "Point", "coordinates": [141.64517317137, 45.4410031163017]}, "properties": {"stop_id": "S011000007700000", "stop_name": "ノシャップ四丁目", "route_ids": ["R011000003000000", "R011000003010000", "R011000011000000", "R011000011010000"]}}, {"type": "Feature", "geometry": {"type": "Point", "coordinates": [141.64572841555, 45.4447266315306]}, "properties": {"stop_id": "S0110000078", "stop_name": "ノシャップ三丁目", "route_ids": []}}, {"type": "Feature", "geometry": {"type": "Point", "coordinates": [141.64572841555, 45.4447266315306]}, "properties": {"stop_id": "S011000007800000", "stop_name": "ノシャップ三丁目", "route_ids": ["R011000003000000", "R011000003010000", "R011000011000000", "R011000011010000"]}}, {"type": "Feature", "geometry": {"type": "Point", "coordinates": [141.648748853434, 45.4462543234684]}, "properties": {"stop_id": "S0110000079", "stop_name": "ノシャップ", "route_ids": []}}, {"type": "Feature", "geometry": {"type": "Point", "coordinates": [141.648748853434, 45.4462543234684]}, "properties": {"stop_id": "S011000007900000", "stop_name": "ノシャップ", "route_ids": ["R011000003000000", "R011000003010000", "R011000005000000", "R011000005010000", "R011000008000000", "R011000011000000", "R011000011010000", "R011001292000000", "R011001292010000"]}}, {"type": "Feature", "geometry": {"type": "Point", "coordinates": [141.648748853434, 45.4462543234684]}, "properties": {"stop_id": "S011000007900001", "stop_name": "ノシャップ", "route_ids": ["R011000005000000", "R011000005010000"]}}, {"type": "Feature", "geometry": {"type": "Point", "coordinates": [141.652602887846, 45.4428347414732]}, "properties": {"stop_id": "S0110000080", "stop_name": "ノシャップ一丁目", "route_ids": []}}, {"type": "Feature", "geometry": {"type": "Point", "coordinates": [141.652602887846, 45.4428347414732]}, "properties": {"stop_id": "S011000008000000", "stop_name": "ノシャップ一丁目", "route_ids": ["R011000003000000", "R011000003010000", "R011000005000000", "R011000005010000", "R011000008000000", "R011000011000000", "R011000011010000", "R011001292000000", "R011001292010000"]}}, {"type": "Feature", "geometry": {"type": "Point", "coordinates": [141.652602887846, 45.4428347414732]}, "properties": {"stop_id": "S011000008000001", "stop_name": "ノシャップ一丁目", "route_ids": ["R011000005000000", "R011000005010000"]}}, {"type": "Feature", "geometry": {"type": "Point", "coordinates": [141.655172240119, 45.4406128833224]}, "properties": {"stop_id": "S0110000081", "stop_name": "恵比須五丁目", "route_ids": []}}, {"type": "Feature", "geometry": {"type": "Point", "coordinates": [141.655172240119, 45.4406128833224]}, "properties": {"stop_id": "S011000008100000", "stop_name": "恵比須五丁目", "route_ids": ["R011000003000000", "R011000003010000", "R011000005000000", "R011000005010000", "R011000008000000", "R011000011000000", "R011000011010000", "R011001292000000", "R011001292010000"]}}, {"type": "Feature", "geometry": {"type": "Point", "coordinates": [141.655172240119, 45.4406128833224]}, "properties": {"stop_id": "S011000008100001", "stop_name": "恵比須五丁目", "route_ids": ["R011000005000000", "R011000005010000"]}}, {"type": "Feature", "geometry": {"type": "Point", "coordinates": [141.658783189946, 45.4379484075622]}, "properties": {"stop_id": "S0110000082", "stop_name": "恵比須四丁目", "route_ids": []}}, {"type": "Feature", "geometry": {"type": "Point", "coordinates": [141.658783189946, 45.4379484075622]}, "properties": {"stop_id": "S011000008200000", "stop_name": "恵比須四丁目", "route_ids": ["R011000003000000", "R011000003010000", "R011000005000000", "R011000005010000", "R011000008000000", "R011000011000000", "R011000011010000", "R011001292000000", "R011001292010000"]}}, {"type": "Feature", "geometry": {"type": "Point", "coordinates": [141.658783189946, 45.4379484075622]}, "properties": {"stop_id": "S011000008200001", "stop_name": "恵比須四丁目", "route_ids": ["R011000005000000", "R011000005010000"]}}, {"type": "Feature", "geometry": {"type": "Point", "coordinates": [141.660727544361, 45.436559757842]}, "properties": {"stop_id": "S0110000083", "stop_name": "恵比須三丁目", "route_ids": []}}, {"type": "Feature", "geometry": {"type": "Point", "coordinates": [141.660727544361, 45.436559757842]}, "properties": {"stop_id": "S011000008300000", "stop_name": "恵比須三丁目", "route_ids": ["R011000003000000", "R011000003010000", "R011000005000000", "R011000005010000", "R011000008000000", "R011000011000000", "R011000011010000", "R011001292000000", "R011001292010000"]}}, {"type": "Feature", "geometry": {"type": "Point", "coordinates": [141.660727544361, 45.436559757842]}, "properties": {"stop_id": "S011000008300001", "stop_name": "恵比須三丁目", "route_ids": ["R011000005000000", "R011000005010000"]}}, {"type": "Feature", "geometry": {"type": "Point", "coordinates": [141.664164896134, 45.4339473529736]}, "properties": {"stop_id": "S0110000084", "stop_name": "恵比須一丁目", "route_ids": []}}, {"type": "Feature", "geometry": {"type": "Point", "coordinates": [141.664164896134, 45.4339473529736]}, "properties": {"stop_id": "S011000008400000", "stop_name": "恵比須一丁目", "route_ids": ["R011000003000000", "R011000003010000", "R011000005000000", "R011000005010000", "R011000008000000", "R011000011000000", "R011000011010000", "R011001292000000", "R011001292010000"]}}, {"type": "Feature", "geometry": {"type": "Point", "coordinates": [141.664164896134, 45.4339473529736]}, "properties": {"stop_id": "S011000008400001", "stop_name": "恵比須一丁目", "route_ids": ["R011000005000000", "R011000005010000"]}}, {"type": "Feature", "geometry": {"type": "Point", "coordinates": [141.667012047752, 45.4310311460683]}, "properties": {"stop_id": "S0110000085", "stop_name": "稚中前", "route_ids": []}}, {"type": "Feature", "geometry": {"type": "Point", "coordinates": [141.667012047752, 45.4310311460683]}, "properties": {"stop_id": "S011000008500000", "stop_name": "稚中前", "route_ids": ["R011000003000000", "R011000003010000", "R011000005000000", "R011000005010000", "R011000008000000", "R011000011000000", "R011000011010000", "R011001292000000", "R011001292010000"]}}, {"type": "Feature", "geometry": {"type": "Point", "coordinates": [141.667012047752, 45.4310311460683]}, "properties": {"stop_id": "S011000008500001", "stop_name": "稚中前", "route_ids": ["R011000005000000", "R011000005010000"]}}, {"type": "Feature", "geometry": {"type": "Point", "coordinates": [141.669234274886, 45.4278892512333]}, "properties": {"stop_id": "S0110000086", "stop_name": "宝来四丁目", "route_ids": []}}, {"type": "Feature", "geometry": {"type": "Point", "coordinates": [141.669234274886, 45.4278892512333]}, "properties": {"stop_id": "S011000008600000", "stop_name": "宝来四丁目", "route_ids": ["R011000003000000", "R011000003010000", "R011000005000000", "R011000005010000", "R011000008000000", "R011000011000000", "R011000011010000", "R011001292000000", "R011001292010000"]}}, {"type": "Feature", "geometry": {"type": "Point", "coordinates": [141.669234274886, 45.4278892512333]}, "properties": {"stop_id": "S011000008600001", "stop_name": "宝来四丁目", "route_ids": ["R011000005000000", "R011000005010000"]}}, {"type": "Feature", "geometry": {"type": "Point", "coordinates": [141.671144031343, 45.4247560251232]}, "properties": {"stop_id": "S0110000087", "stop_name": "宝来三丁目", "route_ids": []}}, {"type": "Feature", "geometry": {"type": "Point", "coordinates": [141.671144031343, 45.4247560251232]}, "properties": {"stop_id": "S011000008700000", "stop_name": "宝来三丁目", "route_ids": ["R011000003000000", "R011000003010000", "R011000005000000", "R011000005010000", "R011000008000000", "R011000011000000", "R011000011010000", "R011001292000000", "R011001292010000"]}}, {"type": "Feature", "geometry": {"type": "Point", "coordinates": [141.671144031343, 45.4247560251232]}, "properties": {"stop_id": "S011000008700001", "stop_name": "宝来三丁目", "route_ids": ["R011000005000000", "R011000005010000"]}}, {"type": "Feature", "geometry": {"type": "Point", "coordinates": [141.672463528655, 45.4221695858628]}, "properties": {"stop_id": "S0110000088", "stop_name": "宝来二丁目", "route_ids": []}}, {"type": "Feature", "geometry": {"type": "Point", "coordinates": [141.672463528655, 45.4221695858628]}, "properties": {"stop_id": "S011000008800000", "stop_name": "宝来二丁目", "route_ids": ["R011000003000000", "R011000003010000", "R011000005000000", "R011000005010000", "R011000008000000", "R011000011000000", "R011000011010000", "R011001292000000", "R011001292010000"]}}, {"type": "Feature", "geometry": {"type": "Point", "coordinates": [141.672463528655, 45.4221695858628]}, "properties": {"stop_id": "S011000008800001", "stop_name": "宝来二丁目", "route_ids": ["R011000005000000", "R011000005010000"]}}, {"type": "Feature", "geometry": {"type": "Point", "coordinates": [141.6877068465, 45.3973120826304]}, "properties": {"stop_id": "S0110000089", "stop_name": "大黒三丁目［市内線］", "route_ids": []}}, {"type": "Feature", "geometry": {"type": "Point", "coordinates": [141.6877068465, 45.3973120826304]}, "properties": {"stop_id": "S011000008900000", "stop_name": "大黒三丁目［市内線］", "route_ids": ["R011000003000000", "R011000003010000", "R011000005000000", "R011000005010000", "R011000008000000", "R011000011000000", "R011000011010000", "R011000014000000", "R011000016000000", "R011000017000000", "R011001292000000", "R011001292010000", "R011001293000000", "R011001293010000", "R011001294000000", "R011001295000000"]}}, {"type": "Feature", "geometry": {"type": "Point", "coordinates": [141.6877068465, 45.3973120826304]}, "properties": {"stop_id": "S011000008900001", "stop_name": "大黒三丁目［市内線］", "route_ids": ["R011000005000000", "R011000005010000"]}}, {"type": "Feature", "geometry": {"type": "Point", "coordinates": [141.69263703711, 45.3957673048116]}, "properties": {"stop_id": "S0110000090", "stop_name": "大黒五丁目［市内線］", "route_ids": []}}, {"type": "Feature", "geometry": {"type": "Point", "coordinates": [141.69263703711, 45.3957673048116]}, "properties": {"stop_id": "S011000009000000", "stop_name": "大黒五丁目［市内線］", "route_ids": ["R011000003000000", "R011000003010000", "R011000005000000", "R011000005010000", "R011000008000000", "R011000011000000", "R011000011010000", "R011000014000000", "R011000015000000", "R011000016000000", "R011000017000000", "R011001292000000", "R011001292010000", "R011001293000000", "R011001293010000", "R011001294000000", "R011001295000000"]}}, {"type": "Feature", "geometry": {"type": "Point", "coordinates": [141.69263703711, 45.3957673048116]}, "properties": {"stop_id": "S011000009000001", "stop_name": "大黒五丁目［市内線］", "route_ids": ["R011000005000000", "R011000005010000", "R011000017000000"]}}, {"type": "Feature", "geometry": {"type": "Point", "coordinates": [141.704753993092, 45.3948997733935]}, "properties": {"stop_id": "S0110000091", "stop_name": "潮見四丁目", "route_ids": []}}, {"type": "Feature", "geometry": {"type": "Point", "coordinates": [141.704753993092, 45.3948997733935]}, "properties": {"stop_id": "S011000009100000", "stop_name": "潮見四丁目", "route_ids": ["R011000003000000", "R011000003010000", "R011000005000000", "R011000005010000", "R011000008000000", "R011000011000000", "R011000011010000", "R011000014000000", "R011001292000000", "R011001292010000", "R011001293000000", "R011001293010000", "R011001294000000", "R011001295000000"]}}, {"type": "Feature", "geometry": {"type": "Point", "coordinates": [141.704753993092, 45.3948997733935]}, "properties": {"stop_id": "S011000009100001", "stop_name": "潮見四丁目", "route_ids": ["R011000005000000", "R011000005010000"]}}, {"type": "Feature", "geometry": {"type": "Point", "coordinates": [141.749610003702, 45.4065665362199]}, "properties": {"stop_id": "S0110000092", "stop_name": "稚内建設管理部前", "route_ids": []}}, {"type": "Feature", "geometry": {"type": "Point", "coordinates": [141.749610003702, 45.4065665362199]}, "properties": {"stop_id": "S011000009200000", "stop_name": "稚内建設管理部前", "route_ids": ["R011000005000000", "R011000005010000"]}}, {"type": "Feature", "geometry": {"type": "Point", "coordinates": [141.748880654493, 45.4102032128521]}, "properties": {"stop_id": "S0110000093", "stop_name": "声問二丁目", "route_ids": []}}, {"type": "Feature", "geometry": {"type": "Point", "coordinates": [141.748880654493, 45.4102032128521]}, "properties": {"stop_id": "S011000009300000", "stop_name": "声問二丁目", "route_ids": ["R011000005000000", "R011000005010000"]}}, {"type": "Feature", "geometry": {"type": "Point", "coordinates": [141.749297380056, 45.4087797926282]}, "properties": {"stop_id": "S0110000094", "stop_name": "声問三丁目", "route_ids": []}}, {"type": "Feature", "geometry": {"type": "Point", "coordinates": [141.749297380056, 45.4087797926282]}, "properties": {"stop_id": "S011000009400000", "stop_name": "声問三丁目", "route_ids": ["R011000005000000", "R011000005010000"]}}, {"type": "Feature", "geometry": {"type": "Point", "coordinates": [141.761449418752, 45.4026785371243]}, "properties": {"stop_id": "S0110000095", "stop_name": "声問ふれあい橋", "route_ids": []}}, {"type": "Feature", "geometry": {"type": "Point", "coordinates": [141.761449418752, 45.4026785371243]}, "properties": {"stop_id": "S011000009500000", "stop_name": "声問ふれあい橋", "route_ids": ["R011000005000000", "R011000005010000"]}}, {"type": "Feature", "geometry": {"type": "Point", "coordinates": [141.761449418752, 45.4026785371243]}, "properties": {"stop_id": "S011000009500001", "stop_name": "声問ふれあい橋", "route_ids": ["R011000005000000", "R011000005010000"]}}, {"type": "Feature", "geometry": {"type": "Point", "coordinates": [141.75624168588, 45.40120284638]}, "properties": {"stop_id": "S0110000096", "stop_name": "養護学校前（稚内市）", "route_ids": []}}, {"type": "Feature", "geometry": {"type": "Point", "coordinates": [141.75624168588, 45.40120284638]}, "properties": {"stop_id": "S011000009600000", "stop_name": "養護学校前（稚内市）", "route_ids": ["R011000005000000", "R011000005010000"]}}, {"type": "Feature", "geometry": {"type": "Point", "coordinates": [141.756554467799, 45.3967068869116]}, "properties": {"stop_id": "S0110000097", "stop_name": "ふれあい公園", "route_ids": []}}, {"type": "Feature", "geometry": {"type": "Point", "coordinates": [141.756554467799, 45.3967068869116]}, "properties": {"stop_id": "S011000009700000", "stop_name": "ふれあい公園", "route_ids": ["R011000005000000"]}}, {"type": "Feature", "geometry": {"type": "Point", "coordinates": [141.757491716229, 45.3990416990869]}, "properties": {"stop_id": "S0110000098", "stop_name": "明治乳業前", "route_ids": []}}, {"type": "Feature", "geometry": {"type": "Point", "coordinates": [141.757491716229, 45.3990416990869]}, "properties": {"stop_id": "S011000009800000", "stop_name": "明治乳業前", "route_ids": ["R011000005000000", "R011000005010000"]}}, {"type": "Feature", "geometry": {"type": "Point", "coordinates": [141.759922037539, 45.3990678211858]}, "properties": {"stop_id": "S0110000099", "stop_name": "声問五丁目", "route_ids": []}}, {"type": "Feature", "geometry": {"type": "Point", "coordinates": [141.759922037539, 45.3990678211858]}, "properties": {"stop_id": "S011000009900000", "stop_name": "声問五丁目", "route_ids": ["R011000005000000", "R011000005010000"]}}, {"type": "Feature", "geometry": {"type": "Point", "coordinates": [141.764053583239, 45.3991200402969]}, "properties": {"stop_id": "S0110000100", "stop_name": "緑ヶ丘学園前", "route_ids": []}}, {"type": "Feature", "geometry": {"type": "Point", "coordinates": [141.764053583239, 45.3991200402969]}, "properties": {"stop_id": "S011000010000000", "stop_name": "緑ヶ丘学園前", "route_ids": ["R011000005000000", "R011000005010000"]}}, {"type": "Feature", "geometry": {"type": "Point", "coordinates": [141.766935217178, 45.3996235493081]}, "properties": {"stop_id": "S0110000101", "stop_name": "大沼公園入口", "route_ids": []}}, {"type": "Feature", "geometry": {"type": "Point", "coordinates": [141.766935217178, 45.3996235493081]}, "properties": {"stop_id": "S011000010100000", "stop_name": "大沼公園入口", "route_ids": ["R011000005000000", "R011000005010000"]}}, {"type": "Feature", "geometry": {"type": "Point", "coordinates": [141.782350159193, 45.4032347435615]}, "properties": {"stop_id": "S0110000102", "stop_name": "自動車学校前［稚内市］", "route_ids": []}}, {"type": "Feature", "geometry": {"type": "Point", "coordinates": [141.782350159193, 45.4032347435615]}, "properties": {"stop_id": "S011000010200000", "stop_name": "自動車学校前［稚内市］", "route_ids": ["R011001257000000", "R011001257010000", "R011001258000000"]}}, {"type": "Feature", "geometry": {"type": "Point", "coordinates": [141.798112354183, 45.4059259252192]}, "properties": {"stop_id": "S0110000103", "stop_name": "メグマ原生花園", "route_ids": []}}, {"type": "Feature", "geometry": {"type": "Point", "coordinates": [141.798112354183, 45.4059259252192]}, "properties": {"stop_id": "S011000010300000", "stop_name": "メグマ原生花園", "route_ids": ["R011001257000000", "R011001257010000", "R011001258000000"]}}, {"type": "Feature", "geometry": {"type": "Point", "coordinates": [141.84602310237, 45.4251786627793]}, "properties": {"stop_id": "S0110000104", "stop_name": "増幌入口", "route_ids": []}}, {"type": "Feature", "geometry": {"type": "Point", "coordinates": [141.84602310237, 45.4251786627793]}, "properties": {"stop_id": "S011000010400000", "stop_name": "増幌入口", "route_ids": ["R011001257000000", "R011001257010000", "R011001258000000"]}}, {"type": "Feature", "geometry": {"type": "Point", "coordinates": [141.85921561317, 45.4348393787625]}, "properties": {"stop_id": "S0110000105", "stop_name": "増幌橋", "route_ids": []}}, {"type": "Feature", "geometry": {"type": "Point", "coordinates": [141.85921561317, 45.4348393787625]}, "properties": {"stop_id": "S011000010500000", "stop_name": "増幌橋", "route_ids": ["R011001257000000", "R011001257010000", "R011001258000000"]}}, {"type": "Feature", "geometry": {"type": "Point", "coordinates": [141.864318958827, 45.4396219481275]}, "properties": {"stop_id": "S0110000106", "stop_name": "富磯南１", "route_ids": []}}, {"type": "Feature", "geometry": {"type": "Point", "coordinates": [141.864318958827, 45.4396219481275]}, "properties": {"stop_id": "S011000010600000", "stop_name": "富磯南１", "route_ids": ["R011001257000000", "R011001257010000", "R011001258000000"]}}, {"type": "Feature", "geometry": {"type": "Point", "coordinates": [141.867235070293, 45.4435885709073]}, "properties": {"stop_id": "S0110000107", "stop_name": "富磯南２", "route_ids": []}}, {"type": "Feature", "geometry": {"type": "Point", "coordinates": [141.867235070293, 45.4435885709073]}, "properties": {"stop_id": "S011000010700000", "stop_name": "富磯南２", "route_ids": ["R011001257000000", "R011001257010000", "R011001258000000"]}}, {"type": "Feature", "geometry": {"type": "Point", "coordinates": [141.870741331015, 45.4485880721145]}, "properties": {"stop_id": "S0110000108", "stop_name": "富磯中央", "route_ids": []}}, {"type": "Feature", "geometry": {"type": "Point", "coordinates": [141.870741331015, 45.4485880721145]}, "properties": {"stop_id": "S011000010800000", "stop_name": "富磯中央", "route_ids": ["R011001257000000", "R011001257010000", "R011001258000000"]}}, {"type": "Feature", "geometry": {"type": "Point", "coordinates": [141.873761664374, 45.4516173147377]}, "properties": {"stop_id": "S0110000109", "stop_name": "富磯小学校前", "route_ids": []}}, {"type": "Feature", "geometry": {"type": "Point", "coordinates": [141.873761664374, 45.4516173147377]}, "properties": {"stop_id": "S011000010900000", "stop_name": "富磯小学校前", "route_ids": ["R011001257000000", "R011001257010000", "R011001258000000"]}}, {"type": "Feature", "geometry": {"type": "Point", "coordinates": [141.876018073424, 45.4562001577588]}, "properties": {"stop_id": "S0110000110", "stop_name": "富磯", "route_ids": []}}, {"type": "Feature", "geometry": {"type": "Point", "coordinates": [141.876018073424, 45.4562001577588]}, "properties": {"stop_id": "S011000011000000", "stop_name": "富磯", "route_ids": ["R011001257000000", "R011001257010000", "R011001258000000"]}}, {"type": "Feature", "geometry": {"type": "Point", "coordinates": [141.879177086622, 45.4620328769738]}, "properties": {"stop_id": "S0110000111", "stop_name": "富磯橋", "route_ids": []}}, {"type": "Feature", "geometry": {"type": "Point", "coordinates": [141.879177086622, 45.4620328769738]}, "properties": {"stop_id": "S011000011100000", "stop_name": "富磯橋", "route_ids": ["R011001257000000", "R011001257010000", "R011001258000000"]}}, {"type": "Feature", "geometry": {"type": "Point", "coordinates": [141.878482634662, 45.4630917494351]}, "properties": {"stop_id": "S0110000112", "stop_name": "富磯漁港前", "route_ids": []}}, {"type": "Feature", "geometry": {"type": "Point", "coordinates": [141.878482634662, 45.4630917494351]}, "properties": {"stop_id": "S011000011200000", "stop_name": "富磯漁港前", "route_ids": ["R011001257000000", "R011001257010000", "R011001258000000"]}}, {"type": "Feature", "geometry": {"type": "Point", "coordinates": [141.876641452939, 45.4785585175741]}, "properties": {"stop_id": "S0110000113", "stop_name": "宗谷１", "route_ids": []}}, {"type": "Feature", "geometry": {"type": "Point", "coordinates": [141.876641452939, 45.4785585175741]}, "properties": {"stop_id": "S011000011300000", "stop_name": "宗谷１", "route_ids": ["R011001257000000", "R011001257010000", "R011001258000000"]}}, {"type": "Feature", "geometry": {"type": "Point", "coordinates": [141.88014765637, 45.4843652102509]}, "properties": {"stop_id": "S0110000114", "stop_name": "宗谷", "route_ids": []}}, {"type": "Feature", "geometry": {"type": "Point", "coordinates": [141.88014765637, 45.4843652102509]}, "properties": {"stop_id": "S011000011400000", "stop_name": "宗谷", "route_ids": ["R011001257000000", "R011001257010000", "R011001258000000"]}}, {"type": "Feature", "geometry": {"type": "Point", "coordinates": [141.882716072471, 45.4955618269012]}, "properties": {"stop_id": "S0110000115", "stop_name": "宗谷中学校前", "route_ids": []}}, {"type": "Feature", "geometry": {"type": "Point", "coordinates": [141.882716072471, 45.4955618269012]}, "properties": {"stop_id": "S011000011500000", "stop_name": "宗谷中学校前", "route_ids": ["R011001257000000", "R011001257010000", "R011001258000000"]}}, {"type": "Feature", "geometry": {"type": "Point", "coordinates": [141.892402245871, 45.5012819385346]}, "properties": {"stop_id": "S0110000116", "stop_name": "恩頃間内", "route_ids": []}}, {"type": "Feature", "geometry": {"type": "Point", "coordinates": [141.892402245871, 45.5012819385346]}, "properties": {"stop_id": "S011000011600000", "stop_name": "恩頃間内", "route_ids": ["R011001257000000", "R011001257010000", "R011001258000000"]}}, {"type": "Feature", "geometry": {"type": "Point", "coordinates": [141.898338521369, 45.5106646605753]}, "properties": {"stop_id": "S0110000117", "stop_name": "第二清浜", "route_ids": []}}, {"type": "Feature", "geometry": {"type": "Point", "coordinates": [141.898338521369, 45.5106646605753]}, "properties": {"stop_id": "S011000011700000", "stop_name": "第二清浜", "route_ids": ["R011001257000000", "R011001257010000", "R011001258000000"]}}, {"type": "Feature", "geometry": {"type": "Point", "coordinates": [141.922467723724, 45.5168626437864]}, "properties": {"stop_id": "S0110000118", "stop_name": "珊内", "route_ids": []}}, {"type": "Feature", "geometry": {"type": "Point", "coordinates": [141.922467723724, 45.5168626437864]}, "properties": {"stop_id": "S011000011800000", "stop_name": "珊内", "route_ids": ["R011001257000000", "R011001257010000", "R011001258000000"]}}, {"type": "Feature", "geometry": {"type": "Point", "coordinates": [141.937222887093, 45.5221402780414]}, "properties": {"stop_id": "S0110000119", "stop_name": "宗谷岬", "route_ids": []}}, {"type": "Feature", "geometry": {"type": "Point", "coordinates": [141.937222887093, 45.5221402780414]}, "properties": {"stop_id": "S011000011900000", "stop_name": "宗谷岬", "route_ids": ["R011001257000000", "R011001257010000", "R011001258000000"]}}, {"type": "Feature", "geometry": {"type": "Point", "coordinates": [141.941944918821, 45.5184169451809]}, "properties": {"stop_id": "S0110000120", "stop_name": "宗谷岬漁港前", "route_ids": []}}, {"type": "Feature", "geometry": {"type": "Point", "coordinates": [141.941944918821, 45.5184169451809]}, "properties": {"stop_id": "S011000012000000", "stop_name": "宗谷岬漁港前", "route_ids": ["R011001257000000", "R011001257010000", "R011001258000000"]}}, {"type": "Feature", "geometry": {"type": "Point", "coordinates": [141.945833611132, 45.5159173899694]}, "properties": {"stop_id": "S0110000121", "stop_name": "宗谷岬会館前", "route_ids": []}}, {"type": "Feature", "geometry": {"type": "Point", "coordinates": [141.945833611132, 45.5159173899694]}, "properties": {"stop_id": "S011000012100000", "stop_name": "宗谷岬会館前", "route_ids": ["R011001257000000", "R011001257010000", "R011001258000000"]}}, {"type": "Feature", "geometry": {"type": "Point", "coordinates": [141.950381814768, 45.5155269710132]}, "properties": {"stop_id": "S0110000122", "stop_name": "宗谷岬３区", "route_ids": []}}, {"type": "Feature", "geometry": {"type": "Point", "coordinates": [141.950381814768, 45.5155269710132]}, "properties": {"stop_id": "S011000012200000", "stop_name": "宗谷岬３区", "route_ids": ["R011001257000000", "R011001257010000", "R011001258000000"]}}, {"type": "Feature", "geometry": {"type": "Point", "coordinates": [141.955624483518, 45.5138954106324]}, "properties": {"stop_id": "S0110000123", "stop_name": "大岬小学校前", "route_ids": []}}, {"type": "Feature", "geometry": {"type": "Point", "coordinates": [141.955624483518, 45.5138954106324]}, "properties": {"stop_id": "S011000012300000", "stop_name": "大岬小学校前", "route_ids": ["R011001257000000", "R011001257010000", "R011001258000000"]}}, {"type": "Feature", "geometry": {"type": "Point", "coordinates": [142.034790395681, 45.4167140195947]}, "properties": {"stop_id": "S0110000124", "stop_name": "東浦", "route_ids": []}}, {"type": "Feature", "geometry": {"type": "Point", "coordinates": [142.034790395681, 45.4167140195947]}, "properties": {"stop_id": "S011000012400000", "stop_name": "東浦", "route_ids": ["R011001257000000", "R011001257010000", "R011001258000000"]}}, {"type": "Feature", "geometry": {"type": "Point", "coordinates": [142.054373186476, 45.3977673923208]}, "properties": {"stop_id": "S0110000125", "stop_name": "苗太路", "route_ids": []}}, {"type": "Feature", "geometry": {"type": "Point", "coordinates": [142.054373186476, 45.3977673923208]}, "properties": {"stop_id": "S011000012500000", "stop_name": "苗太路", "route_ids": ["R011001257000000", "R011001257010000", "R011001258000000"]}}, {"type": "Feature", "geometry": {"type": "Point", "coordinates": [142.081559041464, 45.3842457038349]}, "properties": {"stop_id": "S0110000126", "stop_name": "鈴木宅前", "route_ids": []}}, {"type": "Feature", "geometry": {"type": "Point", "coordinates": [142.081559041464, 45.3842457038349]}, "properties": {"stop_id": "S011000012600000", "stop_name": "鈴木宅前", "route_ids": ["R011001257000000", "R011001257010000", "R011001258000000"]}}, {"type": "Feature", "geometry": {"type": "Point", "coordinates": [142.087287879662, 45.381138648329]}, "properties": {"stop_id": "S0110000127", "stop_name": "知来別学校前", "route_ids": []}}, {"type": "Feature", "geometry": {"type": "Point", "coordinates": [142.087287879662, 45.381138648329]}, "properties": {"stop_id": "S011000012700000", "stop_name": "知来別学校前", "route_ids": ["R011001257000000", "R011001257010000", "R011001258000000"]}}, {"type": "Feature", "geometry": {"type": "Point", "coordinates": [142.090655748537, 45.3792205998316]}, "properties": {"stop_id": "S0110000128", "stop_name": "知来別漁港前", "route_ids": []}}, {"type": "Feature", "geometry": {"type": "Point", "coordinates": [142.090655748537, 45.3792205998316]}, "properties": {"stop_id": "S011000012800000", "stop_name": "知来別漁港前", "route_ids": ["R011001257000000", "R011001257010000", "R011001258000000"]}}, {"type": "Feature", "geometry": {"type": "Point", "coordinates": [142.097808064862, 45.3760788757773]}, "properties": {"stop_id": "S0110000129", "stop_name": "天野宅前", "route_ids": []}}, {"type": "Feature", "geometry": {"type": "Point", "coordinates": [142.097808064862, 45.3760788757773]}, "properties": {"stop_id": "S011000012900000", "stop_name": "天野宅前", "route_ids": ["R011001257000000", "R011001257010000", "R011001258000000"]}}, {"type": "Feature", "geometry": {"type": "Point", "coordinates": [142.121973343487, 45.3630257744018]}, "properties": {"stop_id": "S0110000130", "stop_name": "知来別シネシンコ", "route_ids": []}}, {"type": "Feature", "geometry": {"type": "Point", "coordinates": [142.121973343487, 45.3630257744018]}, "properties": {"stop_id": "S011000013000000", "stop_name": "知来別シネシンコ", "route_ids": ["R011001257000000", "R011001257010000", "R011001258000000"]}}, {"type": "Feature", "geometry": {"type": "Point", "coordinates": [142.144228954731, 45.3518039772778]}, "properties": {"stop_id": "S0110000131", "stop_name": "浜鬼志別シネシンコ", "route_ids": []}}, {"type": "Feature", "geometry": {"type": "Point", "coordinates": [142.144228954731, 45.3518039772778]}, "properties": {"stop_id": "S011000013100000", "stop_name": "浜鬼志別シネシンコ", "route_ids": ["R011001257000000", "R011001257010000", "R011001258000000"]}}, {"type": "Feature", "geometry": {"type": "Point", "coordinates": [142.158985034982, 45.3440884303564]}, "properties": {"stop_id": "S0110000132", "stop_name": "浜鬼志別局前", "route_ids": []}}, {"type": "Feature", "geometry": {"type": "Point", "coordinates": [142.158985034982, 45.3440884303564]}, "properties": {"stop_id": "S011000013200000", "stop_name": "浜鬼志別局前", "route_ids": ["R011001257000000", "R011001257010000", "R011001258000000"]}}, {"type": "Feature", "geometry": {"type": "Point", "coordinates": [142.157457575145, 45.3416147249919]}, "properties": {"stop_id": "S0110000133", "stop_name": "管理センター前（浜鬼志別）", "route_ids": []}}, {"type": "Feature", "geometry": {"type": "Point", "coordinates": [142.138779307216, 45.3342799144602]}, "properties": {"stop_id": "S0110000134", "stop_name": "新生農場前", "route_ids": []}}, {"type": "Feature", "geometry": {"type": "Point", "coordinates": [142.138779307216, 45.3342799144602]}, "properties": {"stop_id": "S011000013400000", "stop_name": "新生農場前", "route_ids": ["R011001257000000", "R011001258000000"]}}, {"type": "Feature", "geometry": {"type": "Point", "coordinates": [142.138779307216, 45.3342799144602]}, "properties": {"stop_id": "S011000013400001", "stop_name": "新生農場前", "route_ids": ["R011001257000000", "R011001257010000", "R011001258000000"]}}, {"type": "Feature", "geometry": {"type": "Point", "coordinates": [142.118260636165, 45.3312500634487]}, "properties": {"stop_id": "S0110000135", "stop_name": "国民健康保険病院前（猿払村）", "route_ids": []}}, {"type": "Feature", "geometry": {"type": "Point", "coordinates": [142.118260636165, 45.3312500634487]}, "properties": {"stop_id": "S011000013500000", "stop_name": "国民健康保険病院前（猿払村）", "route_ids": ["R011001257000000", "R011001258000000"]}}, {"type": "Feature", "geometry": {"type": "Point", "coordinates": [142.118260636165, 45.3312500634487]}, "properties": {"stop_id": "S011000013500001", "stop_name": "国民健康保険病院前（猿払村）", "route_ids": ["R011001257000000", "R011001257010000", "R011001258000000"]}}, {"type": "Feature", "geometry": {"type": "Point", "coordinates": [142.11114335184, 45.3298958174639]}, "properties": {"stop_id": "S0110000136", "stop_name": "Ａコープ前", "route_ids": []}}, {"type": "Feature", "geometry": {"type": "Point", "coordinates": [142.112254500655, 45.3278388188228]}, "properties": {"stop_id": "S0110000137", "stop_name": "鬼志別ターミナル", "route_ids": []}}, {"type": "Feature", "geometry": {"type": "Point", "coordinates": [142.112254500655, 45.3278388188228]}, "properties": {"stop_id": "S011000013700000", "stop_name": "鬼志別ターミナル", "route_ids": ["R011001257000000", "R011001257010000", "R011001258000000"]}}, {"type": "Feature", "geometry": {"type": "Point", "coordinates": [142.16158907835, 45.3423092270064]}, "properties": {"stop_id": "S0110000138", "stop_name": "浜鬼志別", "route_ids": []}}, {"type": "Feature", "geometry": {"type": "Point", "coordinates": [142.16158907835, 45.3423092270064]}, "properties": {"stop_id": "S011000013800000", "stop_name": "浜鬼志別", "route_ids": ["R011001257000000", "R011001258000000"]}}, {"type": "Feature", "geometry": {"type": "Point", "coordinates": [142.167283185186, 45.3393931188373]}, "properties": {"stop_id": "S0110000139", "stop_name": "開発事業所前（猿払村）", "route_ids": []}}, {"type": "Feature", "geometry": {"type": "Point", "coordinates": [142.167283185186, 45.3393931188373]}, "properties": {"stop_id": "S011000013900000", "stop_name": "開発事業所前（猿払村）", "route_ids": ["R011001257000000", "R011001258000000"]}}, {"type": "Feature", "geometry": {"type": "Point", "coordinates": [142.170963610334, 45.3362512741952]}, "properties": {"stop_id": "S0110000140", "stop_name": "村営牧場前（猿払村）", "route_ids": []}}, {"type": "Feature", "geometry": {"type": "Point", "coordinates": [142.170963610334, 45.3362512741952]}, "properties": {"stop_id": "S011000014000000", "stop_name": "村営牧場前（猿払村）", "route_ids": ["R011001257000000", "R011001258000000"]}}, {"type": "Feature", "geometry": {"type": "Point", "coordinates": [142.177352338106, 45.3298633973197]}, "properties": {"stop_id": "S0110000141", "stop_name": "さるふつ公園前", "route_ids": []}}, {"type": "Feature", "geometry": {"type": "Point", "coordinates": [142.177352338106, 45.3298633973197]}, "properties": {"stop_id": "S011000014100000", "stop_name": "さるふつ公園前", "route_ids": ["R011001257000000", "R011001258000000"]}}, {"type": "Feature", "geometry": {"type": "Point", "coordinates": [142.195546501939, 45.3091200667657]}, "properties": {"stop_id": "S0110000142", "stop_name": "恵山辺", "route_ids": []}}, {"type": "Feature", "geometry": {"type": "Point", "coordinates": [142.195546501939, 45.3091200667657]}, "properties": {"stop_id": "S011000014200000", "stop_name": "恵山辺", "route_ids": ["R011001257000000", "R011001258000000"]}}, {"type": "Feature", "geometry": {"type": "Point", "coordinates": [142.201518550645, 45.3034786106406]}, "properties": {"stop_id": "S0110000143", "stop_name": "猿骨", "route_ids": []}}, {"type": "Feature", "geometry": {"type": "Point", "coordinates": [142.201518550645, 45.3034786106406]}, "properties": {"stop_id": "S011000014300000", "stop_name": "猿骨", "route_ids": ["R011001257000000", "R011001258000000"]}}, {"type": "Feature", "geometry": {"type": "Point", "coordinates": [142.178916609571, 45.3023408135419]}, "properties": {"stop_id": "S0110000144", "stop_name": "芦野", "route_ids": []}}, {"type": "Feature", "geometry": {"type": "Point", "coordinates": [142.178916609571, 45.3023408135419]}, "properties": {"stop_id": "S011000014400000", "stop_name": "芦野", "route_ids": ["R011001257000000", "R011001258000000"]}}, {"type": "Feature", "geometry": {"type": "Point", "coordinates": [142.187944430243, 45.2894260570868]}, "properties": {"stop_id": "S0110000145", "stop_name": "芦野高台", "route_ids": []}}, {"type": "Feature", "geometry": {"type": "Point", "coordinates": [142.187944430243, 45.2894260570868]}, "properties": {"stop_id": "S011000014500000", "stop_name": "芦野高台", "route_ids": ["R011001257000000", "R011001258000000"]}}, {"type": "Feature", "geometry": {"type": "Point", "coordinates": [142.191904066281, 45.2653232711703]}, "properties": {"stop_id": "S0110000146", "stop_name": "猿払", "route_ids": []}}, {"type": "Feature", "geometry": {"type": "Point", "coordinates": [142.191904066281, 45.2653232711703]}, "properties": {"stop_id": "S011000014600000", "stop_name": "猿払", "route_ids": ["R011001257000000", "R011001258000000"]}}, {"type": "Feature", "geometry": {"type": "Point", "coordinates": [142.228879167995, 45.2733183588037]}, "properties": {"stop_id": "S0110000147", "stop_name": "浜猿払", "route_ids": []}}, {"type": "Feature", "geometry": {"type": "Point", "coordinates": [142.228879167995, 45.2733183588037]}, "properties": {"stop_id": "S011000014700000", "stop_name": "浜猿払", "route_ids": ["R011001257000000", "R011001258000000"]}}, {"type": "Feature", "geometry": {"type": "Point", "coordinates": [142.232005374427, 45.2517412725971]}, "properties": {"stop_id": "S0110000148", "stop_name": "生産団地前（猿払村）", "route_ids": []}}, {"type": "Feature", "geometry": {"type": "Point", "coordinates": [142.232005374427, 45.2517412725971]}, "properties": {"stop_id": "S011000014800000", "stop_name": "生産団地前（猿払村）", "route_ids": ["R011001257000000", "R011001258000000"]}}, {"type": "Feature", "geometry": {"type": "Point", "coordinates": [142.228709739452, 45.2134385982481]}, "properties": {"stop_id": "S0110000149", "stop_name": "浅茅野", "route_ids": []}}, {"type": "Feature", "geometry": {"type": "Point", "coordinates": [142.228709739452, 45.2134385982481]}, "properties": {"stop_id": "S011000014900000", "stop_name": "浅茅野", "route_ids": ["R011001257000000", "R011001258000000"]}}, {"type": "Feature", "geometry": {"type": "Point", "coordinates": [142.239438651597, 45.2024681033513]}, "properties": {"stop_id": "S0110000150", "stop_name": "ひょうたん沼入口", "route_ids": []}}, {"type": "Feature", "geometry": {"type": "Point", "coordinates": [142.239438651597, 45.2024681033513]}, "properties": {"stop_id": "S011000015000000", "stop_name": "ひょうたん沼入口", "route_ids": ["R011001257000000", "R011001258000000"]}}, {"type": "Feature", "geometry": {"type": "Point", "coordinates": [142.258187645511, 45.1913850533881]}, "properties": {"stop_id": "S0110000151", "stop_name": "飛行場前（猿払村）", "route_ids": []}}, {"type": "Feature", "geometry": {"type": "Point", "coordinates": [142.258187645511, 45.1913850533881]}, "properties": {"stop_id": "S011000015100000", "stop_name": "飛行場前（猿払村）", "route_ids": ["R011001257000000", "R011001258000000"]}}, {"type": "Feature", "geometry": {"type": "Point", "coordinates": [142.286519126148, 45.179443067196]}, "properties": {"stop_id": "S0110000152", "stop_name": "安別", "route_ids": []}}, {"type": "Feature", "geometry": {"type": "Point", "coordinates": [142.286519126148, 45.179443067196]}, "properties": {"stop_id": "S011000015200000", "stop_name": "安別", "route_ids": ["R011001257000000", "R011001258000000"]}}, {"type": "Feature", "geometry": {"type": "Point", "coordinates": [142.305893135573, 45.1673098212023]}, "properties": {"stop_id": "S0110000153", "stop_name": "山軽", "route_ids": []}}, {"type": "Feature", "geometry": {"type": "Point", "coordinates": [142.305893135573, 45.1673098212023]}, "properties": {"stop_id": "S011000015300000", "stop_name": "山軽", "route_ids": ["R011001257000000", "R011001258000000"]}}, {"type": "Feature", "geometry": {"type": "Point", "coordinates": [142.358910630525, 45.1432000556087]}, "properties": {"stop_id": "S0110000154", "stop_name": "よつ葉乳業前", "route_ids": []}}, {"type": "Feature", "geometry": {"type": "Point", "coordinates": [142.358910630525, 45.1432000556087]}, "properties": {"stop_id": "S011000015400000", "stop_name": "よつ葉乳業前", "route_ids": ["R011001257000000", "R011001258000000"]}}, {"type": "Feature", "geometry": {"type": "Point", "coordinates": [142.361445271137, 45.1409261186948]}, "properties": {"stop_id": "S0110000155", "stop_name": "ベニヤ原生花園", "route_ids": []}}, {"type": "Feature", "geometry": {"type": "Point", "coordinates": [142.361445271137, 45.1409261186948]}, "properties": {"stop_id": "S011000015500000", "stop_name": "ベニヤ原生花園", "route_ids": ["R011001257000000", "R011001258000000"]}}, {"type": "Feature", "geometry": {"type": "Point", "coordinates": [142.363320391025, 45.1366471978087]}, "properties": {"stop_id": "S0110000156", "stop_name": "工業団地前（浜頓別町）", "route_ids": []}}, {"type": "Feature", "geometry": {"type": "Point", "coordinates": [142.363320391025, 45.1366471978087]}, "properties": {"stop_id": "S011000015600000", "stop_name": "工業団地前（浜頓別町）", "route_ids": ["R011001257000000", "R011001258000000"]}}, {"type": "Feature", "geometry": {"type": "Point", "coordinates": [142.365404113613, 45.128202131315]}, "properties": {"stop_id": "S0110000157", "stop_name": "営林署前（浜頓別町）", "route_ids": []}}, {"type": "Feature", "geometry": {"type": "Point", "coordinates": [142.365404113613, 45.128202131315]}, "properties": {"stop_id": "S011000015700000", "stop_name": "営林署前（浜頓別町）", "route_ids": ["R011001257000000", "R011001258000000"]}}, {"type": "Feature", "geometry": {"type": "Point", "coordinates": [142.365230734464, 45.1250948696194]}, "properties": {"stop_id": "S0110000158", "stop_name": "大通三丁目", "route_ids": []}}, {"type": "Feature", "geometry": {"type": "Point", "coordinates": [142.365230734464, 45.1250948696194]}, "properties": {"stop_id": "S011000015800000", "stop_name": "大通三丁目", "route_ids": ["R011001257000000", "R011001258000000"]}}, {"type": "Feature", "geometry": {"type": "Point", "coordinates": [142.360300684925, 45.1245131727278]}, "properties": {"stop_id": "S0110000159", "stop_name": "浜頓別ターミナル", "route_ids": []}}, {"type": "Feature", "geometry": {"type": "Point", "coordinates": [142.360300684925, 45.1245131727278]}, "properties": {"stop_id": "S011000015900000", "stop_name": "浜頓別ターミナル", "route_ids": ["R011001257000000", "R011001258000000"]}}, {"type": "Feature", "geometry": {"type": "Point", "coordinates": [142.361238589935, 45.1173960275153]}, "properties": {"stop_id": "S0110000160", "stop_name": "浜頓別高校前", "route_ids": []}}, {"type": "Feature", "geometry": {"type": "Point", "coordinates": [142.361238589935, 45.1173960275153]}, "properties": {"stop_id": "S011000016000000", "stop_name": "浜頓別高校前", "route_ids": ["R011001257000000", "R011001258000000"]}}, {"type": "Feature", "geometry": {"type": "Point", "coordinates": [142.36207205398, 45.1143755956367]}, "properties": {"stop_id": "S0110000161", "stop_name": "農試住宅前（浜頓別町）", "route_ids": []}}, {"type": "Feature", "geometry": {"type": "Point", "coordinates": [142.36207205398, 45.1143755956367]}, "properties": {"stop_id": "S011000016100000", "stop_name": "農試住宅前（浜頓別町）", "route_ids": ["R011001257000000", "R011001258000000"]}}, {"type": "Feature", "geometry": {"type": "Point", "coordinates": [142.331973075919, 45.0804898395118]}, "properties": {"stop_id": "S0110000162", "stop_name": "金ヶ丘", "route_ids": []}}, {"type": "Feature", "geometry": {"type": "Point", "coordinates": [142.331973075919, 45.0804898395118]}, "properties": {"stop_id": "S011000016200000", "stop_name": "金ヶ丘", "route_ids": ["R011001257000000", "R011001258000000"]}}, {"type": "Feature", "geometry": {"type": "Point", "coordinates": [142.327529385331, 45.0756552118993]}, "properties": {"stop_id": "S0110000163", "stop_name": "常盤", "route_ids": []}}, {"type": "Feature", "geometry": {"type": "Point", "coordinates": [142.327529385331, 45.0756552118993]}, "properties": {"stop_id": "S011000016300000", "stop_name": "常盤", "route_ids": ["R011001257000000", "R011001258000000"]}}, {"type": "Feature", "geometry": {"type": "Point", "coordinates": [142.312289332273, 45.0530185849848]}, "properties": {"stop_id": "S0110000164", "stop_name": "下頓別四町内", "route_ids": []}}, {"type": "Feature", "geometry": {"type": "Point", "coordinates": [142.312289332273, 45.0530185849848]}, "properties": {"stop_id": "S011000016400000", "stop_name": "下頓別四町内", "route_ids": ["R011001257000000", "R011001258000000"]}}, {"type": "Feature", "geometry": {"type": "Point", "coordinates": [142.31478958507, 45.0459362114206]}, "properties": {"stop_id": "S0110000165", "stop_name": "下頓別", "route_ids": []}}, {"type": "Feature", "geometry": {"type": "Point", "coordinates": [142.31478958507, 45.0459362114206]}, "properties": {"stop_id": "S011000016500000", "stop_name": "下頓別", "route_ids": ["R011001257000000", "R011001258000000"]}}, {"type": "Feature", "geometry": {"type": "Point", "coordinates": [142.312116592123, 45.0406329529809]}, "properties": {"stop_id": "S0110000166", "stop_name": "高砂", "route_ids": []}}, {"type": "Feature", "geometry": {"type": "Point", "coordinates": [142.312116592123, 45.0406329529809]}, "properties": {"stop_id": "S011000016600000", "stop_name": "高砂", "route_ids": ["R011001257000000", "R011001258000000"]}}, {"type": "Feature", "geometry": {"type": "Point", "coordinates": [142.30288301077, 45.0165730982822]}, "properties": {"stop_id": "S0110000167", "stop_name": "新弥生", "route_ids": []}}, {"type": "Feature", "geometry": {"type": "Point", "coordinates": [142.30288301077, 45.0165730982822]}, "properties": {"stop_id": "S011000016700000", "stop_name": "新弥生", "route_ids": ["R011001257000000", "R011001258000000"]}}, {"type": "Feature", "geometry": {"type": "Point", "coordinates": [142.295696873046, 45.0066348379276]}, "properties": {"stop_id": "S0110000168", "stop_name": "弥生", "route_ids": []}}, {"type": "Feature", "geometry": {"type": "Point", "coordinates": [142.295696873046, 45.0066348379276]}, "properties": {"stop_id": "S011000016800000", "stop_name": "弥生", "route_ids": ["R011001257000000", "R011001258000000"]}}, {"type": "Feature", "geometry": {"type": "Point", "coordinates": [142.289205091049, 44.9970264220972]}, "properties": {"stop_id": "S0110000169", "stop_name": "寿", "route_ids": []}}, {"type": "Feature", "geometry": {"type": "Point", "coordinates": [142.289205091049, 44.9970264220972]}, "properties": {"stop_id": "S011000016900000", "stop_name": "寿", "route_ids": ["R011001257000000", "R011001258000000"]}}, {"type": "Feature", "geometry": {"type": "Point", "coordinates": [142.289135891922, 44.9935546252806]}, "properties": {"stop_id": "S0110000170", "stop_name": "スキー場前", "route_ids": []}}, {"type": "Feature", "geometry": {"type": "Point", "coordinates": [142.289135891922, 44.9935546252806]}, "properties": {"stop_id": "S011000017000000", "stop_name": "スキー場前", "route_ids": ["R011001257000000", "R011001258000000"]}}, {"type": "Feature", "geometry": {"type": "Point", "coordinates": [142.291740074978, 44.989744421054]}, "properties": {"stop_id": "S0110000171", "stop_name": "自動車学校前［中頓別町］", "route_ids": []}}, {"type": "Feature", "geometry": {"type": "Point", "coordinates": [142.291740074978, 44.989744421054]}, "properties": {"stop_id": "S011000017100000", "stop_name": "自動車学校前［中頓別町］", "route_ids": ["R011001257000000", "R011001258000000"]}}, {"type": "Feature", "geometry": {"type": "Point", "coordinates": [142.289727085968, 44.9794157628216]}, "properties": {"stop_id": "S0110000172", "stop_name": "旭台団地前", "route_ids": []}}, {"type": "Feature", "geometry": {"type": "Point", "coordinates": [142.289727085968, 44.9794157628216]}, "properties": {"stop_id": "S011000017200000", "stop_name": "旭台団地前", "route_ids": ["R011001257000000", "R011001258000000"]}}, {"type": "Feature", "geometry": {"type": "Point", "coordinates": [142.292088376988, 44.9735571913395]}, "properties": {"stop_id": "S0110000173", "stop_name": "中頓別ターミナル", "route_ids": []}}, {"type": "Feature", "geometry": {"type": "Point", "coordinates": [142.292088376988, 44.9735571913395]}, "properties": {"stop_id": "S011000017300000", "stop_name": "中頓別ターミナル", "route_ids": ["R011001257000000", "R011001258000000"]}}, {"type": "Feature", "geometry": {"type": "Point", "coordinates": [142.288269266432, 44.9739389565416]}, "properties": {"stop_id": "S0110000174", "stop_name": "本通り", "route_ids": []}}, {"type": "Feature", "geometry": {"type": "Point", "coordinates": [142.288269266432, 44.9739389565416]}, "properties": {"stop_id": "S011000017400000", "stop_name": "本通り", "route_ids": ["R011001257000000", "R011001258000000"]}}, {"type": "Feature", "geometry": {"type": "Point", "coordinates": [142.286082197444, 44.9706667145199]}, "properties": {"stop_id": "S0110000175", "stop_name": "中頓別長寿園前", "route_ids": []}}, {"type": "Feature", "geometry": {"type": "Point", "coordinates": [142.286082197444, 44.9706667145199]}, "properties": {"stop_id": "S011000017500000", "stop_name": "中頓別長寿園前", "route_ids": ["R011001257000000", "R011001258000000"]}}, {"type": "Feature", "geometry": {"type": "Point", "coordinates": [142.280770562483, 44.9653633645818]}, "properties": {"stop_id": "S0110000176", "stop_name": "天北厚生園前", "route_ids": []}}, {"type": "Feature", "geometry": {"type": "Point", "coordinates": [142.280770562483, 44.9653633645818]}, "properties": {"stop_id": "S011000017600000", "stop_name": "天北厚生園前", "route_ids": ["R011001257000000", "R011001258000000"]}}, {"type": "Feature", "geometry": {"type": "Point", "coordinates": [142.26500843281, 44.9613876145944]}, "properties": {"stop_id": "S0110000177", "stop_name": "共進会場前", "route_ids": []}}, {"type": "Feature", "geometry": {"type": "Point", "coordinates": [142.26500843281, 44.9613876145944]}, "properties": {"stop_id": "S011000017700000", "stop_name": "共進会場前", "route_ids": ["R011001257000000", "R011001258000000"]}}, {"type": "Feature", "geometry": {"type": "Point", "coordinates": [142.249454474012, 44.9594949487584]}, "properties": {"stop_id": "S0110000178", "stop_name": "上駒", "route_ids": []}}, {"type": "Feature", "geometry": {"type": "Point", "coordinates": [142.249454474012, 44.9594949487584]}, "properties": {"stop_id": "S011000017800000", "stop_name": "上駒", "route_ids": ["R011001257000000", "R011001258000000"]}}, {"type": "Feature", "geometry": {"type": "Point", "coordinates": [142.232824863281, 44.9483325547283]}, "properties": {"stop_id": "S0110000179", "stop_name": "松音知一号線", "route_ids": []}}, {"type": "Feature", "geometry": {"type": "Point", "coordinates": [142.232824863281, 44.9483325547283]}, "properties": {"stop_id": "S011000017900000", "stop_name": "松音知一号線", "route_ids": ["R011001257000000", "R011001258000000"]}}, {"type": "Feature", "geometry": {"type": "Point", "coordinates": [142.223243095971, 44.9386632760334]}, "properties": {"stop_id": "S0110000180", "stop_name": "松音知", "route_ids": []}}, {"type": "Feature", "geometry": {"type": "Point", "coordinates": [142.223243095971, 44.9386632760334]}, "properties": {"stop_id": "S011000018000000", "stop_name": "松音知", "route_ids": ["R011001257000000", "R011001258000000"]}}, {"type": "Feature", "geometry": {"type": "Point", "coordinates": [142.215744886531, 44.9228316340188]}, "properties": {"stop_id": "S0110000181", "stop_name": "松音知宝来", "route_ids": []}}, {"type": "Feature", "geometry": {"type": "Point", "coordinates": [142.215744886531, 44.9228316340188]}, "properties": {"stop_id": "S011000018100000", "stop_name": "松音知宝来", "route_ids": ["R011001257000000", "R011001258000000"]}}, {"type": "Feature", "geometry": {"type": "Point", "coordinates": [142.210294596191, 44.9142821517453]}, "properties": {"stop_id": "S0110000182", "stop_name": "周麿", "route_ids": []}}, {"type": "Feature", "geometry": {"type": "Point", "coordinates": [142.210294596191, 44.9142821517453]}, "properties": {"stop_id": "S011000018200000", "stop_name": "周麿", "route_ids": ["R011001257000000", "R011001258000000"]}}, {"type": "Feature", "geometry": {"type": "Point", "coordinates": [142.202275409172, 44.9012539657797]}, "properties": {"stop_id": "S0110000183", "stop_name": "藤山一号線", "route_ids": []}}, {"type": "Feature", "geometry": {"type": "Point", "coordinates": [142.202275409172, 44.9012539657797]}, "properties": {"stop_id": "S011000018300000", "stop_name": "藤山一号線", "route_ids": ["R011001257000000", "R011001258000000"]}}, {"type": "Feature", "geometry": {"type": "Point", "coordinates": [142.201095456198, 44.8940586306877]}, "properties": {"stop_id": "S0110000184", "stop_name": "藤山", "route_ids": []}}, {"type": "Feature", "geometry": {"type": "Point", "coordinates": [142.201095456198, 44.8940586306877]}, "properties": {"stop_id": "S011000018400000", "stop_name": "藤山", "route_ids": ["R011001257000000", "R011001258000000"]}}, {"type": "Feature", "geometry": {"type": "Point", "coordinates": [142.211894150761, 44.8779238373055]}, "properties": {"stop_id": "S0110000185", "stop_name": "ピンネシリ温泉", "route_ids": []}}, {"type": "Feature", "geometry": {"type": "Point", "coordinates": [142.211894150761, 44.8779238373055]}, "properties": {"stop_id": "S011000018500000", "stop_name": "ピンネシリ温泉", "route_ids": ["R011001257000000", "R011001258000000"]}}, {"type": "Feature", "geometry": {"type": "Point", "coordinates": [142.222692038205, 44.8736191842752]}, "properties": {"stop_id": "S0110000186", "stop_name": "豊平入口", "route_ids": []}}, {"type": "Feature", "geometry": {"type": "Point", "coordinates": [142.222692038205, 44.8736191842752]}, "properties": {"stop_id": "S011000018600000", "stop_name": "豊平入口", "route_ids": ["R011001257000000", "R011001258000000"]}}, {"type": "Feature", "geometry": {"type": "Point", "coordinates": [142.252308022764, 44.8630919884086]}, "properties": {"stop_id": "S0110000187", "stop_name": "恵野", "route_ids": []}}, {"type": "Feature", "geometry": {"type": "Point", "coordinates": [142.252308022764, 44.8630919884086]}, "properties": {"stop_id": "S011000018700000", "stop_name": "恵野", "route_ids": ["R011001257000000", "R011001258000000"]}}, {"type": "Feature", "geometry": {"type": "Point", "coordinates": [142.266682188958, 44.8554805742495]}, "properties": {"stop_id": "S0110000188", "stop_name": "神崎入口", "route_ids": []}}, {"type": "Feature", "geometry": {"type": "Point", "coordinates": [142.266682188958, 44.8554805742495]}, "properties": {"stop_id": "S011000018800000", "stop_name": "神崎入口", "route_ids": ["R011001257000000", "R011001258000000"]}}, {"type": "Feature", "geometry": {"type": "Point", "coordinates": [142.275501034348, 44.8520958786416]}, "properties": {"stop_id": "S0110000189", "stop_name": "上頓別", "route_ids": []}}, {"type": "Feature", "geometry": {"type": "Point", "coordinates": [142.275501034348, 44.8520958786416]}, "properties": {"stop_id": "S011000018900000", "stop_name": "上頓別", "route_ids": ["R011001257000000", "R011001258000000"]}}, {"type": "Feature", "geometry": {"type": "Point", "coordinates": [142.295430190285, 44.8451269384024]}, "properties": {"stop_id": "S0110000190", "stop_name": "８号の沢", "route_ids": []}}, {"type": "Feature", "geometry": {"type": "Point", "coordinates": [142.295430190285, 44.8451269384024]}, "properties": {"stop_id": "S011000019000000", "stop_name": "８号の沢", "route_ids": ["R011001257000000", "R011001258000000"]}}, {"type": "Feature", "geometry": {"type": "Point", "coordinates": [142.307825309036, 44.8385135969617]}, "properties": {"stop_id": "S0110000191", "stop_name": "岩手", "route_ids": []}}, {"type": "Feature", "geometry": {"type": "Point", "coordinates": [142.307825309036, 44.8385135969617]}, "properties": {"stop_id": "S011000019100000", "stop_name": "岩手", "route_ids": ["R011001257000000", "R011001258000000"]}}, {"type": "Feature", "geometry": {"type": "Point", "coordinates": [142.309596689982, 44.8280461958485]}, "properties": {"stop_id": "S0110000192", "stop_name": "駐在所前（中頓別）", "route_ids": []}}, {"type": "Feature", "geometry": {"type": "Point", "coordinates": [142.309596689982, 44.8280461958485]}, "properties": {"stop_id": "S011000019200000", "stop_name": "駐在所前（中頓別）", "route_ids": ["R011001257000000", "R011001258000000"]}}, {"type": "Feature", "geometry": {"type": "Point", "coordinates": [142.303555600881, 44.8279071153837]}, "properties": {"stop_id": "S0110000193", "stop_name": "小頓別", "route_ids": []}}, {"type": "Feature", "geometry": {"type": "Point", "coordinates": [142.303555600881, 44.8279071153837]}, "properties": {"stop_id": "S011000019300000", "stop_name": "小頓別", "route_ids": ["R011001257000000", "R011001258000000"]}}, {"type": "Feature", "geometry": {"type": "Point", "coordinates": [142.298104716926, 44.8280197604779]}, "properties": {"stop_id": "S0110000194", "stop_name": "秋田入口", "route_ids": []}}, {"type": "Feature", "geometry": {"type": "Point", "coordinates": [142.298104716926, 44.8280197604779]}, "properties": {"stop_id": "S011000019400000", "stop_name": "秋田入口", "route_ids": ["R011001257000000", "R011001258000000"]}}, {"type": "Feature", "geometry": {"type": "Point", "coordinates": [142.249710480058, 44.7693794702344]}, "properties": {"stop_id": "S0110000195", "stop_name": "上音威子府", "route_ids": []}}, {"type": "Feature", "geometry": {"type": "Point", "coordinates": [142.249710480058, 44.7693794702344]}, "properties": {"stop_id": "S011000019500000", "stop_name": "上音威子府", "route_ids": ["R011001257000000", "R011001258000000"]}}, {"type": "Feature", "geometry": {"type": "Point", "coordinates": [142.253913128596, 44.7449989323839]}, "properties": {"stop_id": "S0110000196", "stop_name": "北線", "route_ids": []}}, {"type": "Feature", "geometry": {"type": "Point", "coordinates": [142.253913128596, 44.7449989323839]}, "properties": {"stop_id": "S011000019600000", "stop_name": "北線", "route_ids": ["R011001257000000", "R011001258000000"]}}, {"type": "Feature", "geometry": {"type": "Point", "coordinates": [142.259469250877, 44.728942069968]}, "properties": {"stop_id": "S0110000197", "stop_name": "音威子府", "route_ids": []}}, {"type": "Feature", "geometry": {"type": "Point", "coordinates": [142.259469250877, 44.728942069968]}, "properties": {"stop_id": "S011000019700000", "stop_name": "音威子府", "route_ids": ["R011001257000000", "R011001258000000"]}}, {"type": "Feature", "geometry": {"type": "Point", "coordinates": [141.706316691555, 45.3898744087563]}, "properties": {"stop_id": "S0110000198", "stop_name": "萩見四丁目", "route_ids": []}}, {"type": "Feature", "geometry": {"type": "Point", "coordinates": [141.706316691555, 45.3898744087563]}, "properties": {"stop_id": "S011000019800000", "stop_name": "萩見四丁目", "route_ids": ["R011000008000000", "R011000009000000", "R011000009010000", "R011000010000000", "R011000010010000", "R011001294000000", "R011001295000000"]}}, {"type": "Feature", "geometry": {"type": "Point", "coordinates": [141.706316912674, 45.386680360466]}, "properties": {"stop_id": "S0110000199", "stop_name": "萩見五丁目", "route_ids": []}}, {"type": "Feature", "geometry": {"type": "Point", "coordinates": [141.706316912674, 45.386680360466]}, "properties": {"stop_id": "S011000019900000", "stop_name": "萩見五丁目", "route_ids": ["R011000008000000", "R011000009000000", "R011000009010000", "R011000010000000", "R011000010010000", "R011001294000000", "R011001295000000"]}}, {"type": "Feature", "geometry": {"type": "Point", "coordinates": [141.710101298041, 45.3863159524295]}, "properties": {"stop_id": "S0110000200", "stop_name": "朝日入口", "route_ids": []}}, {"type": "Feature", "geometry": {"type": "Point", "coordinates": [141.710101298041, 45.3863159524295]}, "properties": {"stop_id": "S011000020000000", "stop_name": "朝日入口", "route_ids": ["R011000008000000", "R011000009000000", "R011000009010000", "R011000010000000", "R011000010010000", "R011001294000000", "R011001295000000"]}}, {"type": "Feature", "geometry": {"type": "Point", "coordinates": [141.712948244271, 45.3863681271736]}, "properties": {"stop_id": "S0110000201", "stop_name": "萩見ニュータウン", "route_ids": []}}, {"type": "Feature", "geometry": {"type": "Point", "coordinates": [141.712948244271, 45.3863681271736]}, "properties": {"stop_id": "S011000020100000", "stop_name": "萩見ニュータウン", "route_ids": ["R011000008000000", "R011000009000000", "R011000009010000", "R011000010000000", "R011000010010000", "R011001294000000", "R011001295000000"]}}, {"type": "Feature", "geometry": {"type": "Point", "coordinates": [141.718156067341, 45.3865418958035]}, "properties": {"stop_id": "S0110000202", "stop_name": "北星学園前", "route_ids": []}}, {"type": "Feature", "geometry": {"type": "Point", "coordinates": [141.718156067341, 45.3865418958035]}, "properties": {"stop_id": "S011000020200000", "stop_name": "北星学園前", "route_ids": ["R011000008000000", "R011000009000000", "R011000009010000", "R011000010000000", "R011000010010000", "R011001294000000", "R011001295000000"]}}, {"type": "Feature", "geometry": {"type": "Point", "coordinates": [141.721384862003, 45.3874533521342]}, "properties": {"stop_id": "S0110000203", "stop_name": "富岡五丁目", "route_ids": []}}, {"type": "Feature", "geometry": {"type": "Point", "coordinates": [141.721384862003, 45.3874533521342]}, "properties": {"stop_id": "S011000020300000", "stop_name": "富岡五丁目", "route_ids": ["R011000008000000", "R011000009000000", "R011000009010000", "R011000010000000", "R011000010010000", "R011001294000000", "R011001295000000"]}}, {"type": "Feature", "geometry": {"type": "Point", "coordinates": [141.721141664396, 45.3898402005358]},