{"type": "FeatureCollection", "features": [{"type": "Feature", "geometry": {"type": "Point", "coordinates": [140.790154, 41.781107]}, "properties": {"similar_stop_name": "湯の川", "similar_stop_id": "01"}}, {"type": "Feature", "geometry": {"type": "Point", "coordinates": [140.78515, 41.780041]}, "properties": {"similar_stop_name": "湯の川温泉", "similar_stop_id": "02"}}, {"type": "Feature", "geometry": {"type": "Point", "coordinates": [140.782468, 41.781882]}, "properties": {"similar_stop_name": "函館アリーナ前（市民会館前）", "similar_stop_id": "03"}}, {"type": "Feature", "geometry": {"type": "Point", "coordinates": [140.779184, 41.78328]}, "properties": {"similar_stop_name": "駒場車庫前", "similar_stop_id": "04"}}, {"type": "Feature", "geometry": {"type": "Point", "coordinates": [140.776554, 41.784177]}, "properties": {"similar_stop_name": "競馬場前", "similar_stop_id": "05"}}, {"type": "Feature", "geometry": {"type": "Point", "coordinates": [140.770021, 41.787135]}, "properties": {"similar_stop_name": "深堀町", "similar_stop_id": "06"}}, {"type": "Feature", "geometry": {"type": "Point", "coordinates": [140.765274, 41.787927]}, "properties": {"similar_stop_name": "柏木町", "similar_stop_id": "07"}}, {"type": "Feature", "geometry": {"type": "Point", "coordinates": [140.758754, 41.788698]}, "properties": {"similar_stop_name": "杉並町", "similar_stop_id": "08"}}, {"type": "Feature", "geometry": {"type": "Point", "coordinates": [140.752587, 41.789198]}, "properties": {"similar_stop_name": "五稜郭公園前", "similar_stop_id": "09"}}, {"type": "Feature", "geometry": {"type": "Point", "coordinates": [140.750957, 41.786641]}, "properties": {"similar_stop_name": "中央病院前", "similar_stop_id": "10"}}, {"type": "Feature", "geometry": {"type": "Point", "coordinates": [140.748419, 41.783958]}, "properties": {"similar_stop_name": "千代台", "similar_stop_id": "11"}}, {"type": "Feature", "geometry": {"type": "Point", "coordinates": [140.744274, 41.780645]}, "properties": {"similar_stop_name": "堀川町", "similar_stop_id": "12"}}, {"type": "Feature", "geometry": {"type": "Point", "coordinates": [140.740837, 41.777943]}, "properties": {"similar_stop_name": "昭和橋", "similar_stop_id": "13"}}, {"type": "Feature", "geometry": {"type": "Point", "coordinates": [140.738401, 41.775963]}, "properties": {"similar_stop_name": "千歳町", "similar_stop_id": "14"}}, {"type": "Feature", "geometry": {"type": "Point", "coordinates": [140.735631, 41.773758]}, "properties": {"similar_stop_name": "新川町", "similar_stop_id": "15"}}, {"type": "Feature", "geometry": {"type": "Point", "coordinates": [140.733192, 41.771484]}, "properties": {"similar_stop_name": "松風町", "similar_stop_id": "16"}}, {"type": "Feature", "geometry": {"type": "Point", "coordinates": [140.727891, 41.772351]}, "properties": {"similar_stop_name": "函館駅前", "similar_stop_id": "17"}}, {"type": "Feature", "geometry": {"type": "Point", "coordinates": [140.725621, 41.769466]}, "properties": {"similar_stop_name": "市役所前", "similar_stop_id": "18"}}, {"type": "Feature", "geometry": {"type": "Point", "coordinates": [140.72298, 41.766785]}, "properties": {"similar_stop_name": "魚市場通", "similar_stop_id": "19"}}, {"type": "Feature", "geometry": {"type": "Point", "coordinates": [140.718709, 41.76414]}, "properties": {"similar_stop_name": "十字街", "similar_stop_id": "20"}}, {"type": "Feature", "geometry": {"type": "Point", "coordinates": [140.720092, 41.760758]}, "properties": {"similar_stop_name": "宝来町", "similar_stop_id": "21"}}, {"type": "Feature", "geometry": {"type": "Point", "coordinates": [140.71848, 41.756484]}, "properties": {"similar_stop_name": "青柳町", "similar_stop_id": "22"}}, {"type": "Feature", "geometry": {"type": "Point", "coordinates": [140.716419, 41.753293]}, "properties": {"similar_stop_name": "谷地頭", "similar_stop_id": "23"}}, {"type": "Feature", "geometry": {"type": "Point", "coordinates": [140.712477, 41.766599]}, "properties": {"similar_stop_name": "末広町", "similar_stop_id": "24"}}, {"type": "Feature", "geometry": {"type": "Point", "coordinates": [140.709369, 41.769968]}, "properties": {"similar_stop_name": "大町", "similar_stop_id": "25"}}, {"type": "Feature", "geometry": {"type": "Point", "coordinates": [140.704251, 41.773166]}, "properties": {"similar_stop_name": "函館どつく前", "similar_stop_id": "26"}}]}