stop_id,stop_name,similar_stop_id,similar_stop_name
1_01,十勝バス本社,1_01,十勝バス本社
1_02,十勝バス本社,1_01,十勝バス本社
2_01,西22条2丁目,2_01,西22条2丁目
2_02,西22条2丁目,2_01,西22条2丁目
3_01,西帯広ニュータウン,3_01,西帯広ニュータウン
3_02,西帯広ニュータウン,3_01,西帯広ニュータウン
1051_01,東9条,1051_01,東9条
1065_02,西14条9丁目,1065_02,西14条9丁目
6_01,白樺通16条,233_01,白樺通16条
6_02,白樺通16条,233_01,白樺通16条
1066_01,幕別清陵高校前,1066_01,幕別清陵高校前
8_01,NHK前,8_01,NHK前
8_02,NHK前,8_01,NHK前
9_01,西3条9丁目,9_01,西3条9丁目
9_02,西3条9丁目,9_01,西3条9丁目
9_03,西3条9丁目,9_01,西3条9丁目
10_01,東横イン・スーパーホテル前,10_01,東横イン・スーパーホテル前
10_02,東横イン・スーパーホテル前,10_01,東横イン・スーパーホテル前
11_01,帯広駅西口,11_01,帯広駅西口
11_02,帯広駅西口,11_01,帯広駅西口
11_03,帯広駅西口,11_01,帯広駅西口
12_親,帯広駅バスターミナル,12_親,帯広駅バスターミナル
12_01,帯広駅バスターミナル,12_親,帯広駅バスターミナル
12_02,帯広駅バスターミナル,12_親,帯広駅バスターミナル
12_05,帯広駅バスターミナル,12_親,帯広駅バスターミナル
12_06,帯広駅バスターミナル,12_親,帯広駅バスターミナル
12_07,帯広駅バスターミナル,12_親,帯広駅バスターミナル
12_08,帯広駅バスターミナル,12_親,帯広駅バスターミナル
12_09,帯広駅バスターミナル,12_親,帯広駅バスターミナル
12_10,帯広駅バスターミナル,12_親,帯広駅バスターミナル
12_11,帯広駅バスターミナル,12_親,帯広駅バスターミナル
12_12,帯広駅バスターミナル,12_親,帯広駅バスターミナル
12_13,帯広駅バスターミナル,12_親,帯広駅バスターミナル
12_14,帯広駅バスターミナル,12_親,帯広駅バスターミナル
13_01,大通13丁目,13_01,大通13丁目
13_02,大通13丁目,13_01,大通13丁目
14_01,大通20丁目,14_01,大通20丁目
14_02,大通20丁目,14_01,大通20丁目
15_01,大通27丁目,15_01,大通27丁目
15_02,大通27丁目,15_01,大通27丁目
16_01,大通34丁目,16_01,大通34丁目
16_02,大通34丁目,16_01,大通34丁目
17_01,西6条41丁目（真鍋庭園入口）,17_01,西6条41丁目（真鍋庭園入口）
17_02,西6条41丁目（真鍋庭園入口）,17_01,西6条41丁目（真鍋庭園入口）
17_03,西6条41丁目（真鍋庭園入口）,17_01,西6条41丁目（真鍋庭園入口）
18_01,川西,18_01,川西
18_02,川西,18_01,川西
19_01,愛国入口,19_01,愛国入口
19_02,愛国入口,19_01,愛国入口
20_01,大正本町,20_01,大正本町
20_02,大正本町,20_01,大正本町
21_01,幸福駅,21_01,幸福駅
21_02,幸福駅,21_01,幸福駅
22_01,とかち帯広空港,22_01,とかち帯広空港
23_01,十勝バス本社南口,23_01,十勝バス本社南口
23_02,十勝バス本社南口,23_01,十勝バス本社南口
24_01,西23条北1丁目,24_01,西23条北1丁目
24_02,西23条北1丁目,24_01,西23条北1丁目
25_01,西24条北1丁目,25_01,西24条北1丁目
25_02,西24条北1丁目,25_01,西24条北1丁目
26_01,六花亭前,26_01,六花亭前
27_01,国道西24条,27_01,国道西24条
27_02,国道西24条,27_01,国道西24条
27_04,国道西24条,27_01,国道西24条
28_01,14号団地,28_01,14号団地
28_02,14号団地,28_01,14号団地
29_01,西帯広団地,29_01,西帯広団地
29_02,西帯広団地,29_01,西帯広団地
30_01,西帯広団地入口,30_01,西帯広団地入口
30_02,西帯広団地入口,30_01,西帯広団地入口
31_01,西帯広コミセン前,31_01,西帯広コミセン前
31_02,西帯広コミセン前,31_01,西帯広コミセン前
32_01,西11号団地,32_01,西11号団地
32_02,西11号団地,32_01,西11号団地
33_01,西21条局前,33_01,西21条局前
33_02,西21条局前,33_01,西21条局前
34_01,西10号団地,34_01,西10号団地
34_02,西10号団地,34_01,西10号団地
35_01,啓新,35_01,啓新
35_02,啓新,35_01,啓新
36_01,三七北,36_01,三七北
36_02,三七北,36_01,三七北
37_01,柏林台通19条,37_01,柏林台通19条
37_02,柏林台通19条,37_01,柏林台通19条
38_01,柏西台橋,38_01,柏西台橋
38_02,柏西台橋,38_01,柏西台橋
39_01,西陵中学校前,39_01,西陵中学校前
39_02,西陵中学校前,39_01,西陵中学校前
40_01,柏林台通18条,40_01,柏林台通18条
40_02,柏林台通18条,40_01,柏林台通18条
41_01,柏林台北町1丁目,41_01,柏林台北町1丁目
41_02,柏林台北町1丁目,41_01,柏林台北町1丁目
42_01,柏林台北町3丁目,42_01,柏林台北町3丁目
42_02,柏林台北町3丁目,42_01,柏林台北町3丁目
43_01,柏林台北町5丁目,43_01,柏林台北町5丁目
43_02,柏林台北町5丁目,43_01,柏林台北町5丁目
44_01,西16条2丁目,44_01,西16条2丁目
44_02,西16条2丁目,44_01,西16条2丁目
45_01,西15条5丁目,45_01,西15条5丁目
45_02,西15条5丁目,45_01,西15条5丁目
46_01,新町西７丁目,46_01,新町西７丁目
46_02,新町西７丁目,46_01,新町西７丁目
47_01,新町西1丁目,47_01,新町西1丁目
47_02,新町西1丁目,47_01,新町西1丁目
48_01,西10条6丁目,48_01,西10条6丁目
48_02,西10条6丁目,48_01,西10条6丁目
49_01,帯広小学校前,49_01,帯広小学校前
49_02,帯広小学校前,49_01,帯広小学校前
50_01,西7条7丁目,50_01,西7条7丁目
50_02,西7条7丁目,50_01,西7条7丁目
51_01,帯広市役所南口,51_01,帯広市役所南口
51_02,帯広市役所南口,51_01,帯広市役所南口
52_01,帯広郵便局前,52_01,帯広郵便局前
52_02,帯広郵便局前,52_01,帯広郵便局前
53_01,駅北11丁目,53_01,駅北11丁目
54_02,かじのビル前,54_02,かじのビル前
55_01,西2条9丁目,55_01,西2条9丁目
56_02,西2条8丁目,56_02,西2条8丁目
57_01,西2条7丁目,57_01,西2条7丁目
58_02,西2条6丁目,58_02,西2条6丁目
58_03,西2条6丁目,58_02,西2条6丁目
58_04,西2条6丁目,58_02,西2条6丁目
59_01,西2条4丁目,59_01,西2条4丁目
59_02,西2条4丁目,59_01,西2条4丁目
60_01,西2条2丁目,60_01,西2条2丁目
61_01,西2条1丁目,61_01,西2条1丁目
61_02,西2条1丁目,61_01,西2条1丁目
61_03,西2条1丁目,61_01,西2条1丁目
61_04,西2条1丁目,61_01,西2条1丁目
62_01,鈴蘭公園入口,62_01,鈴蘭公園入口
62_02,鈴蘭公園入口,62_01,鈴蘭公園入口
63_01,木野郵便局前,63_01,木野郵便局前
63_02,木野郵便局前,63_01,木野郵便局前
64_01,木野農協前,64_01,木野農協前
64_02,木野農協前,64_01,木野農協前
64_03,木野農協前,64_01,木野農協前
65_01,宝来,1002_01,宝来
65_02,宝来,1002_01,宝来
66_01,宝来中央通り,66_01,宝来中央通り
66_02,宝来中央通り,66_01,宝来中央通り
67_01,宝来中央公園前,1000_01,宝来中央公園前
67_02,宝来中央公園前,1000_01,宝来中央公園前
68_01,宝来隧道前,68_01,宝来隧道前
68_02,宝来隧道前,68_01,宝来隧道前
69_01,緑南中学校前,69_01,緑南中学校前
69_02,緑南中学校前,69_01,緑南中学校前
70_01,下士幌6号,70_01,下士幌6号
70_02,下士幌6号,70_01,下士幌6号
71_01,下士幌7号,71_01,下士幌7号
71_02,下士幌7号,71_01,下士幌7号
72_01,下士幌8号,72_01,下士幌8号
72_02,下士幌8号,72_01,下士幌8号
73_01,下士幌,73_01,下士幌
73_02,下士幌,73_01,下士幌
74_01,下士幌小学校前,74_01,下士幌小学校前
74_02,下士幌小学校前,74_01,下士幌小学校前
75_01,旭橋,75_01,旭橋
75_02,旭橋,75_01,旭橋
76_01,十勝川温泉12号,76_01,十勝川温泉12号
76_02,十勝川温泉12号,76_01,十勝川温泉12号
77_01,十勝川温泉13号,77_01,十勝川温泉13号
77_02,十勝川温泉13号,77_01,十勝川温泉13号
78_01,十勝川温泉14号,78_01,十勝川温泉14号
78_02,十勝川温泉14号,78_01,十勝川温泉14号
79_01,第一ホテル,79_01,第一ホテル
80_01,観月苑,80_01,観月苑
81_01,笹井ホテル,81_01,笹井ホテル
82_01,ホテル大平原,82_01,ホテル大平原
82_02,ホテル大平原,82_01,ホテル大平原
83_01,十勝川温泉南,83_01,十勝川温泉南
84_01,エコロジーパーク,84_01,エコロジーパーク
85_01,帯広第2合同庁舎前,85_01,帯広第2合同庁舎前
85_02,帯広第2合同庁舎前,85_01,帯広第2合同庁舎前
86_01,西5条13丁目,86_01,西5条13丁目
86_02,西5条13丁目,86_01,西5条13丁目
87_01,長崎屋前,87_01,長崎屋前
87_02,長崎屋前,87_01,長崎屋前
88_01,第一病院前,88_01,第一病院前
88_02,第一病院前,88_01,第一病院前
89_01,西5条17丁目,89_01,西5条17丁目
89_02,西5条17丁目,89_01,西5条17丁目
90_01,イオン帯広店前,90_01,イオン帯広店前
90_02,イオン帯広店前,90_01,イオン帯広店前
90_03,イオン帯広店前,90_01,イオン帯広店前
91_01,公園東町1丁目,91_01,公園東町1丁目
91_02,公園東町1丁目,91_01,公園東町1丁目
92_01,グリーンパーク,92_01,グリーンパーク
92_02,グリーンパーク,92_01,グリーンパーク
93_01,公園東町4丁目,93_01,公園東町4丁目
93_02,公園東町4丁目,93_01,公園東町4丁目
94_01,西5条24丁目,94_01,西5条24丁目
94_02,西5条24丁目,94_01,西5条24丁目
95_01,四中前,95_01,四中前
95_02,四中前,95_01,四中前
95_03,四中前,95_01,四中前
95_04,四中前,95_01,四中前
96_01,西5条28丁目,96_01,西5条28丁目
96_02,西5条28丁目,96_01,西5条28丁目
97_01,弥生通西６条,97_01,弥生通西６条
97_02,弥生通西６条,97_01,弥生通西６条
98_01,弥生通西８条,98_01,弥生通西８条
98_02,弥生通西８条,98_01,弥生通西８条
99_01,弥生通西10条,99_01,弥生通西10条
99_02,弥生通西10条,99_01,弥生通西10条
100_01,弥生通西12条,100_01,弥生通西12条
100_02,弥生通西12条,100_01,弥生通西12条
101_01,公南弥生トンネル前,101_01,公南弥生トンネル前
101_02,公南弥生トンネル前,101_01,公南弥生トンネル前
102_01,善隣橋,102_01,善隣橋
102_02,善隣橋,102_01,善隣橋
103_01,普仁園前,103_01,普仁園前
103_02,普仁園前,103_01,普仁園前
104_01,自衛隊前,104_01,自衛隊前
104_02,自衛隊前,104_01,自衛隊前
105_01,修道館前,105_01,修道館前
105_02,修道館前,105_01,修道館前
106_01,東官舎前,106_01,東官舎前
106_02,東官舎前,106_01,東官舎前
106_03,東官舎前,106_01,東官舎前
107_01,別府団地前,107_01,別府団地前
107_02,別府団地前,107_01,別府団地前
108_01,南町中学校入口,108_01,南町中学校入口
108_02,南町中学校入口,108_01,南町中学校入口
109_01,西15条37丁目,109_01,西15条37丁目
109_02,西15条37丁目,109_01,西15条37丁目
110_01,稲田小学校前,110_01,稲田小学校前
110_02,稲田小学校前,110_01,稲田小学校前
111_01,農業高校正門北,111_01,農業高校正門北
111_02,農業高校正門北,111_01,農業高校正門北
112_01,北斗病院前,112_01,北斗病院前
112_02,北斗病院前,112_01,北斗病院前
113_01,帯広コア専門学校前,113_01,帯広コア専門学校前
113_02,帯広コア専門学校前,113_01,帯広コア専門学校前
114_01,看護学院前,114_01,看護学院前
114_02,看護学院前,114_01,看護学院前
115_01,西10条39丁目,115_01,西10条39丁目
115_02,西10条39丁目,115_01,西10条39丁目
116_01,西8条39丁目,116_01,西8条39丁目
116_02,西8条39丁目,116_01,西8条39丁目
117_01,西5条39丁目,117_01,西5条39丁目
117_02,西5条39丁目,117_01,西5条39丁目
118_01,西5条37丁目,118_01,西5条37丁目
118_02,西5条37丁目,118_01,西5条37丁目
119_01,イトーヨーカドー前,119_01,イトーヨーカドー前
119_02,イトーヨーカドー前,119_01,イトーヨーカドー前
120_01,農業高校前,120_01,農業高校前
120_02,農業高校前,120_01,農業高校前
121_01,農校住宅前,121_01,農校住宅前
121_02,農校住宅前,121_01,農校住宅前
122_01,駒翠,122_01,駒翠
122_02,駒翠,122_01,駒翠
123_01,畜産大学前,123_01,畜産大学前
123_02,畜産大学前,123_01,畜産大学前
124_01,畜大農場前,124_01,畜大農場前
125_01,ガーデンスパ十勝川温泉,125_01,ガーデンスパ十勝川温泉
126_01,国道西22条,126_01,国道西22条
126_02,国道西22条,126_01,国道西22条
126_03,国道西22条,126_01,国道西22条
126_04,国道西22条,126_01,国道西22条
127_01,西22条1丁目,127_01,西22条1丁目
127_02,西22条1丁目,127_01,西22条1丁目
128_01,国道西21条,128_01,国道西21条
128_02,国道西21条,128_01,国道西21条
129_01,国道西20条,129_01,国道西20条
129_02,国道西20条,129_01,国道西20条
130_01,西20条1丁目,130_01,西20条1丁目
130_02,西20条1丁目,130_01,西20条1丁目
131_01,国道西19条,131_01,国道西19条
131_02,国道西19条,131_01,国道西19条
132_01,国道西18条,132_01,国道西18条
132_02,国道西18条,132_01,国道西18条
133_01,国道西17条,133_01,国道西17条
133_02,国道西17条,133_01,国道西17条
133_03,国道西17条,133_01,国道西17条
134_01,西16条1丁目,134_01,西16条1丁目
134_02,西16条1丁目,134_01,西16条1丁目
135_01,報和団地,135_01,報和団地
135_02,報和団地,135_01,報和団地
136_01,西15条1丁目,136_01,西15条1丁目
136_02,西15条1丁目,136_01,西15条1丁目
137_01,西14条1丁目,137_01,西14条1丁目
137_02,西14条1丁目,137_01,西14条1丁目
138_01,西13条1丁目,138_01,西13条1丁目
138_02,西13条1丁目,138_01,西13条1丁目
139_01,西11条1丁目,139_01,西11条1丁目
139_02,西11条1丁目,139_01,西11条1丁目
140_01,西9条1丁目,140_01,西9条1丁目
140_02,西9条1丁目,140_01,西9条1丁目
141_01,西7条1丁目,141_01,西7条1丁目
141_02,西7条1丁目,141_01,西7条1丁目
142_01,西5条1丁目,142_01,西5条1丁目
142_02,西5条1丁目,142_01,西5条1丁目
143_01,明星校前,143_01,明星校前
143_02,明星校前,143_01,明星校前
144_01,西6条27丁目,144_01,西6条27丁目
144_02,西6条27丁目,144_01,西6条27丁目
145_01,西8条27丁目,145_01,西8条27丁目
145_02,西8条27丁目,145_01,西8条27丁目
146_01,西10条27丁目,146_01,西10条27丁目
146_02,西10条27丁目,146_01,西10条27丁目
147_01,動物園前,147_01,動物園前
147_02,動物園前,147_01,動物園前
148_01,西12条28丁目,148_01,西12条28丁目
148_02,西12条28丁目,148_01,西12条28丁目
149_01,西12条31丁目,149_01,西12条31丁目
149_02,西12条31丁目,149_01,西12条31丁目
150_01,西12条33丁目,150_01,西12条33丁目
150_02,西12条33丁目,150_01,西12条33丁目
151_01,西12条34丁目,151_01,西12条34丁目
151_02,西12条34丁目,151_01,西12条34丁目
151_03,西12条34丁目,151_01,西12条34丁目
151_04,西12条34丁目,151_01,西12条34丁目
152_01,稲田,152_01,稲田
152_02,稲田,152_01,稲田
153_01,春光団地,153_01,春光団地
153_02,春光団地,153_01,春光団地
154_01,南の森西1丁目,154_01,南の森西1丁目
154_02,南の森西1丁目,154_01,南の森西1丁目
155_01,緑陽高校前,155_01,緑陽高校前
155_02,緑陽高校前,155_01,緑陽高校前
155_03,緑陽高校前,155_01,緑陽高校前
155_04,緑陽高校前,155_01,緑陽高校前
156_01,南の森西4丁目,156_01,南の森西4丁目
156_02,南の森西4丁目,156_01,南の森西4丁目
157_01,光南病院前,157_01,光南病院前
157_02,光南病院前,157_01,光南病院前
158_01,大空団地入口,158_01,大空団地入口
158_02,大空団地入口,158_01,大空団地入口
158_03,大空団地入口,158_01,大空団地入口
159_01,大空2丁目,159_01,大空2丁目
160_01,大空3丁目,160_01,大空3丁目
161_01,大空5丁目,161_01,大空5丁目
162_01,大空7丁目,162_01,大空7丁目
163_01,大空8丁目,163_01,大空8丁目
164_01,大空10丁目,164_01,大空10丁目
165_01,南町郵便局前,165_01,南町郵便局前
165_02,南町郵便局前,165_01,南町郵便局前
1053_01,東8条,1053_01,東8条
167_01,西帯広,167_01,西帯広
167_02,西帯広,167_01,西帯広
168_01,西帯広郵便局前,168_01,西帯広郵便局前
168_02,西帯広郵便局前,168_01,西帯広郵便局前
169_01,西福祉センター前,169_01,西福祉センター前
169_02,西福祉センター前,169_01,西福祉センター前
170_01,柳橋,170_01,柳橋
170_02,柳橋,170_01,柳橋
171_01,西23条2丁目,171_01,西23条2丁目
171_02,西23条2丁目,171_01,西23条2丁目
171_03,西23条2丁目,171_01,西23条2丁目
171_04,西23条2丁目,171_01,西23条2丁目
172_01,三条高校・開西病院前,172_01,三条高校・開西病院前
172_02,三条高校・開西病院前,172_01,三条高校・開西病院前
173_01,おふね公園前,173_01,おふね公園前
173_02,おふね公園前,173_01,おふね公園前
174_01,中島通3丁目,174_01,中島通3丁目
174_02,中島通3丁目,174_01,中島通3丁目
175_01,新緑通23条,175_01,新緑通23条
175_02,新緑通23条,175_01,新緑通23条
176_01,西22条4丁目,176_01,西22条4丁目
176_02,西22条4丁目,176_01,西22条4丁目
177_01,新緑通22条,177_01,新緑通22条
177_02,新緑通22条,177_01,新緑通22条
178_01,新緑通公住前,178_01,新緑通公住前
178_02,新緑通公住前,178_01,新緑通公住前
179_01,新緑通21条,179_01,新緑通21条
179_02,新緑通21条,179_01,新緑通21条
180_01,新緑通20条,180_01,新緑通20条
180_02,新緑通20条,180_01,新緑通20条
181_01,西20条4丁目,181_01,西20条4丁目
181_02,西20条4丁目,181_01,西20条4丁目
182_01,大谷高校前,182_01,大谷高校前
182_02,大谷高校前,182_01,大谷高校前
183_01,西18条4丁目,183_01,西18条4丁目
183_02,西18条4丁目,183_01,西18条4丁目
184_01,新緑通18条,184_01,新緑通18条
184_02,新緑通18条,184_01,新緑通18条
185_01,西17条4丁目,185_01,西17条4丁目
185_02,西17条4丁目,185_01,西17条4丁目
186_01,新緑通17条,186_01,新緑通17条
186_02,新緑通17条,186_01,新緑通17条
187_01,西16条4丁目,187_01,西16条4丁目
187_02,西16条4丁目,187_01,西16条4丁目
188_01,新緑通16条,188_01,新緑通16条
188_02,新緑通16条,188_01,新緑通16条
189_01,西15条13丁目,189_01,西15条13丁目
189_02,西15条13丁目,189_01,西15条13丁目
190_01,西14条13丁目,190_01,西14条13丁目
190_02,西14条13丁目,190_01,西14条13丁目
191_01,西12条13丁目,191_01,西12条13丁目
191_02,西12条13丁目,191_01,西12条13丁目
192_01,西10条13丁目,192_01,西10条13丁目
192_02,西10条13丁目,192_01,西10条13丁目
193_01,鉄南保育園前,193_01,鉄南保育園前
193_02,鉄南保育園前,193_01,鉄南保育園前
194_01,西7条13丁目,194_01,西7条13丁目
194_02,西7条13丁目,194_01,西7条13丁目
195_01,すずらん橋,195_01,すずらん橋
195_02,すずらん橋,195_01,すずらん橋
196_01,木野大通8丁目,196_01,木野大通8丁目
196_02,木野大通8丁目,196_01,木野大通8丁目
197_01,木野大通12丁目,197_01,木野大通12丁目
197_02,木野大通12丁目,197_01,木野大通12丁目
198_01,木野大通14丁目,198_01,木野大通14丁目
198_02,木野大通14丁目,198_01,木野大通14丁目
199_01,木野大通15丁目,199_01,木野大通15丁目
199_02,木野大通15丁目,199_01,木野大通15丁目
200_01,木野大通16丁目,200_01,木野大通16丁目
200_02,木野大通16丁目,200_01,木野大通16丁目
200_03,木野大通16丁目,200_01,木野大通16丁目
200_04,木野大通16丁目,200_01,木野大通16丁目
201_01,柳町小学校前,201_01,柳町小学校前
201_02,柳町小学校前,201_01,柳町小学校前
202_01,柳町南区,202_01,柳町南区
202_02,柳町南区,202_01,柳町南区
203_01,柳町団地,203_01,柳町団地
203_02,柳町団地,203_01,柳町団地
204_01,柳町北区,204_01,柳町北区
204_02,柳町北区,204_01,柳町北区
205_01,柳町公住前,205_01,柳町公住前
205_02,柳町公住前,205_01,柳町公住前
206_01,柳町工業団地前,206_01,柳町工業団地前
206_02,柳町工業団地前,206_01,柳町工業団地前
207_01,よつ葉乳業東口,207_01,よつ葉乳業東口
207_02,よつ葉乳業東口,207_01,よつ葉乳業東口
208_01,音更東通18丁目,208_01,音更東通18丁目
208_02,音更東通18丁目,208_01,音更東通18丁目
209_01,森林組合前,209_01,森林組合前
209_02,森林組合前,209_01,森林組合前
210_01,音更更葉園前,210_01,音更更葉園前
210_02,音更更葉園前,210_01,音更更葉園前
211_01,音更梢公住前,211_01,音更梢公住前
211_02,音更梢公住前,211_01,音更梢公住前
212_01,音更花園通,212_01,音更花園通
212_02,音更花園通,212_01,音更花園通
213_01,音更新通11丁目,213_01,音更新通11丁目
213_02,音更新通11丁目,213_01,音更新通11丁目
213_03,音更新通11丁目,213_01,音更新通11丁目
213_04,音更新通11丁目,213_01,音更新通11丁目
214_01,音更役場前,214_01,音更役場前
214_02,音更役場前,214_01,音更役場前
215_01,音更小学校前,215_01,音更小学校前
215_02,音更小学校前,215_01,音更小学校前
216_01,プロスパ6,216_01,プロスパ6
216_02,プロスパ6,216_01,プロスパ6
217_01,音更大通４丁目,217_01,音更大通４丁目
217_02,音更大通４丁目,217_01,音更大通４丁目
218_01,音更大通1丁目,218_01,音更大通1丁目
218_02,音更大通1丁目,218_01,音更大通1丁目
219_01,音更北陽台,219_01,音更北陽台
219_02,音更北陽台,219_01,音更北陽台
220_01,音更桜ヶ丘西,220_01,音更桜ヶ丘西
220_02,音更桜ヶ丘西,220_01,音更桜ヶ丘西
221_01,音更桜ヶ丘,221_01,音更桜ヶ丘
223_01,白樺通21条,223_01,白樺通21条
223_02,白樺通21条,223_01,白樺通21条
224_01,西21条2丁目,224_01,西21条2丁目
224_02,西21条2丁目,224_01,西21条2丁目
224_03,西21条2丁目,224_01,西21条2丁目
224_04,西21条2丁目,224_01,西21条2丁目
225_01,白樺通20条,225_01,白樺通20条
225_02,白樺通20条,225_01,白樺通20条
226_01,西20条2丁目,226_01,西20条2丁目
226_02,西20条2丁目,226_01,西20条2丁目
227_01,白樺通19条,227_01,白樺通19条
227_02,白樺通19条,227_01,白樺通19条
228_01,西19条2丁目,228_01,西19条2丁目
228_02,西19条2丁目,228_01,西19条2丁目
229_01,白樺通18条,229_01,白樺通18条
229_02,白樺通18条,229_01,白樺通18条
230_01,西18条2丁目,230_01,西18条2丁目
230_02,西18条2丁目,230_01,西18条2丁目
230_03,西18条2丁目,230_01,西18条2丁目
231_01,柏林台南町2丁目,231_01,柏林台南町2丁目
231_02,柏林台南町2丁目,231_01,柏林台南町2丁目
232_01,柏林台南町1丁目,232_01,柏林台南町1丁目
232_02,柏林台南町1丁目,232_01,柏林台南町1丁目
233_01,白樺通16条,233_01,白樺通16条
233_02,白樺通16条,233_01,白樺通16条
234_01,西15条9丁目,234_01,西15条9丁目
234_02,西15条9丁目,234_01,西15条9丁目
235_01,帯広厚生病院前,235_01,帯広厚生病院前
236_01,帯広競馬場前,236_01,帯広競馬場前
236_02,帯広競馬場前,236_01,帯広競馬場前
237_01,西11条9丁目,237_01,西11条9丁目
237_02,西11条9丁目,237_01,西11条9丁目
238_01,西9条9丁目,238_01,西9条9丁目
238_02,西9条9丁目,238_01,西9条9丁目
239_01,西7条9丁目,239_01,西7条9丁目
239_02,西7条9丁目,239_01,西7条9丁目
240_01,大通11丁目,240_01,大通11丁目
240_02,大通11丁目,240_01,大通11丁目
241_01,東2条11丁目,241_01,東2条11丁目
241_02,東2条11丁目,241_01,東2条11丁目
242_01,東4条11丁目,242_01,東4条11丁目
242_02,東4条11丁目,242_01,東4条11丁目
243_01,東4条14丁目,243_01,東4条14丁目
243_02,東4条14丁目,243_01,東4条14丁目
244_01,東4条16丁目,244_01,東4条16丁目
244_02,東4条16丁目,244_01,東4条16丁目
245_01,東4条18丁目,245_01,東4条18丁目
245_02,東4条18丁目,245_01,東4条18丁目
246_01,光南校前,246_01,光南校前
246_02,光南校前,246_01,光南校前
247_01,東4条22丁目,247_01,東4条22丁目
247_02,東4条22丁目,247_01,東4条22丁目
248_01,東4条24丁目,248_01,東4条24丁目
248_02,東4条24丁目,248_01,東4条24丁目
249_01,東3条24丁目,249_01,東3条24丁目
249_02,東3条24丁目,249_01,東3条24丁目
250_01,東2条24丁目,250_01,東2条24丁目
250_02,東2条24丁目,250_01,東2条24丁目
251_01,東2条26丁目,251_01,東2条26丁目
251_02,東2条26丁目,251_01,東2条26丁目
252_01,大通26丁目,252_01,大通26丁目
252_02,大通26丁目,252_01,大通26丁目
253_01,西3条26丁目,253_01,西3条26丁目
253_02,西3条26丁目,253_01,西3条26丁目
254_01,川西3号,254_01,川西3号
254_02,川西3号,254_01,川西3号
1054_01,東校前,1054_01,東校前
256_01,西5条30丁目,256_01,西5条30丁目
256_02,西5条30丁目,256_01,西5条30丁目
257_01,西5条南橋,257_01,西5条南橋
257_02,西5条南橋,257_01,西5条南橋
258_01,西5条34丁目,258_01,西5条34丁目
258_02,西5条34丁目,258_01,西5条34丁目
259_01,イトーヨーカドー入口,259_01,イトーヨーカドー入口
259_02,イトーヨーカドー入口,259_01,イトーヨーカドー入口
260_01,北高．北斗病院前,260_01,北高．北斗病院前
260_02,北高．北斗病院前,260_01,北高．北斗病院前
261_01,工業高校前,261_01,工業高校前
261_02,工業高校前,261_01,工業高校前
262_01,稲田2号通,262_01,稲田2号通
262_02,稲田2号通,262_01,稲田2号通
263_01,川西2号,263_01,川西2号
263_02,川西2号,263_01,川西2号
264_01,帯広記念病院入口,264_01,帯広記念病院入口
264_02,帯広記念病院入口,264_01,帯広記念病院入口
265_01,西4条39丁目,265_01,西4条39丁目
265_02,西4条39丁目,265_01,西4条39丁目
266_01,大通34丁目,16_01,大通34丁目
266_02,大通34丁目,16_01,大通34丁目
267_01,大通31丁目,267_01,大通31丁目
267_02,大通31丁目,267_01,大通31丁目
268_01,大通南橋,268_01,大通南橋
268_02,大通南橋,268_01,大通南橋
269_01,大通25丁目,269_01,大通25丁目
269_02,大通25丁目,269_01,大通25丁目
270_01,大通24丁目,270_01,大通24丁目
270_02,大通24丁目,270_01,大通24丁目
271_01,大通22丁目,271_01,大通22丁目
271_02,大通22丁目,271_01,大通22丁目
272_01,大通18丁目,272_01,大通18丁目
272_02,大通18丁目,272_01,大通18丁目
273_01,大通16丁目,273_01,大通16丁目
273_02,大通16丁目,273_01,大通16丁目
274_01,帯広市役所前,274_01,帯広市役所前
274_02,帯広市役所前,274_01,帯広市役所前
275_01,西4条6丁目,275_01,西4条6丁目
275_02,西4条6丁目,275_01,西4条6丁目
277_01,大通6丁目,277_01,大通6丁目
277_02,大通6丁目,277_01,大通6丁目
278_01,東2条6丁目,278_01,東2条6丁目
278_02,東2条6丁目,278_01,東2条6丁目
279_01,東3条6丁目,279_01,東3条6丁目
279_02,東3条6丁目,279_01,東3条6丁目
280_01,東5条6丁目,280_01,東5条6丁目
280_02,東5条6丁目,280_01,東5条6丁目
281_01,東7条6丁目,281_01,東7条6丁目
281_02,東7条6丁目,281_01,東7条6丁目
282_01,東9条6丁目,282_01,東9条6丁目
282_02,東9条6丁目,282_01,東9条6丁目
283_01,東10条,283_01,東10条
283_02,東10条,283_01,東10条
284_01,東12条,284_01,東12条
284_02,東12条,284_01,東12条
285_01,東13条,285_01,東13条
286_01,養護学校前,286_01,養護学校前
286_02,養護学校前,286_01,養護学校前
287_01,共愛団地,287_01,共愛団地
287_02,共愛団地,287_01,共愛団地
288_01,西24条3丁目,288_01,西24条3丁目
288_02,西24条3丁目,288_01,西24条3丁目
289_01,つつじが丘霊園前,289_01,つつじが丘霊園前
289_02,つつじが丘霊園前,289_01,つつじが丘霊園前
290_01,西24条4丁目,290_01,西24条4丁目
290_02,西24条4丁目,290_01,西24条4丁目
291_01,つつじが丘小学校前,291_01,つつじが丘小学校前
291_02,つつじが丘小学校前,291_01,つつじが丘小学校前
292_01,札内6号,292_01,札内6号
292_02,札内6号,292_01,札内6号
293_01,札内8号,293_01,札内8号
293_02,札内8号,293_01,札内8号
294_01,札内,294_01,札内
294_02,札内,294_01,札内
295_01,札内支所前,295_01,札内支所前
295_02,札内支所前,295_01,札内支所前
296_01,札内西春日,296_01,札内西春日
296_02,札内西春日,296_01,札内西春日
297_01,札内春日団地,297_01,札内春日団地
297_02,札内春日団地,297_01,札内春日団地
298_01,札内東春日,298_01,札内東春日
298_02,札内東春日,298_01,札内東春日
299_01,札内東中学校前,299_01,札内東中学校前
299_02,札内東中学校前,299_01,札内東中学校前
300_01,白人小学校前,300_01,白人小学校前
300_02,白人小学校前,300_01,白人小学校前
301_01,幕別百年記念ホール前,301_01,幕別百年記念ホール前
301_02,幕別百年記念ホール前,301_01,幕別百年記念ホール前
302_01,十勝の杜病院前,302_01,十勝の杜病院前
302_02,十勝の杜病院前,302_01,十勝の杜病院前
303_01,幕別12号,303_01,幕別12号
303_02,幕別12号,303_01,幕別12号
304_01,幕別13号,304_01,幕別13号
304_02,幕別13号,304_01,幕別13号
305_01,幕別14号,305_01,幕別14号
305_02,幕別14号,305_01,幕別14号
306_01,幕別考古館前,306_01,幕別考古館前
306_02,幕別考古館前,306_01,幕別考古館前
307_01,幕別16号,307_01,幕別16号
307_02,幕別16号,307_01,幕別16号
308_01,幕別17号,308_01,幕別17号
308_02,幕別17号,308_01,幕別17号
309_01,幕別18号,309_01,幕別18号
309_02,幕別18号,309_01,幕別18号
310_01,幕別19号,310_01,幕別19号
310_02,幕別19号,310_01,幕別19号
311_01,幕別20号,311_01,幕別20号
311_02,幕別20号,311_01,幕別20号
312_01,幕別21号,312_01,幕別21号
312_02,幕別21号,312_01,幕別21号
313_01,幕別22号,313_01,幕別22号
313_02,幕別22号,313_01,幕別22号
314_01,幕別本町,314_01,幕別本町
314_02,幕別本町,314_01,幕別本町
315_01,幕別十字街,315_01,幕別十字街
315_02,幕別十字街,315_01,幕別十字街
316_01,幕別駅前,316_01,幕別駅前
317_01,幕別東1条,317_01,幕別東1条
317_02,幕別東1条,317_01,幕別東1条
318_01,幕別幸町,318_01,幕別幸町
318_02,幕別幸町,318_01,幕別幸町
319_01,幕別旭町,319_01,幕別旭町
319_02,幕別旭町,319_01,幕別旭町
320_01,明野工業団地,320_01,明野工業団地
320_02,明野工業団地,320_01,明野工業団地
321_01,明野26号,321_01,明野26号
321_02,明野26号,321_01,明野26号
322_01,明野27号,322_01,明野27号
322_02,明野27号,322_01,明野27号
323_01,利別28号,323_01,利別28号
323_02,利別28号,323_01,利別28号
324_01,利別29号,324_01,利別29号
324_02,利別29号,324_01,利別29号
325_01,利別30号,325_01,利別30号
325_02,利別30号,325_01,利別30号
326_01,利別31号,326_01,利別31号
326_02,利別31号,326_01,利別31号
327_01,利別32号,327_01,利別32号
327_02,利別32号,327_01,利別32号
328_01,利別33号,328_01,利別33号
328_02,利別33号,328_01,利別33号
329_01,利別,329_01,利別
329_02,利別,329_01,利別
330_01,利別三番通り,330_01,利別三番通り
330_02,利別三番通り,330_01,利別三番通り
331_01,池田いきがいセンター前,331_01,池田いきがいセンター前
331_02,池田いきがいセンター前,331_01,池田いきがいセンター前
332_01,池田小学校前,332_01,池田小学校前
332_02,池田小学校前,332_01,池田小学校前
333_01,池田役場前,333_01,池田役場前
333_02,池田役場前,333_01,池田役場前
334_01,池田大通6丁目,334_01,池田大通6丁目
334_02,池田大通6丁目,334_01,池田大通6丁目
335_01,池田大通4丁目,335_01,池田大通4丁目
335_02,池田大通4丁目,335_01,池田大通4丁目
336_01,池田大通2丁目,336_01,池田大通2丁目
336_02,池田大通2丁目,336_01,池田大通2丁目
337_01,池田駅前,337_01,池田駅前
338_01,池田総合体育館前,338_01,池田総合体育館前
338_02,池田総合体育館前,338_01,池田総合体育館前
339_01,十勝いけだ地域医療センター前,339_01,十勝いけだ地域医療センター前
339_02,十勝いけだ地域医療センター前,339_01,十勝いけだ地域医療センター前
340_01,池田西1条8丁目,340_01,池田西1条8丁目
340_02,池田西1条8丁目,340_01,池田西1条8丁目
341_01,池田西1条10丁目,341_01,池田西1条10丁目
341_02,池田西1条10丁目,341_01,池田西1条10丁目
342_01,池田西1条11丁目,342_01,池田西1条11丁目
342_02,池田西1条11丁目,342_01,池田西1条11丁目
343_01,清見神社前,343_01,清見神社前
343_02,清見神社前,343_01,清見神社前
344_01,様舞１線,344_01,様舞１線
344_02,様舞１線,344_01,様舞１線
345_01,様舞,345_01,様舞
345_02,様舞,345_01,様舞
346_01,近牛７線,346_01,近牛７線
346_02,近牛７線,346_01,近牛７線
347_01,近牛コミセン前,347_01,近牛コミセン前
347_02,近牛コミセン前,347_01,近牛コミセン前
348_01,高島郵便局前,348_01,高島郵便局前
348_02,高島郵便局前,348_01,高島郵便局前
349_01,高島,349_01,高島
349_02,高島,349_01,高島
350_01,大森3線,350_01,大森3線
350_02,大森3線,350_01,大森3線
351_01,大森5線,351_01,大森5線
351_02,大森5線,351_01,大森5線
352_01,大森6線,352_01,大森6線
352_02,大森6線,352_01,大森6線
353_01,大森9線,353_01,大森9線
353_02,大森9線,353_01,大森9線
354_01,勇足10線,354_01,勇足10線
354_02,勇足10線,354_01,勇足10線
355_01,勇足13線,355_01,勇足13線
355_02,勇足13線,355_01,勇足13線
356_01,勇足小学校前,356_01,勇足小学校前
356_02,勇足小学校前,356_01,勇足小学校前
357_01,勇足,357_01,勇足
357_02,勇足,357_01,勇足
358_01,勇愛団地前,358_01,勇愛団地前
358_02,勇愛団地前,358_01,勇愛団地前
359_01,勇足17線,359_01,勇足17線
359_02,勇足17線,359_01,勇足17線
360_01,勇足19線,360_01,勇足19線
360_02,勇足19線,360_01,勇足19線
361_01,北糖工場前,361_01,北糖工場前
361_02,北糖工場前,361_01,北糖工場前
362_01,北糖社宅前,362_01,北糖社宅前
362_02,北糖社宅前,362_01,北糖社宅前
363_01,共栄23線,363_01,共栄23線
363_02,共栄23線,363_01,共栄23線
364_01,共栄24線,364_01,共栄24線
364_02,共栄24線,364_01,共栄24線
365_01,共栄26線,365_01,共栄26線
365_02,共栄26線,365_01,共栄26線
366_01,岡女堂本家前,366_01,岡女堂本家前
366_02,岡女堂本家前,366_01,岡女堂本家前
367_01,真経寺,367_01,真経寺
367_02,真経寺,367_01,真経寺
368_01,本別南2丁目,368_01,本別南2丁目
368_02,本別南2丁目,368_01,本別南2丁目
369_01,本別南1丁目,369_01,本別南1丁目
369_02,本別南1丁目,369_01,本別南1丁目
370_01,本別北2丁目,370_01,本別北2丁目
370_02,本別北2丁目,370_01,本別北2丁目
371_01,本別,371_01,本別
372_01,本別北6丁目,372_01,本別北6丁目
372_02,本別北6丁目,372_01,本別北6丁目
373_01,本別北8丁目,373_01,本別北8丁目
373_02,本別北8丁目,373_01,本別北8丁目
374_01,上本別,374_01,上本別
374_02,上本別,374_01,上本別
375_01,上本別生活館前,375_01,上本別生活館前
375_02,上本別生活館前,375_01,上本別生活館前
376_01,仙美里39線,376_01,仙美里39線
376_02,仙美里39線,376_01,仙美里39線
377_01,フラツナイ,377_01,フラツナイ
377_02,フラツナイ,377_01,フラツナイ
378_01,仙美里23号,378_01,仙美里23号
378_02,仙美里23号,378_01,仙美里23号
379_01,仙美里小学校前,379_01,仙美里小学校前
379_02,仙美里小学校前,379_01,仙美里小学校前
380_01,仙美里,380_01,仙美里
381_01,仙美里保育所前,381_01,仙美里保育所前
381_02,仙美里保育所前,381_01,仙美里保育所前
382_01,仙美里橋,382_01,仙美里橋
382_02,仙美里橋,382_01,仙美里橋
383_01,明美入口,383_01,明美入口
383_02,明美入口,383_01,明美入口
384_01,下足寄,384_01,下足寄
384_02,下足寄,384_01,下足寄
385_01,足寄郊南コミセン前,385_01,足寄郊南コミセン前
385_02,足寄郊南コミセン前,385_01,足寄郊南コミセン前
386_01,足寄郊南1丁目,386_01,足寄郊南1丁目
386_02,足寄郊南1丁目,386_01,足寄郊南1丁目
387_01,足寄化石博物館,387_01,足寄化石博物館
387_02,足寄化石博物館,387_01,足寄化石博物館
388_01,足寄南7条,388_01,足寄南7条
388_02,足寄南7条,388_01,足寄南7条
389_01,足寄南6条,389_01,足寄南6条
389_02,足寄南6条,389_01,足寄南6条
390_01,足寄農協前,390_01,足寄農協前
390_02,足寄農協前,390_01,足寄農協前
391_01,足寄,391_01,足寄
392_01,足寄北５区,392_01,足寄北５区
392_02,足寄北５区,392_01,足寄北５区
393_01,下愛冠団地,393_01,下愛冠団地
393_02,下愛冠団地,393_01,下愛冠団地
394_01,足寄土木現業所前,394_01,足寄土木現業所前
394_02,足寄土木現業所前,394_01,足寄土木現業所前
395_01,愛冠,395_01,愛冠
395_02,愛冠,395_01,愛冠
396_01,足寄西１線,396_01,足寄西１線
396_02,足寄西１線,396_01,足寄西１線
397_01,塩幌,397_01,塩幌
397_02,塩幌,397_01,塩幌
398_01,上利別,398_01,上利別
398_02,上利別,398_01,上利別
399_01,笹森,399_01,笹森
399_02,笹森,399_01,笹森
400_01,斗伏,400_01,斗伏
400_02,斗伏,400_01,斗伏
401_01,大誉地,401_01,大誉地
401_02,大誉地,401_01,大誉地
402_01,薫別伏古丹,402_01,薫別伏古丹
402_02,薫別伏古丹,402_01,薫別伏古丹
403_01,陸別関,403_01,陸別関
403_02,陸別関,403_01,陸別関
404_01,陸別新町,404_01,陸別新町
404_02,陸別新町,404_01,陸別新町
405_01,陸別,405_01,陸別
406_01,中島通4丁目,406_01,中島通4丁目
406_02,中島通4丁目,406_01,中島通4丁目
407_01,西8条34丁目,407_01,西8条34丁目
407_02,西8条34丁目,407_01,西8条34丁目
408_01,稲田橋,408_01,稲田橋
408_02,稲田橋,408_01,稲田橋
409_01,十勝リハビリテーションセンター前,409_01,十勝リハビリテーションセンター前
409_02,十勝リハビリテーションセンター前,409_01,十勝リハビリテーションセンター前
410_01,西12条40丁目,410_01,西12条40丁目
410_02,西12条40丁目,410_01,西12条40丁目
411_01,工業高校正門前,411_01,工業高校正門前
411_02,工業高校正門前,411_01,工業高校正門前
412_01,清流西３丁目,412_01,清流西３丁目
412_02,清流西３丁目,412_01,清流西３丁目
1055_01,西町3丁目,1055_01,西町3丁目
1056_01,西町2丁目,1056_01,西町2丁目
415_01,川西5号,415_01,川西5号
415_02,川西5号,415_01,川西5号
416_01,川西6号,416_01,川西6号
416_02,川西6号,416_01,川西6号
417_01,川西7号,417_01,川西7号
417_02,川西7号,417_01,川西7号
418_01,川西8号,418_01,川西8号
418_02,川西8号,418_01,川西8号
419_01,川西,18_01,川西
419_02,川西,18_01,川西
420_01,愛国,420_01,愛国
420_02,愛国,420_01,愛国
421_01,愛国入口,19_01,愛国入口
421_02,愛国入口,19_01,愛国入口
422_01,大正9号,422_01,大正9号
422_02,大正9号,422_01,大正9号
423_01,大正10号,423_01,大正10号
423_02,大正10号,423_01,大正10号
424_01,大正11号,424_01,大正11号
424_02,大正11号,424_01,大正11号
425_01,大正12号,425_01,大正12号
425_02,大正12号,425_01,大正12号
426_01,大正13号,426_01,大正13号
426_02,大正13号,426_01,大正13号
427_01,大正14号,427_01,大正14号
427_02,大正14号,427_01,大正14号
428_01,大正15号,428_01,大正15号
428_02,大正15号,428_01,大正15号
429_01,大正16号,429_01,大正16号
429_02,大正16号,429_01,大正16号
430_01,大正17号,430_01,大正17号
430_02,大正17号,430_01,大正17号
431_01,大正本町,20_01,大正本町
431_02,大正本町,20_01,大正本町
432_01,大正,432_01,大正
432_02,大正,432_01,大正
433_01,大正18号,433_01,大正18号
433_02,大正18号,433_01,大正18号
434_01,大正19号,434_01,大正19号
434_02,大正19号,434_01,大正19号
435_01,大正20号,435_01,大正20号
435_02,大正20号,435_01,大正20号
436_01,大正21号,436_01,大正21号
436_02,大正21号,436_01,大正21号
437_01,大正22号,437_01,大正22号
437_02,大正22号,437_01,大正22号
438_01,大正23号,438_01,大正23号
438_02,大正23号,438_01,大正23号
439_01,大正24号,439_01,大正24号
439_02,大正24号,439_01,大正24号
440_01,大正25号,440_01,大正25号
440_02,大正25号,440_01,大正25号
441_01,大正26号,441_01,大正26号
441_02,大正26号,441_01,大正26号
442_01,大正27号,442_01,大正27号
442_02,大正27号,442_01,大正27号
443_01,幸福,443_01,幸福
443_02,幸福,443_01,幸福
444_01,大正29号,444_01,大正29号
444_02,大正29号,444_01,大正29号
445_01,大正30号,445_01,大正30号
445_02,大正30号,445_01,大正30号
446_01,中札内31号,446_01,中札内31号
446_02,中札内31号,446_01,中札内31号
447_01,中札内32号,447_01,中札内32号
447_02,中札内32号,447_01,中札内32号
448_01,中札内33号,448_01,中札内33号
448_02,中札内33号,448_01,中札内33号
449_01,中札内34号,449_01,中札内34号
449_02,中札内34号,449_01,中札内34号
450_01,中札内35号,450_01,中札内35号
450_02,中札内35号,450_01,中札内35号
451_01,中札内北8丁目,451_01,中札内北8丁目
451_02,中札内北8丁目,451_01,中札内北8丁目
452_01,中札内北6丁目,452_01,中札内北6丁目
452_02,中札内北6丁目,452_01,中札内北6丁目
453_01,中札内北4丁目,453_01,中札内北4丁目
453_02,中札内北4丁目,453_01,中札内北4丁目
454_01,中札内北2丁目,454_01,中札内北2丁目
454_02,中札内北2丁目,454_01,中札内北2丁目
455_01,中札内消防署前,455_01,中札内消防署前
455_02,中札内消防署前,455_01,中札内消防署前
456_01,中札内,456_01,中札内
456_02,中札内,456_01,中札内
457_01,中札内南4丁目,457_01,中札内南4丁目
457_02,中札内南4丁目,457_01,中札内南4丁目
458_01,道の駅なかさつない,458_01,道の駅なかさつない
458_02,道の駅なかさつない,458_01,道の駅なかさつない
459_01,中札内東1線,459_01,中札内東1線
459_02,中札内東1線,459_01,中札内東1線
460_01,中札内東2線,460_01,中札内東2線
460_02,中札内東2線,460_01,中札内東2線
461_01,中札内東3線,461_01,中札内東3線
461_02,中札内東3線,461_01,中札内東3線
462_01,中札内東4線,462_01,中札内東4線
462_02,中札内東4線,462_01,中札内東4線
463_01,中札内美術村,463_01,中札内美術村
463_02,中札内美術村,463_01,中札内美術村
464_01,更別北3線,464_01,更別北3線
464_02,更別北3線,464_01,更別北3線
465_01,更別北2線,465_01,更別北2線
465_02,更別北2線,465_01,更別北2線
466_01,更別北1線,466_01,更別北1線
466_02,更別北1線,466_01,更別北1線
467_01,更別農業高校前,467_01,更別農業高校前
467_02,更別農業高校前,467_01,更別農業高校前
468_01,更別市街入口,468_01,更別市街入口
468_02,更別市街入口,468_01,更別市街入口
469_01,更別さらパーク前,469_01,更別さらパーク前
469_02,更別さらパーク前,469_01,更別さらパーク前
470_01,更別街なか交流館ma・na・ｃa前,470_01,更別街なか交流館ma・na・ｃa前
470_02,更別街なか交流館ma・na・ｃa前,470_01,更別街なか交流館ma・na・ｃa前
471_01,更別,471_01,更別
471_02,更別,471_01,更別
472_01,更別神社前,472_01,更別神社前
472_02,更別神社前,472_01,更別神社前
473_01,更別国保診療所前,473_01,更別国保診療所前
473_02,更別国保診療所前,473_01,更別国保診療所前
474_01,更別南3線,474_01,更別南3線
474_02,更別南3線,474_01,更別南3線
475_01,更別南4線,475_01,更別南4線
475_02,更別南4線,475_01,更別南4線
476_01,更別どんぐり公園前,476_01,更別どんぐり公園前
476_02,更別どんぐり公園前,476_01,更別どんぐり公園前
477_01,更別南6線,477_01,更別南6線
477_02,更別南6線,477_01,更別南6線
478_01,更別南9線,478_01,更別南9線
478_02,更別南9線,478_01,更別南9線
479_01,更別南10線,479_01,更別南10線
479_02,更別南10線,479_01,更別南10線
480_01,更別南11線,480_01,更別南11線
480_02,更別南11線,480_01,更別南11線
481_01,更別南12線,481_01,更別南12線
481_02,更別南12線,481_01,更別南12線
482_01,上更別,482_01,上更別
482_02,上更別,482_01,上更別
483_01,上更別33号,483_01,上更別33号
483_02,上更別33号,483_01,上更別33号
484_01,十勝協和,484_01,十勝協和
484_02,十勝協和,484_01,十勝協和
485_01,高台,485_01,高台
485_02,高台,485_01,高台
486_01,忠類二股,486_01,忠類二股
486_02,忠類二股,486_01,忠類二股
487_01,忠類総合支所入口,487_01,忠類総合支所入口
487_02,忠類総合支所入口,487_01,忠類総合支所入口
488_01,白銀台入口,488_01,白銀台入口
488_02,白銀台入口,488_01,白銀台入口
489_01,忠類,489_01,忠類
490_01,ナウマン象記念館前,490_01,ナウマン象記念館前
490_02,ナウマン象記念館前,490_01,ナウマン象記念館前
491_01,上当縁,491_01,上当縁
491_02,上当縁,491_01,上当縁
492_01,忠類北4線,492_01,忠類北4線
492_02,忠類北4線,492_01,忠類北4線
493_01,大樹北3線,493_01,大樹北3線
493_02,大樹北3線,493_01,大樹北3線
494_01,大樹北1線,494_01,大樹北1線
494_02,大樹北1線,494_01,大樹北1線
495_01,下大樹基線,495_01,下大樹基線
495_02,下大樹基線,495_01,下大樹基線
496_01,大樹南1線,496_01,大樹南1線
496_02,大樹南1線,496_01,大樹南1線
497_01,大樹柏木町,497_01,大樹柏木町
497_02,大樹柏木町,497_01,大樹柏木町
498_01,大樹本町,498_01,大樹本町
498_02,大樹本町,498_01,大樹本町
499_01,大樹西本通り,499_01,大樹西本通り
499_02,大樹西本通り,499_01,大樹西本通り
500_01,大樹コスモール前,500_01,大樹コスモール前
501_01,大樹雪印前,501_01,大樹雪印前
501_02,大樹雪印前,501_01,大樹雪印前
502_01,大樹鏡町,502_01,大樹鏡町
502_02,大樹鏡町,502_01,大樹鏡町
503_01,大樹麻友,503_01,大樹麻友
503_02,大樹麻友,503_01,大樹麻友
504_01,大樹8線,504_01,大樹8線
504_02,大樹8線,504_01,大樹8線
505_01,大樹開進,505_01,大樹開進
505_02,大樹開進,505_01,大樹開進
506_01,石坂17号,506_01,石坂17号
506_02,石坂17号,506_01,石坂17号
507_01,石坂,507_01,石坂
507_02,石坂,507_01,石坂
508_01,紋別入口,508_01,紋別入口
508_02,紋別入口,508_01,紋別入口
509_01,豊似11線,509_01,豊似11線
509_02,豊似11線,509_01,豊似11線
510_01,豊似13線,510_01,豊似13線
510_02,豊似13線,510_01,豊似13線
511_01,豊似15線,511_01,豊似15線
511_02,豊似15線,511_01,豊似15線
512_01,豊似16線,512_01,豊似16線
512_02,豊似16線,512_01,豊似16線
513_01,豊似17線,513_01,豊似17線
513_02,豊似17線,513_01,豊似17線
514_01,豊似,514_01,豊似
514_02,豊似,514_01,豊似
515_01,豊似消防前,515_01,豊似消防前
515_02,豊似消防前,515_01,豊似消防前
516_01,苗圃入口,516_01,苗圃入口
516_02,苗圃入口,516_01,苗圃入口
517_01,野塚3線,517_01,野塚3線
517_02,野塚3線,517_01,野塚3線
518_01,野塚4線,518_01,野塚4線
518_02,野塚4線,518_01,野塚4線
519_01,野塚5線,519_01,野塚5線
519_02,野塚5線,519_01,野塚5線
520_01,野塚6線,520_01,野塚6線
520_02,野塚6線,520_01,野塚6線
521_01,野塚7線,521_01,野塚7線
521_02,野塚7線,521_01,野塚7線
522_01,野塚8線,522_01,野塚8線
522_02,野塚8線,522_01,野塚8線
523_01,野塚,523_01,野塚
523_02,野塚,523_01,野塚
524_01,野塚9線,524_01,野塚9線
524_02,野塚9線,524_01,野塚9線
525_01,野塚10線,525_01,野塚10線
525_02,野塚10線,525_01,野塚10線
526_01,野塚11線,526_01,野塚11線
526_02,野塚11線,526_01,野塚11線
527_01,新生,527_01,新生
527_02,新生,527_01,新生
528_01,野塚13線,528_01,野塚13線
528_02,野塚13線,528_01,野塚13線
529_01,シーサイドパーク入口,529_01,シーサイドパーク入口
529_02,シーサイドパーク入口,529_01,シーサイドパーク入口
530_01,広尾並木通3丁目,530_01,広尾並木通3丁目
530_02,広尾並木通3丁目,530_01,広尾並木通3丁目
531_01,広尾並木通2丁目,531_01,広尾並木通2丁目
531_02,広尾並木通2丁目,531_01,広尾並木通2丁目
532_01,広尾開発前,532_01,広尾開発前
532_02,広尾開発前,532_01,広尾開発前
533_01,広尾高校前,533_01,広尾高校前
533_02,広尾高校前,533_01,広尾高校前
534_01,広尾,534_01,広尾
535_01,広尾国保病院前,535_01,広尾国保病院前
535_02,広尾国保病院前,535_01,広尾国保病院前
536_01,広尾小学校前,536_01,広尾小学校前
536_02,広尾小学校前,536_01,広尾小学校前
537_01,広尾桜ヶ丘団地前,537_01,広尾桜ヶ丘団地前
537_02,広尾桜ヶ丘団地前,537_01,広尾桜ヶ丘団地前
538_01,広尾丸山通2丁目,538_01,広尾丸山通2丁目
538_02,広尾丸山通2丁目,538_01,広尾丸山通2丁目
539_01,十勝神社前,539_01,十勝神社前
539_02,十勝神社前,539_01,十勝神社前
540_01,広尾本通10丁目,540_01,広尾本通10丁目
540_02,広尾本通10丁目,540_01,広尾本通10丁目
541_01,広尾本通7丁目,541_01,広尾本通7丁目
541_02,広尾本通7丁目,541_01,広尾本通7丁目
542_01,広尾商工会館前,542_01,広尾商工会館前
542_02,広尾商工会館前,542_01,広尾商工会館前
543_01,広尾西3条5丁目,543_01,広尾西3条5丁目
543_02,広尾西3条5丁目,543_01,広尾西3条5丁目
544_01,広尾役場前,544_01,広尾役場前
544_02,広尾役場前,544_01,広尾役場前
545_01,広尾車両センタ−前,545_01,広尾車両センタ−前
545_02,広尾車両センタ−前,545_01,広尾車両センタ−前
546_01,広尾紅葉通北1丁目,546_01,広尾紅葉通北1丁目
546_02,広尾紅葉通北1丁目,546_01,広尾紅葉通北1丁目
547_01,広尾営業所前,547_01,広尾営業所前
547_02,広尾営業所前,547_01,広尾営業所前
548_01,帯西幼稚園前,548_01,帯西幼稚園前
548_02,帯西幼稚園前,548_01,帯西幼稚園前
549_01,新緑第2団地前,549_01,新緑第2団地前
549_02,新緑第2団地前,549_01,新緑第2団地前
550_01,西23条4丁目,550_01,西23条4丁目
550_02,西23条4丁目,550_01,西23条4丁目
551_01,西22条5丁目,551_01,西22条5丁目
551_02,西22条5丁目,551_01,西22条5丁目
552_01,森の里小学校前,552_01,森の里小学校前
552_02,森の里小学校前,552_01,森の里小学校前
553_01,春駒通21条,553_01,春駒通21条
553_02,春駒通21条,553_01,春駒通21条
554_01,南商業高校前,554_01,南商業高校前
554_02,南商業高校前,554_01,南商業高校前
555_01,西20条5丁目,555_01,西20条5丁目
555_02,西20条5丁目,555_01,西20条5丁目
555_03,西20条5丁目,555_01,西20条5丁目
555_04,西20条5丁目,555_01,西20条5丁目
556_01,春駒通20条,556_01,春駒通20条
556_02,春駒通20条,556_01,春駒通20条
557_01,西19条5丁目,557_01,西19条5丁目
557_02,西19条5丁目,557_01,西19条5丁目
558_01,春駒通19条,558_01,春駒通19条
558_02,春駒通19条,558_01,春駒通19条
559_01,西18条5丁目,559_01,西18条5丁目
559_02,西18条5丁目,559_01,西18条5丁目
560_01,春駒通18条,560_01,春駒通18条
560_02,春駒通18条,560_01,春駒通18条
561_01,西17条5丁目,561_01,西17条5丁目
561_02,西17条5丁目,561_01,西17条5丁目
562_01,春駒通17条,562_01,春駒通17条
562_02,春駒通17条,562_01,春駒通17条
563_01,西16条5丁目,563_01,西16条5丁目
563_02,西16条5丁目,563_01,西16条5丁目
564_01,五中前,564_01,五中前
564_02,五中前,564_01,五中前
565_01,緑ヶ丘小学校前,565_01,緑ヶ丘小学校前
565_02,緑ヶ丘小学校前,565_01,緑ヶ丘小学校前
566_01,春駒通13条,566_01,春駒通13条
566_02,春駒通13条,566_01,春駒通13条
567_01,春駒通12条,567_01,春駒通12条
567_02,春駒通12条,567_01,春駒通12条
568_01,春駒通10条,568_01,春駒通10条
568_02,春駒通10条,568_01,春駒通10条
569_01,春駒通8条,569_01,春駒通8条
569_02,春駒通8条,569_01,春駒通8条
570_01,西１条９丁目,570_01,西１条９丁目
570_02,西１条９丁目,570_01,西１条９丁目
571_01,大通9丁目,571_01,大通9丁目
571_02,大通9丁目,571_01,大通9丁目
572_01,東2条9丁目,572_01,東2条9丁目
572_02,東2条9丁目,572_01,東2条9丁目
573_01,東4条9丁目,573_01,東4条9丁目
573_02,東4条9丁目,573_01,東4条9丁目
573_03,東4条9丁目,573_01,東4条9丁目
573_04,東4条9丁目,573_01,東4条9丁目
574_01,協会病院前,574_01,協会病院前
574_02,協会病院前,574_01,協会病院前
575_01,東7条9丁目,575_01,東7条9丁目
575_02,東7条9丁目,575_01,東7条9丁目
576_01,裁判所前,576_01,裁判所前
576_02,裁判所前,576_01,裁判所前
577_01,東9条9丁目,577_01,東9条9丁目
577_02,東9条9丁目,577_01,東9条9丁目
578_01,東10条9丁目,578_01,東10条9丁目
578_02,東10条9丁目,578_01,東10条9丁目
579_01,市民活動プラザ六中前,579_01,市民活動プラザ六中前
579_02,市民活動プラザ六中前,579_01,市民活動プラザ六中前
580_01,水光園前,580_01,水光園前
580_02,水光園前,580_01,水光園前
581_01,札内橋,581_01,札内橋
581_02,札内橋,581_01,札内橋
582_01,札内桜町西,582_01,札内桜町西
582_02,札内桜町西,582_01,札内桜町西
583_01,札内桜町中央,583_01,札内桜町中央
583_02,札内桜町中央,583_01,札内桜町中央
584_01,札内北町,584_01,札内北町
584_02,札内北町,584_01,札内北町
585_01,札内新北町,585_01,札内新北町
585_02,札内新北町,585_01,札内新北町
586_01,札内7号,586_01,札内7号
586_02,札内7号,586_01,札内7号
586_03,札内7号,586_01,札内7号
587_01,札内桂町,587_01,札内桂町
587_02,札内桂町,587_01,札内桂町
588_01,札内中学校前,588_01,札内中学校前
588_02,札内中学校前,588_01,札内中学校前
589_01,札内若草南,589_01,札内若草南
589_02,札内若草南,589_01,札内若草南
590_01,あかしや団地,590_01,あかしや団地
590_02,あかしや団地,590_01,あかしや団地
591_01,あかしや南2区,591_01,あかしや南2区
591_02,あかしや南2区,591_01,あかしや南2区
592_01,あかしや公住前,592_01,あかしや公住前
592_02,あかしや公住前,592_01,あかしや公住前
593_01,あかしや南1区,593_01,あかしや南1区
593_02,あかしや南1区,593_01,あかしや南1区
594_01,札内文京町,594_01,札内文京町
594_02,札内文京町,594_01,札内文京町
595_01,幕別老人福祉センター前,595_01,幕別老人福祉センター前
595_02,幕別老人福祉センター前,595_01,幕別老人福祉センター前
596_01,幕別温泉前,596_01,幕別温泉前
596_02,幕別温泉前,596_01,幕別温泉前
597_01,栄通3丁目,597_01,栄通3丁目
597_02,栄通3丁目,597_01,栄通3丁目
598_01,藤丸前,598_01,藤丸前
598_02,藤丸前,598_01,藤丸前
599_01,東4条10丁目,599_01,東4条10丁目
599_02,東4条10丁目,599_01,東4条10丁目
600_01,東6条11丁目,600_01,東6条11丁目
600_02,東6条11丁目,600_01,東6条11丁目
601_01,翔陽中学校前,601_01,翔陽中学校前
601_02,翔陽中学校前,601_01,翔陽中学校前
602_01,柏小学校前,602_01,柏小学校前
602_02,柏小学校前,602_01,柏小学校前
603_01,東9条11丁目,603_01,東9条11丁目
603_02,東9条11丁目,603_01,東9条11丁目
604_01,東10条11丁目,604_01,東10条11丁目
604_02,東10条11丁目,604_01,東10条11丁目
605_01,東10条13丁目,605_01,東10条13丁目
605_02,東10条13丁目,605_01,東10条13丁目
606_01,保健福祉センター前,606_01,保健福祉センター前
606_02,保健福祉センター前,606_01,保健福祉センター前
607_01,東8条16丁目,607_01,東8条16丁目
607_02,東8条16丁目,607_01,東8条16丁目
608_01,東8条19丁目,608_01,東8条19丁目
608_02,東8条19丁目,608_01,東8条19丁目
609_01,東8条20丁目,609_01,東8条20丁目
609_02,東8条20丁目,609_01,東8条20丁目
610_01,光南福祉センター前,610_01,光南福祉センター前
610_02,光南福祉センター前,610_01,光南福祉センター前
611_01,東5条20丁目,611_01,東5条20丁目
611_02,東5条20丁目,611_01,東5条20丁目
612_01,東3条20丁目,612_01,東3条20丁目
612_02,東3条20丁目,612_01,東3条20丁目
613_01,東1条20丁目,613_01,東1条20丁目
613_02,東1条20丁目,613_01,東1条20丁目
614_01,西2条20丁目,614_01,西2条20丁目
614_02,西2条20丁目,614_01,西2条20丁目
615_01,共愛東,615_01,共愛東
615_02,共愛東,615_01,共愛東
616_01,西24条2丁目,616_01,西24条2丁目
616_02,西24条2丁目,616_01,西24条2丁目
617_01,西25条2丁目,617_01,西25条2丁目
617_02,西25条2丁目,617_01,西25条2丁目
618_01,白樺通25条,618_01,白樺通25条
618_02,白樺通25条,618_01,白樺通25条
619_01,南2線16号,619_01,南2線16号
619_02,南2線16号,619_01,南2線16号
620_01,南2線17号,620_01,南2線17号
620_02,南2線17号,620_01,南2線17号
621_01,南2線18号,621_01,南2線18号
621_02,南2線18号,621_01,南2線18号
622_01,南2線19号,622_01,南2線19号
622_02,南2線19号,622_01,南2線19号
623_01,南2線20号,623_01,南2線20号
623_02,南2線20号,623_01,南2線20号
624_01,芽室高校前,624_01,芽室高校前
624_02,芽室高校前,624_01,芽室高校前
625_01,南2線22号,625_01,南2線22号
625_02,南2線22号,625_01,南2線22号
626_01,芽室東6条,626_01,芽室東6条
626_02,芽室東6条,626_01,芽室東6条
627_01,芽室東5条,627_01,芽室東5条
627_02,芽室東5条,627_01,芽室東5条
628_01,公立芽室病院入口,628_01,公立芽室病院入口
628_02,公立芽室病院入口,628_01,公立芽室病院入口
629_01,芽室東1条,629_01,芽室東1条
629_02,芽室東1条,629_01,芽室東1条
630_01,芽室駅前,630_01,芽室駅前
631_01,芽室本通3丁目,631_01,芽室本通3丁目
631_02,芽室本通3丁目,631_01,芽室本通3丁目
632_01,芽室愛生町,632_01,芽室愛生町
632_02,芽室愛生町,632_01,芽室愛生町
633_01,芽室西園町,633_01,芽室西園町
633_02,芽室西園町,633_01,芽室西園町
634_01,芽室泉町,634_01,芽室泉町
634_02,芽室泉町,634_01,芽室泉町
635_01,芽室西コミセン前,635_01,芽室西コミセン前
635_02,芽室西コミセン前,635_01,芽室西コミセン前
636_01,芽室緑町西,636_01,芽室緑町西
636_02,芽室緑町西,636_01,芽室緑町西
637_01,芽室緑町東,637_01,芽室緑町東
637_02,芽室緑町東,637_01,芽室緑町東
638_01,芽室神社前,638_01,芽室神社前
638_02,芽室神社前,638_01,芽室神社前
639_01,芽室総合体育館前,639_01,芽室総合体育館前
639_02,芽室総合体育館前,639_01,芽室総合体育館前
640_01,芽室東5条8丁目,640_01,芽室東5条8丁目
640_02,芽室東5条8丁目,640_01,芽室東5条8丁目
641_01,芽室東5条7丁目,641_01,芽室東5条7丁目
641_02,芽室東5条7丁目,641_01,芽室東5条7丁目
642_01,芽室東5条5丁目,642_01,芽室東5条5丁目
642_02,芽室東5条5丁目,642_01,芽室東5条5丁目
643_01,芽室東5条3丁目,643_01,芽室東5条3丁目
643_02,芽室東5条3丁目,643_01,芽室東5条3丁目
644_01,公立芽室病院前,644_01,公立芽室病院前
644_02,公立芽室病院前,644_01,公立芽室病院前
645_01,芽室中央公民館前,645_01,芽室中央公民館前
645_02,芽室中央公民館前,645_01,芽室中央公民館前
646_01,柏葉高校前,646_01,柏葉高校前
646_02,柏葉高校前,646_01,柏葉高校前
647_01,大通1丁目,647_01,大通1丁目
647_02,大通1丁目,647_01,大通1丁目
648_01,帯広神社前,648_01,帯広神社前
648_02,帯広神社前,648_01,帯広神社前
649_01,東4条6丁目,649_01,東4条6丁目
649_02,東4条6丁目,649_01,東4条6丁目
650_01,東4条7丁目,650_01,東4条7丁目
650_02,東4条7丁目,650_01,東4条7丁目
651_01,栄通4丁目,651_01,栄通4丁目
651_02,栄通4丁目,651_01,栄通4丁目
652_01,栄通5丁目,652_01,栄通5丁目
652_02,栄通5丁目,652_01,栄通5丁目
653_01,栄通6丁目,653_01,栄通6丁目
653_02,栄通6丁目,653_01,栄通6丁目
654_01,西20条6丁目,654_01,西20条6丁目
654_02,西20条6丁目,654_01,西20条6丁目
655_01,帯広の森野球場前,655_01,帯広の森野球場前
655_03,帯広の森野球場前,655_01,帯広の森野球場前
655_04,帯広の森野球場前,655_01,帯広の森野球場前
656_01,帯広の森体育館前,656_01,帯広の森体育館前
656_02,帯広の森体育館前,656_01,帯広の森体育館前
657_01,白樺学園前,657_01,白樺学園前
658_01,帯広の森スピードスケート場前,658_01,帯広の森スピードスケート場前
658_02,帯広の森スピードスケート場前,658_01,帯広の森スピードスケート場前
659_01,東別府,659_01,東別府
659_02,東別府,659_01,東別府
660_01,南の森西9丁目,660_01,南の森西9丁目
660_02,南の森西9丁目,660_01,南の森西9丁目
661_01,南の森西7丁目,661_01,南の森西7丁目
661_02,南の森西7丁目,661_01,南の森西7丁目
662_01,空港橋,662_01,空港橋
662_02,空港橋,662_01,空港橋
663_01,国道西23条,663_01,国道西23条
663_02,国道西23条,663_01,国道西23条
664_01,畜産大学入口,664_01,畜産大学入口
664_02,畜産大学入口,664_01,畜産大学入口
665_01,木野大通18丁目,665_01,木野大通18丁目
665_02,木野大通18丁目,665_01,木野大通18丁目
666_01,よつ葉乳業前,666_01,よつ葉乳業前
666_02,よつ葉乳業前,666_01,よつ葉乳業前
667_01,音更新通17丁目,667_01,音更新通17丁目
667_02,音更新通17丁目,667_01,音更新通17丁目
668_01,音更新通15丁目,668_01,音更新通15丁目
668_02,音更新通15丁目,668_01,音更新通15丁目
669_01,幕別宝町,669_01,幕別宝町
669_02,幕別宝町,669_01,幕別宝町
670_01,音更大通11丁目,670_01,音更大通11丁目
670_02,音更大通11丁目,670_01,音更大通11丁目
671_01,音更新通1丁目,671_01,音更新通1丁目
671_02,音更新通1丁目,671_01,音更新通1丁目
672_01,音更みはる野団地,672_01,音更みはる野団地
672_02,音更みはる野団地,672_01,音更みはる野団地
673_01,音更7号,673_01,音更7号
673_02,音更7号,673_01,音更7号
674_01,音更8号,674_01,音更8号
674_02,音更8号,674_01,音更8号
675_01,音更9号,675_01,音更9号
675_02,音更9号,675_01,音更9号
676_01,音更10号,676_01,音更10号
676_02,音更10号,676_01,音更10号
677_01,福平,677_01,福平
677_02,福平,677_01,福平
678_01,音更12号,678_01,音更12号
678_02,音更12号,678_01,音更12号
679_01,中士幌1号,679_01,中士幌1号
679_02,中士幌1号,679_01,中士幌1号
680_01,中士幌2号,680_01,中士幌2号
680_02,中士幌2号,680_01,中士幌2号
681_01,中士幌3号,681_01,中士幌3号
681_02,中士幌3号,681_01,中士幌3号
682_01,中士幌4号,682_01,中士幌4号
682_02,中士幌4号,682_01,中士幌4号
683_01,中士幌5号,683_01,中士幌5号
683_02,中士幌5号,683_01,中士幌5号
684_01,中士幌6号,684_01,中士幌6号
684_02,中士幌6号,684_01,中士幌6号
685_01,中士幌7号,685_01,中士幌7号
685_02,中士幌7号,685_01,中士幌7号
686_01,中士幌8号,686_01,中士幌8号
686_02,中士幌8号,686_01,中士幌8号
687_01,中士幌9号,687_01,中士幌9号
687_02,中士幌9号,687_01,中士幌9号
688_01,中士幌10号,688_01,中士幌10号
688_02,中士幌10号,688_01,中士幌10号
689_01,中士幌11号,689_01,中士幌11号
689_02,中士幌11号,689_01,中士幌11号
690_01,中士幌待合所,690_01,中士幌待合所
690_02,中士幌待合所,690_01,中士幌待合所
691_01,東中音更入口,691_01,東中音更入口
691_02,東中音更入口,691_01,東中音更入口
692_01,東団地入口,692_01,東団地入口
692_02,東団地入口,692_01,東団地入口
693_01,中士幌14号,693_01,中士幌14号
693_02,中士幌14号,693_01,中士幌14号
694_01,中士幌15号,694_01,中士幌15号
694_02,中士幌15号,694_01,中士幌15号
695_01,中士幌16号,695_01,中士幌16号
695_02,中士幌16号,695_01,中士幌16号
696_01,中士幌17号,696_01,中士幌17号
696_02,中士幌17号,696_01,中士幌17号
697_01,中士幌18号,697_01,中士幌18号
697_02,中士幌18号,697_01,中士幌18号
698_01,中士幌19号,698_01,中士幌19号
698_02,中士幌19号,698_01,中士幌19号
699_01,士幌20号,699_01,士幌20号
699_02,士幌20号,699_01,士幌20号
700_01,士幌21号,700_01,士幌21号
700_02,士幌21号,700_01,士幌21号
701_01,士幌22号,701_01,士幌22号
701_02,士幌22号,701_01,士幌22号
702_01,士幌23号,702_01,士幌23号
702_02,士幌23号,702_01,士幌23号
703_01,士幌24号,703_01,士幌24号
703_02,士幌24号,703_01,士幌24号
704_01,士幌25号,704_01,士幌25号
704_02,士幌25号,704_01,士幌25号
705_01,士幌,705_01,士幌
705_02,士幌,705_01,士幌
706_01,士幌農協前,706_01,士幌農協前
706_02,士幌農協前,706_01,士幌農協前
707_01,士幌信金前,707_01,士幌信金前
707_02,士幌信金前,707_01,士幌信金前
708_01,士幌待合所,708_01,士幌待合所
708_02,士幌待合所,708_01,士幌待合所
709_01,士幌保育所前,709_01,士幌保育所前
709_02,士幌保育所前,709_01,士幌保育所前
710_01,士幌西１線,710_01,士幌西１線
710_02,士幌西１線,710_01,士幌西１線
711_01,士幌基線,711_01,士幌基線
711_02,士幌基線,711_01,士幌基線
712_01,士幌27号,712_01,士幌27号
712_02,士幌27号,712_01,士幌27号
713_01,士幌28号,713_01,士幌28号
713_02,士幌28号,713_01,士幌28号
714_01,士幌29号,714_01,士幌29号
714_02,士幌29号,714_01,士幌29号
715_01,士幌30号,715_01,士幌30号
715_02,士幌30号,715_01,士幌30号
716_01,士幌31号,716_01,士幌31号
716_02,士幌31号,716_01,士幌31号
717_01,士幌32号,717_01,士幌32号
717_02,士幌32号,717_01,士幌32号
718_01,士幌33号,718_01,士幌33号
718_02,士幌33号,718_01,士幌33号
719_01,士幌34号,719_01,士幌34号
719_02,士幌34号,719_01,士幌34号
720_01,士幌35号,720_01,士幌35号
720_02,士幌35号,720_01,士幌35号
721_01,上士幌36号,721_01,上士幌36号
721_02,上士幌36号,721_01,上士幌36号
722_01,上士幌37号,722_01,上士幌37号
722_02,上士幌37号,722_01,上士幌37号
723_01,上士幌38号,723_01,上士幌38号
723_02,上士幌38号,723_01,上士幌38号
724_01,上士幌高校前,724_01,上士幌高校前
724_02,上士幌高校前,724_01,上士幌高校前
725_01,十勝バス上士幌営業所前,725_01,十勝バス上士幌営業所前
725_02,十勝バス上士幌営業所前,725_01,十勝バス上士幌営業所前
726_01,上士幌小学校前,726_01,上士幌小学校前
726_02,上士幌小学校前,726_01,上士幌小学校前
727_01,上士幌11区,727_01,上士幌11区
727_02,上士幌11区,727_01,上士幌11区
728_01,上士幌東２線,728_01,上士幌東２線
728_02,上士幌東２線,728_01,上士幌東２線
729_01,上士幌農協前,729_01,上士幌農協前
729_02,上士幌農協前,729_01,上士幌農協前
730_01,かちまい上士幌前,730_01,かちまい上士幌前
730_02,かちまい上士幌前,730_01,かちまい上士幌前
731_01,上士幌,731_01,上士幌
731_02,上士幌,731_01,上士幌
732_01,上士幌交通ターミナル,732_01,上士幌交通ターミナル
733_02,拓殖バス上士幌営業所,733_02,拓殖バス上士幌営業所
734_02,しんくみ上士幌支店前,734_02,しんくみ上士幌支店前
735_02,ハレタかみしほろ前（上士幌）,735_02,ハレタかみしほろ前（上士幌）
869_01,木村医院前,869_01,木村医院前
869_02,木村医院前,869_01,木村医院前
737_01,上士幌42号,737_01,上士幌42号
737_02,上士幌42号,737_01,上士幌42号
738_01,上士幌43号,738_01,上士幌43号
738_02,上士幌43号,738_01,上士幌43号
739_01,上士幌44号,739_01,上士幌44号
739_02,上士幌44号,739_01,上士幌44号
740_01,上士幌45号,740_01,上士幌45号
740_02,上士幌45号,740_01,上士幌45号
741_01,上士幌46号,741_01,上士幌46号
741_02,上士幌46号,741_01,上士幌46号
742_01,上士幌47号,742_01,上士幌47号
742_02,上士幌47号,742_01,上士幌47号
743_01,萩ヶ岡,743_01,萩ヶ岡
743_02,萩ヶ岡,743_01,萩ヶ岡
744_01,上士幌51号,744_01,上士幌51号
744_02,上士幌51号,744_01,上士幌51号
745_01,上士幌52号,745_01,上士幌52号
745_02,上士幌52号,745_01,上士幌52号
746_01,上士幌53号,746_01,上士幌53号
746_02,上士幌53号,746_01,上士幌53号
747_01,上士幌54号,747_01,上士幌54号
747_02,上士幌54号,747_01,上士幌54号
748_01,上士幌55号,748_01,上士幌55号
748_02,上士幌55号,748_01,上士幌55号
749_01,上士幌56号,749_01,上士幌56号
749_02,上士幌56号,749_01,上士幌56号
750_01,上士幌57号,750_01,上士幌57号
750_02,上士幌57号,750_01,上士幌57号
751_01,清水谷公民館前,751_01,清水谷公民館前
751_02,清水谷公民館前,751_01,清水谷公民館前
752_01,清水谷,752_01,清水谷
752_02,清水谷,752_01,清水谷
753_01,国立公園入口,753_01,国立公園入口
753_02,国立公園入口,753_01,国立公園入口
754_01,黒石平,754_01,黒石平
754_02,黒石平,754_01,黒石平
755_01,十勝バスぬかびら営業所,755_01,十勝バスぬかびら営業所
756_01,ぬかびら温泉公園前,756_01,ぬかびら温泉公園前
756_02,ぬかびら温泉公園前,756_01,ぬかびら温泉公園前
757_01,ぬかびらスキー場前,757_01,ぬかびらスキー場前
758_01,幕別南町,758_01,幕別南町
758_02,幕別南町,758_01,幕別南町
759_01,中札内高等養護学校幕別分校,759_01,中札内高等養護学校幕別分校
759_02,中札内高等養護学校幕別分校,759_01,中札内高等養護学校幕別分校
760_01,幕別鉄南近隣センター前,760_01,幕別鉄南近隣センター前
760_02,幕別鉄南近隣センター前,760_01,幕別鉄南近隣センター前
761_01,幕別小学校前,761_01,幕別小学校前
761_02,幕別小学校前,761_01,幕別小学校前
761_03,幕別小学校前,761_01,幕別小学校前
762_01,幕別緑町,762_01,幕別緑町
762_02,幕別緑町,762_01,幕別緑町
763_01,幕別東緑町団地,763_01,幕別東緑町団地
763_02,幕別東緑町団地,763_01,幕別東緑町団地
764_01,高木皮膚科前,764_01,高木皮膚科前
764_02,高木皮膚科前,764_01,高木皮膚科前
765_01,大通4丁目,765_01,大通4丁目
765_02,大通4丁目,765_01,大通4丁目
766_01,総合振興局前,766_01,総合振興局前
766_02,総合振興局前,766_01,総合振興局前
767_01,東3条2丁目,767_01,東3条2丁目
768_01,大川町,768_01,大川町
769_01,東5条3丁目,769_01,東5条3丁目
769_02,東5条3丁目,769_01,東5条3丁目
770_01,東7条3丁目,770_01,東7条3丁目
770_02,東7条3丁目,770_01,東7条3丁目
771_01,東8条2丁目,771_01,東8条2丁目
771_02,東8条2丁目,771_01,東8条2丁目
772_01,東9条2丁目,772_01,東9条2丁目
772_02,東9条2丁目,772_01,東9条2丁目
773_01,東10条2丁目,773_01,東10条2丁目
773_02,東10条2丁目,773_01,東10条2丁目
774_01,東10条3丁目,774_01,東10条3丁目
774_02,東10条3丁目,774_01,東10条3丁目
775_01,東11条4丁目,775_01,東11条4丁目
775_02,東11条4丁目,775_01,東11条4丁目
776_01,東12条5丁目,776_01,東12条5丁目
776_02,東12条5丁目,776_01,東12条5丁目
777_01,東12条4丁目,777_01,東12条4丁目
777_02,東12条4丁目,777_01,東12条4丁目
778_01,東13条4丁目,778_01,東13条4丁目
778_02,東13条4丁目,778_01,東13条4丁目
779_01,東13条5丁目,779_01,東13条5丁目
779_02,東13条5丁目,779_01,東13条5丁目
780_01,十勝清水駅前,780_01,十勝清水駅前
781_01,清水本通5丁目,781_01,清水本通5丁目
781_02,清水本通5丁目,781_01,清水本通5丁目
782_01,清水南2条5丁目,782_01,清水南2条5丁目
782_02,清水南2条5丁目,782_01,清水南2条5丁目
783_01,清水消防署前,783_01,清水消防署前
783_02,清水消防署前,783_01,清水消防署前
784_01,羽帯,784_01,羽帯
784_02,羽帯,784_01,羽帯
785_01,御影駅前,785_01,御影駅前
786_01,北愛国交流広場前,786_01,北愛国交流広場前
787_01,北愛国,787_01,北愛国
788_01,愛国1号,788_01,愛国1号
789_01,愛国2号,789_01,愛国2号
790_01,愛国小学校前,790_01,愛国小学校前
791_01,愛国5号,791_01,愛国5号
792_01,愛国6号,792_01,愛国6号
793_01,愛国農業センター,793_01,愛国農業センター
794_01,大正小学校前,794_01,大正小学校前
795_02,道の駅かみしほろ（上士幌）,795_02,道の駅かみしほろ（上士幌）
796_02,かみしほろ情報館前（上士幌）,796_02,かみしほろ情報館前（上士幌）
1057_01,とかちプラザ前,1057_01,とかちプラザ前
1057_02,とかちプラザ前,1057_01,とかちプラザ前
807_02,西17条公宅前,807_02,西17条公宅前
1058_01,西6条,1058_01,西6条
870_01,豊町,870_01,豊町
870_02,豊町,870_01,豊町
1059_01,春駒通7条,1059_01,春駒通7条
1060_01,緑ヶ丘,1060_01,緑ヶ丘
825_01,北町1丁目,825_01,北町1丁目
829_02,弥生新道4丁目,829_02,弥生新道4丁目
1061_01,美術館前,1061_01,美術館前
838_01,フクハラ幕別店前,838_01,フクハラ幕別店前
839_01,旭町西団地前,839_01,旭町西団地前
840_01,三角公園前,840_01,三角公園前
841_01,幕別北コミセン前,841_01,幕別北コミセン前
842_01,旭町東団地前,842_01,旭町東団地前
843_01,旭町,843_01,旭町
844_01,幸町,844_01,幸町
845_01,北洋銀行前,845_01,北洋銀行前
846_01,役場前,846_01,役場前
847_01,農業者トレーニングセンター前,847_01,農業者トレーニングセンター前
848_01,景山医院前,848_01,景山医院前
849_01,寿町,849_01,寿町
850_01,運動公園入口,850_01,運動公園入口
851_01,幕別跨線橋,851_01,幕別跨線橋
852_01,老人福祉増進センター前,852_01,老人福祉増進センター前
853_01,善教寺前,853_01,善教寺前
854_01,南町,854_01,南町
855_01,鉄南ふれあい交流館前,855_01,鉄南ふれあい交流館前
856_01,幕別中学校前,856_01,幕別中学校前
857_01,十勝大福本舗前,857_01,十勝大福本舗前
858_01,あけぼの公園前,858_01,あけぼの公園前
859_01,緑央公園前,859_01,緑央公園前
860_01,新緑公園前,860_01,新緑公園前
861_01,東緑団地,861_01,東緑団地
862_01,新緑町東団地,862_01,新緑町東団地
863_01,緑町クリニック前,863_01,緑町クリニック前
864_01,のぞみ公園前,864_01,のぞみ公園前
865_01,図書館前,865_01,図書館前
866_01,保健福祉ｾﾝﾀｰ前,866_01,保健福祉ｾﾝﾀｰ前
867_01,宝町,867_01,宝町
868_01,札内支所前（コミバス）,868_01,札内支所前（コミバス）
871_01,新北町東,871_01,新北町東
871_02,新北町東,871_01,新北町東
872_01,新北町公園前,872_01,新北町公園前
872_02,新北町公園前,872_01,新北町公園前
873_01,新北町近隣センター前,873_01,新北町近隣センター前
873_02,新北町近隣センター前,873_01,新北町近隣センター前
874_01,札内北クリニック・おち小児科医院前,874_01,札内北クリニック・おち小児科医院前
874_02,札内北クリニック・おち小児科医院前,874_01,札内北クリニック・おち小児科医院前
875_01,桜町南,875_01,桜町南
875_02,桜町南,875_01,桜町南
876_01,桜町西,876_01,桜町西
876_02,桜町西,876_01,桜町西
877_01,桜町近隣センター前,877_01,桜町近隣センター前
877_02,桜町近隣センター前,877_01,桜町近隣センター前
878_01,桜町北,878_01,桜町北
878_02,桜町北,878_01,桜町北
879_01,札内北コミセン前,879_01,札内北コミセン前
879_02,札内北コミセン前,879_01,札内北コミセン前
880_01,札内北公園前,880_01,札内北公園前
880_02,札内北公園前,880_01,札内北公園前
881_01,北町,881_01,北町
881_02,北町,881_01,北町
882_01,札内ガーデン温泉前,882_01,札内ガーデン温泉前
883_01,北町東,883_01,北町東
883_02,北町東,883_01,北町東
884_01,暁町北,884_01,暁町北
884_02,暁町北,884_01,暁町北
885_01,暁町近隣センター前,885_01,暁町近隣センター前
885_02,暁町近隣センター前,885_01,暁町近隣センター前
886_01,暁町中央,886_01,暁町中央
886_02,暁町中央,886_01,暁町中央
887_01,札内スポーツセンター前,887_01,札内スポーツセンター前
887_02,札内スポーツセンター前,887_01,札内スポーツセンター前
888_01,百年記念ホール前,888_01,百年記念ホール前
889_01,暁町東,889_01,暁町東
889_02,暁町東,889_01,暁町東
890_01,十勝の杜病院前,302_01,十勝の杜病院前
890_02,十勝の杜病院前,302_01,十勝の杜病院前
891_01,白人小学校前,300_01,白人小学校前
891_02,白人小学校前,300_01,白人小学校前
892_01,ぴあざフクハラ札内店前,892_01,ぴあざフクハラ札内店前
892_02,ぴあざフクハラ札内店前,892_01,ぴあざフクハラ札内店前
893_01,札内9号南通,893_01,札内9号南通
893_02,札内9号南通,893_01,札内9号南通
894_01,柏木内科医院前,894_01,柏木内科医院前
894_02,柏木内科医院前,894_01,柏木内科医院前
895_01,國安歯科医院前,895_01,國安歯科医院前
895_02,國安歯科医院前,895_01,國安歯科医院前
896_01,札内東中学校前,299_01,札内東中学校前
896_02,札内東中学校前,299_01,札内東中学校前
897_01,東春日,897_01,東春日
897_02,東春日,897_01,東春日
898_01,春日団地,898_01,春日団地
898_02,春日団地,898_01,春日団地
899_01,パークホテル悠湯館前,899_01,パークホテル悠湯館前
900_01,札内南大通,900_01,札内南大通
900_02,札内南大通,900_01,札内南大通
901_01,札内駅前,901_01,札内駅前
901_02,札内駅前,901_01,札内駅前
902_01,リテラかとう前,902_01,リテラかとう前
902_02,リテラかとう前,902_01,リテラかとう前
903_01,村松歯科医院前,903_01,村松歯科医院前
903_02,村松歯科医院前,903_01,村松歯科医院前
904_01,泉町,904_01,泉町
904_02,泉町,904_01,泉町
905_01,泉町近隣センター前,905_01,泉町近隣センター前
905_02,泉町近隣センター前,905_01,泉町近隣センター前
906_01,幕別温泉前,596_01,幕別温泉前
906_02,幕別温泉前,596_01,幕別温泉前
907_01,老人福祉センター前,907_01,老人福祉センター前
908_01,あかしや町東,908_01,あかしや町東
908_02,あかしや町東,908_01,あかしや町東
909_01,札内南保育所前,909_01,札内南保育所前
909_02,札内南保育所前,909_01,札内南保育所前
910_01,老健あかしや前,910_01,老健あかしや前
910_02,老健あかしや前,910_01,老健あかしや前
911_01,文京町,911_01,文京町
911_02,文京町,911_01,文京町
912_01,いなほ公園前,912_01,いなほ公園前
912_02,いなほ公園前,912_01,いなほ公園前
913_01,札内南小学校前,913_01,札内南小学校前
913_02,札内南小学校前,913_01,札内南小学校前
914_01,札内南コミセン前,914_01,札内南コミセン前
914_02,札内南コミセン前,914_01,札内南コミセン前
915_01,札内中学校前,588_01,札内中学校前
915_02,札内中学校前,588_01,札内中学校前
916_01,フクハラ若草店前,916_01,フクハラ若草店前
916_02,フクハラ若草店前,916_01,フクハラ若草店前
917_01,桂町東,917_01,桂町東
917_02,桂町東,917_01,桂町東
918_01,桂町西,918_01,桂町西
918_02,桂町西,918_01,桂町西
919_01,北栄町南,919_01,北栄町南
919_02,北栄町南,919_01,北栄町南
920_01,北栄町西,920_01,北栄町西
920_02,北栄町西,920_01,北栄町西
921_01,札内さかえ保育所前,921_01,札内さかえ保育所前
921_02,札内さかえ保育所前,921_01,札内さかえ保育所前
922_01,さつない耳鼻咽喉科前,922_01,さつない耳鼻咽喉科前
922_02,さつない耳鼻咽喉科前,922_01,さつない耳鼻咽喉科前
923_01,ダイイチ札内店,923_01,ダイイチ札内店
923_02,ダイイチ札内店,923_01,ダイイチ札内店
924_01,共栄町,924_01,共栄町
924_02,共栄町,924_01,共栄町
925_01,桂町北,925_01,桂町北
925_02,桂町北,925_01,桂町北
926_01,若草7号通,926_01,若草7号通
926_02,若草7号通,926_01,若草7号通
927_01,若草道営住宅前,927_01,若草道営住宅前
927_02,若草道営住宅前,927_01,若草道営住宅前
928_01,若草町,928_01,若草町
928_02,若草町,928_01,若草町
929_01,酒のきがわ前,929_01,酒のきがわ前
929_02,酒のきがわ前,929_01,酒のきがわ前
930_01,コープ札内店前,930_01,コープ札内店前
931_01,共栄コミセン前,931_01,共栄コミセン前
932_01,田中医院前,932_01,田中医院前
933_01,柳町小学校前,201_01,柳町小学校前
934_01,柳町南区,202_01,柳町南区
935_01,柳町中央公園前,935_01,柳町中央公園前
936_01,柳町仲区,936_01,柳町仲区
937_01,柳町北2公園前,937_01,柳町北2公園前
938_01,柳町北区東,938_01,柳町北区東
939_01,柳町公住前,205_01,柳町公住前
940_01,柳町北区,204_01,柳町北区
941_01,木野大通東17丁目,941_01,木野大通東17丁目
942_01,木野大通西18丁目,942_01,木野大通西18丁目
943_01,木野大通西19丁目,943_01,木野大通西19丁目
944_01,開進生活館前,944_01,開進生活館前
945_01,柳町9線,945_01,柳町9線
946_01,東通18丁目,946_01,東通18丁目
947_01,森林組合前,209_01,森林組合前
948_01,東通12丁目,948_01,東通12丁目
949_01,梢公住前,949_01,梢公住前
950_01,総合福祉センター前,950_01,総合福祉センター前
951_01,消防分団前,951_01,消防分団前
952_01,保健センター前,952_01,保健センター前
953_01,新通会館前,953_01,新通会館前
954_01,ひなげし公園前,954_01,ひなげし公園前
955_01,新通1丁目,955_01,新通1丁目
956_01,大通2丁目,956_01,大通2丁目
957_01,老人ホーム入口,957_01,老人ホーム入口
958_01,雄飛が丘仲区,958_01,雄飛が丘仲区
959_01,雄飛が丘会館前,959_01,雄飛が丘会館前
960_01,音更中学校前,960_01,音更中学校前
961_01,雄飛が丘南区,961_01,雄飛が丘南区
962_01,温水プール前,962_01,温水プール前
963_01,サンドーム前,963_01,サンドーム前
964_01,桜ヶ丘,964_01,桜ヶ丘
965_01,プロスパ6前,965_01,プロスパ6前
966_01,JA音更,966_01,JA音更
967_01,交通公園前,967_01,交通公園前
968_01,音更役場前,214_01,音更役場前
969_01,大通11丁目,969_01,大通11丁目
970_01,改善センター前,970_01,改善センター前
971_01,大谷短大前,971_01,大谷短大前
972_01,緑ヶ丘病院前,972_01,緑ヶ丘病院前
973_01,緑陽台北区,973_01,緑陽台北区
974_01,緑陽台公住前,974_01,緑陽台公住前
975_01,緑陽台北３公園前,975_01,緑陽台北３公園前
976_01,緑陽台８線,976_01,緑陽台８線
977_01,緑陽台公園前,977_01,緑陽台公園前
978_01,緑陽台仲区,978_01,緑陽台仲区
979_01,緑陽台南区,979_01,緑陽台南区
980_01,緑陽会館前,980_01,緑陽会館前
981_01,音更病院前,981_01,音更病院前
982_01,緑陽台歯科前,982_01,緑陽台歯科前
983_01,文化センター入口,983_01,文化センター入口
984_01,親水広場前,984_01,親水広場前
985_01,つつじ公園前,985_01,つつじ公園前
986_01,木野大通東14丁目,986_01,木野大通東14丁目
987_01,佐治整形前,987_01,佐治整形前
988_01,徳洲会病院前,988_01,徳洲会病院前
989_01,木野西通13丁目,989_01,木野西通13丁目
990_01,下音更小学校前,990_01,下音更小学校前
991_01,木野西通11丁目,991_01,木野西通11丁目
992_01,木野西通9丁目,992_01,木野西通9丁目
993_01,木野コミセン前,993_01,木野コミセン前
994_01,木野支所前,994_01,木野支所前
1062_01,動物園正門前,1062_01,動物園正門前
996_01,北宝来西通り,996_01,北宝来西通り
997_01,北宝来,997_01,北宝来
998_01,北宝来中央,998_01,北宝来中央
999_01,宝来中央,999_01,宝来中央
1000_01,宝来中央公園前,1000_01,宝来中央公園前
1001_01,宝来西通り,1001_01,宝来西通り
1002_01,宝来,1002_01,宝来
1003_01,木野東会館前,1003_01,木野東会館前
1004_01,木野東通4丁目,1004_01,木野東通4丁目
1005_01,木野南公園前,1005_01,木野南公園前
1006_01,千野会館前,1006_01,千野会館前
1007_01,木野大通西2丁目,1007_01,木野大通西2丁目
1008_01,鈴蘭公園前,1008_01,鈴蘭公園前
1009_01,南鈴蘭,1009_01,南鈴蘭
1010_01,南鈴蘭南２丁目,1010_01,南鈴蘭南２丁目
1011_01,南鈴蘭北２丁目,1011_01,南鈴蘭北２丁目
1012_01,南鈴蘭北4線,1012_01,南鈴蘭北4線
1013_01,清和広場前,1013_01,清和広場前
1014_01,中鈴蘭,1014_01,中鈴蘭
1015_01,青葉町,1015_01,青葉町
1016_01,北蘭南５丁目,1016_01,北蘭南５丁目
1017_01,北蘭憩いの家前,1017_01,北蘭憩いの家前
1018_01,北蘭団地,1018_01,北蘭団地
1019_01,鈴蘭郵便局前,1019_01,鈴蘭郵便局前
1020_01,すずらん歯科前,1020_01,すずらん歯科前
1021_01,木野新町公園前,1021_01,木野新町公園前
1022_01,共栄台幼稚園前,1022_01,共栄台幼稚園前
1023_01,共栄台12丁目,1023_01,共栄台12丁目
1024_01,共栄団地,1024_01,共栄団地
1025_01,共栄台13丁目,1025_01,共栄台13丁目
1026_01,むつみ,1026_01,むつみ
1027_01,文化センター前,1027_01,文化センター前
1028_01,おおや整形前,1028_01,おおや整形前
1029_01,役場前クリニック,1029_01,役場前クリニック
1030_01,北宝来東,1030_01,北宝来東
1031_01,ひびき野仲町,1031_01,ひびき野仲町
1032_01,図書館前,1032_01,図書館前
1033_01,木野西通12丁目,1033_01,木野西通12丁目
1034_01,北宝来北,1034_01,北宝来北
1035_01,みはるの団地,1035_01,みはるの団地
1036_01,新通北2丁目,1036_01,新通北2丁目
1037_01,新通北1丁目,1037_01,新通北1丁目
1038_01,耳鼻咽喉科前,1038_01,耳鼻咽喉科前
1050_01,高橋測量設計前,1050_01,高橋測量設計前
1040_01,宏明館病院前,1040_01,宏明館病院前
1041_01,十勝勤医協病院前,1041_01,十勝勤医協病院前
1042_01,新通15丁目,1042_01,新通15丁目
1043_01,エーコープ音更前,1043_01,エーコープ音更前
1044_01,ふれあい交流館前,1044_01,ふれあい交流館前
1045_01,下音更中学校入口,1045_01,下音更中学校入口
1046_01,宝来東団地前,1046_01,宝来東団地前
1047_01,ひびき野東町,1047_01,ひびき野東町
1048_01,ひびき野西町,1048_01,ひびき野西町
1049_01,宝来西町南2丁目,1049_01,宝来西町南2丁目
1063_01,緑南郵便局前,1063_01,緑南郵便局前
1064_01,北高正門前,1064_01,北高正門前
1070_01,札内10号,1070_01,札内10号
1071_01,札内青葉町,1071_01,札内青葉町
1072_01,札内消防署前,1072_01,札内消防署前
1073_01,札内泉町,1073_01,札内泉町
1074_01,依田近隣センター,1074_01,依田近隣センター
1075_01,西和会館,1075_01,西和会館
1076_01,芽室23号,1076_01,芽室23号
1077_01,芽室22号,1077_01,芽室22号
1078_01,芽室日甜前,1078_01,芽室日甜前
1079_01,芽室19号,1079_01,芽室19号
1080_01,芽室18号,1080_01,芽室18号
1081_01,芽室17号,1081_01,芽室17号
1082_01,芽室16号,1082_01,芽室16号
1083_01,国道西25条,1083_01,国道西25条
1084_01,清水高校前,1084_01,清水高校前
1085_01,西18条郵便局前,1085_01,西18条郵便局前
